,Code,Name,Ensemble,Trans Type,Peak Time,Peak SLP,Peak Lon,Peak Lat,Trop Peak Time,Trop Peak SLP,Trop Peak Lon,Trop Peak Lat,ET Begin Time,ET Begin SLP,ET Begin Lon,ET Begin Lat,ET Complete Time,ET Complete SLP,ET Complete Lon,ET Complete Lat,Genesis Time,Genesis SLP,Genesis Lon,Genesis Lat,Trop Begin Time,Final Time,Final SLP,Final Lon,Final Lat
0,TC190001,Alex,A,2,1900-08-31 12:00:00,998.93,-42.4,41.54,1900-08-27 06:00:00,999.11,-68.55,31.19,1900-08-28 00:00:00,1001.52,-65.34,32.7,1900-09-01 00:00:00,1006.23,-37.0,42.75,1900-08-25 00:00:00,1010.17,-74.91,22.04,1900-08-25 00:00:00,1900-09-04 00:00:00,1017.74,-17.0,44.25
1,TC190002,Beatrice,A,2,1900-09-03 06:00:00,933.33,-53.61,30.15,1900-09-03 06:00:00,933.33,-53.61,30.15,1900-09-04 06:00:00,943.55,-50.41,35.84,1900-09-10 06:00:00,978.17,-16.15,55.43,1900-08-26 12:00:00,1003.52,-7.32,15.81,1900-08-29 06:00:00,1900-09-10 06:00:00,978.17,-16.15,55.43
2,TC190003,Colin,A,1,1900-09-09 12:00:00,972.24,-51.89,48.03,1900-09-07 00:00:00,993.64,-64.5,40.87,1900-09-08 06:00:00,993.82,-60.67,40.65,,,,,1900-09-04 12:00:00,998.46,-68.21,35.95,1900-09-04 18:00:00,1900-09-11 06:00:00,996.61,-38.5,46.25
3,TC190004,Dawn,A,1,1900-09-16 06:00:00,988.35,-49.1,43.53,1900-09-14 18:00:00,997.38,-56.81,32.09,1900-09-15 06:00:00,993.79,-54.45,35.06,,,,,1900-09-11 12:00:00,1009.35,-46.84,17.12,1900-09-11 12:00:00,1900-09-16 18:00:00,1008.94,-46.59,37.99
4,TC190006,Ernest,A,1,1900-11-22 18:00:00,991.58,-36.06,34.02,1900-11-22 18:00:00,991.58,-36.06,34.02,1900-11-24 18:00:00,998.89,-42.28,44.18,,,,,1900-11-21 12:00:00,1006.64,-35.72,24.28,1900-11-21 12:00:00,1900-11-24 18:00:00,998.89,-42.28,44.18
5,TC190007,Flavia,A,2,1900-12-05 06:00:00,955.88,-25.59,20.99,1900-12-05 06:00:00,955.88,-25.59,20.99,1900-12-11 00:00:00,1012.5,-26.25,26.75,1900-12-12 00:00:00,1007.62,-24.5,29.75,1900-12-01 06:00:00,1001.05,-27.41,29.25,1900-12-01 06:00:00,1900-12-12 06:00:00,1001.0,-23.25,32.25
6,TC190101,Harrison,A,1,1901-09-02 18:00:00,993.83,-77.4,31.94,1901-09-02 18:00:00,993.83,-77.4,31.94,1901-09-04 00:00:00,1007.64,-82.59,37.74,,,,,1901-08-31 06:00:00,1013.8,-81.65,27.5,1901-08-31 06:00:00,1901-09-04 12:00:00,1011.87,-81.25,38.75
7,TC190103,Janet,A,1,1901-09-20 12:00:00,924.85,-65.79,29.2,1901-09-20 12:00:00,924.85,-65.79,29.2,1901-09-26 00:00:00,1007.36,-45.19,31.09,,,,,1901-09-17 00:00:00,1009.0,-58.98,20.7,1901-09-17 00:00:00,1901-09-30 06:00:00,1016.74,-50.5,28.75
8,TC190104,Kinen,A,2,1901-10-13 18:00:00,974.73,-35.58,40.53,1901-10-13 18:00:00,974.73,-35.58,40.53,1901-10-15 06:00:00,984.17,-21.7,47.01,1901-10-16 00:00:00,999.49,-13.75,44.5,1901-10-09 00:00:00,1010.36,-42.7,28.55,1901-10-10 06:00:00,1901-10-16 18:00:00,1009.48,-9.5,44.25
9,TC190201,Lydia,A,0,1902-01-24 12:00:00,975.4,-72.99,22.91,1902-01-24 12:00:00,975.4,-72.99,22.91,,,,,,,,,1902-01-17 00:00:00,1007.53,-61.49,23.91,1902-01-17 00:00:00,1902-01-28 12:00:00,990.66,-73.25,20.25
10,TC190202,Mario,A,2,1902-02-03 18:00:00,973.36,-28.79,33.46,1902-02-03 18:00:00,973.36,-28.79,33.46,1902-02-06 12:00:00,991.99,-22.84,47.13,1902-02-07 00:00:00,998.08,-21.25,51.41,1902-01-30 06:00:00,999.74,-63.74,21.55,1902-01-30 06:00:00,1902-02-07 06:00:00,997.91,-17.5,54.25
11,TC190205,Nicole,A,2,1902-08-17 06:00:00,903.29,-66.04,28.17,1902-08-17 06:00:00,903.29,-66.04,28.17,1902-08-20 00:00:00,952.77,-62.46,38.07,1902-08-21 06:00:00,968.29,-49.44,50.48,1902-08-10 06:00:00,1009.76,-36.45,14.79,1902-08-10 06:00:00,1902-08-21 12:00:00,969.73,-45.49,53.2
12,TC190206,Quinn,A,2,1902-09-05 00:00:00,951.82,-53.32,42.13,1902-09-03 18:00:00,957.33,-65.07,34.07,1902-09-04 12:00:00,971.3,-59.24,38.07,1902-09-05 18:00:00,972.26,-39.48,53.67,1902-08-23 18:00:00,1009.22,-28.68,10.98,1902-08-25 06:00:00,1902-09-05 18:00:00,972.26,-39.48,53.67
13,TC190207,Stephanie,A,1,1902-09-16 18:00:00,983.24,-66.68,37.96,1902-09-14 18:00:00,993.6,-70.43,32.45,1902-09-15 00:00:00,992.36,-68.97,33.02,,,,,1902-09-11 00:00:00,1011.54,-73.25,24.28,1902-09-11 00:00:00,1902-09-19 18:00:00,1007.19,-56.25,41.5
14,TC190301,Tony,A,0,1903-04-04 06:00:00,996.98,-35.48,25.9,1903-04-04 06:00:00,996.98,-35.48,25.9,,,,,,,,,1903-04-03 06:00:00,1004.98,-37.44,22.09,1903-04-04 06:00:00,1903-04-07 18:00:00,1008.71,-45.0,30.25
15,TC190302,Winnie,A,0,1903-04-08 18:00:00,986.98,-66.52,30.58,1903-04-08 18:00:00,986.98,-66.52,30.58,,,,,,,,,1903-04-05 00:00:00,1006.13,-66.91,23.85,1903-04-05 18:00:00,1903-04-10 18:00:00,1005.24,-67.25,30.25
16,TC190304,Audrey,A,1,1903-04-15 00:00:00,976.9,-60.56,30.26,1903-04-15 00:00:00,976.9,-60.56,30.26,1903-04-20 06:00:00,998.65,-51.0,30.67,,,,,1903-04-11 06:00:00,1004.64,-67.45,29.13,1903-04-11 06:00:00,1903-04-23 18:00:00,1010.1,-49.0,32.75
17,TC190305,Brandon,A,0,1903-06-11 00:00:00,995.97,-66.44,39.65,1903-06-11 00:00:00,995.97,-66.44,39.65,,,,,,,,,1903-06-01 00:00:00,1006.54,-80.59,13.33,1903-06-01 00:00:00,1903-06-11 18:00:00,1002.08,-65.75,43.5
18,TC190306,Christine,A,2,1903-07-15 06:00:00,931.32,-85.46,27.45,1903-07-15 06:00:00,931.32,-85.46,27.45,1903-07-19 12:00:00,1002.83,-68.32,42.57,1903-07-19 18:00:00,1002.24,-65.41,44.01,1903-07-10 06:00:00,1011.27,-66.5,21.44,1903-07-10 06:00:00,1903-07-20 06:00:00,999.48,-57.0,51.5
19,TC190307,David,A,0,1903-08-09 06:00:00,962.59,-96.77,27.83,1903-08-09 06:00:00,962.59,-96.77,27.83,,,,,,,,,1903-08-01 12:00:00,1009.28,-76.21,19.77,1903-08-01 12:00:00,1903-08-09 12:00:00,982.74,-97.83,28.2
20,TC190308,Elyse,A,2,1903-08-13 12:00:00,990.45,-53.0,44.0,1903-08-12 12:00:00,991.47,-67.76,39.2,1903-08-12 18:00:00,993.38,-64.75,39.75,1903-08-13 06:00:00,991.7,-56.25,42.5,1903-08-07 00:00:00,1011.2,-80.63,30.48,1903-08-07 00:00:00,1903-08-13 12:00:00,990.45,-53.0,44.0
21,TC190309,Frederick,A,1,1903-08-13 18:00:00,993.89,-79.7,13.75,1903-08-13 18:00:00,993.89,-79.7,13.75,1903-08-18 00:00:00,1007.67,-95.96,18.74,,,,,1903-08-12 06:00:00,1007.75,-66.45,12.83,1903-08-12 06:00:00,1903-08-18 12:00:00,1008.8,-95.38,20.37
22,TC190310,Hope,A,2,1903-09-08 00:00:00,929.66,-77.98,30.55,1903-09-08 00:00:00,929.66,-77.98,30.55,1903-09-10 00:00:00,946.7,-77.42,33.15,1903-09-13 18:00:00,973.9,-59.62,48.55,1903-09-01 12:00:00,1009.29,-58.77,21.05,1903-09-01 12:00:00,1903-09-14 06:00:00,970.11,-56.06,54.64
23,TC190312,Jacob,A,2,1903-09-27 06:00:00,976.43,-19.75,55.5,1903-09-24 00:00:00,996.45,-65.89,32.08,1903-09-24 12:00:00,999.15,-65.56,34.7,1903-09-26 06:00:00,987.51,-46.99,44.14,1903-09-19 12:00:00,1002.07,-58.59,20.05,1903-09-19 12:00:00,1903-09-27 06:00:00,976.43,-19.75,55.5
24,TC190313,Katrina,A,2,1903-10-20 00:00:00,939.47,-46.4,38.62,1903-10-19 06:00:00,941.52,-48.35,35.79,1903-10-19 12:00:00,940.99,-47.8,36.57,1903-10-21 18:00:00,966.39,-45.69,50.38,1903-10-09 12:00:00,1007.71,-62.01,18.82,1903-10-09 12:00:00,1903-10-22 06:00:00,976.2,-44.07,54.6
25,TC190401,Luke,A,1,1904-01-09 18:00:00,998.27,-31.26,35.73,1904-01-09 18:00:00,998.27,-31.26,35.73,1904-01-13 00:00:00,1005.21,-28.33,39.09,,,,,1904-01-08 06:00:00,999.31,-32.61,32.53,1904-01-08 06:00:00,1904-01-13 18:00:00,1002.33,-25.25,44.75
26,TC190402,Maho,A,2,1904-04-01 00:00:00,988.14,-50.91,42.96,1904-03-31 18:00:00,988.82,-54.06,40.58,1904-04-01 00:00:00,988.14,-50.91,42.96,1904-04-01 06:00:00,989.17,-47.64,45.09,1904-03-27 12:00:00,994.34,-65.02,23.88,1904-03-27 12:00:00,1904-04-02 06:00:00,1003.82,-28.5,42.0
27,TC190405,Nicholas,A,0,1904-06-30 00:00:00,978.16,-96.39,12.99,1904-06-30 00:00:00,978.16,-96.39,12.99,,,,,,,,,1904-06-26 18:00:00,1006.74,-78.49,8.99,1904-06-26 18:00:00,1904-06-30 06:00:00,982.21,-97.93,13.62
28,TC190406,Queenie,A,2,1904-07-21 18:00:00,998.99,-69.26,37.19,1904-07-21 18:00:00,998.99,-69.26,37.19,1904-07-23 00:00:00,1005.31,-57.32,43.98,1904-07-23 12:00:00,1006.89,-50.35,46.1,1904-07-19 00:00:00,1016.23,-80.57,32.49,1904-07-19 00:00:00,1904-07-26 06:00:00,1016.07,-9.25,46.5
29,TC190407,Samson,A,2,1904-08-04 00:00:00,946.6,-83.96,28.04,1904-08-04 00:00:00,946.6,-83.96,28.04,1904-08-09 00:00:00,1010.47,-71.08,39.86,1904-08-10 00:00:00,1008.01,-62.84,43.17,1904-07-28 18:00:00,1012.07,-40.78,15.94,1904-07-29 12:00:00,1904-08-11 06:00:00,1002.79,-45.25,48.0
30,TC190408,Tiffany,A,2,1904-08-07 00:00:00,987.25,-11.5,51.0,1904-08-03 00:00:00,987.44,-54.84,36.34,1904-08-05 06:00:00,1002.53,-42.21,45.36,1904-08-06 00:00:00,1004.74,-30.75,48.25,1904-07-29 06:00:00,1008.09,-65.63,34.42,1904-07-29 06:00:00,1904-08-08 00:00:00,1003.91,7.5,50.25
31,TC190409,William,A,0,1904-08-16 00:00:00,982.58,-96.4,20.78,1904-08-16 00:00:00,982.58,-96.4,20.78,,,,,,,,,1904-08-09 00:00:00,1009.59,-55.17,15.24,1904-08-10 00:00:00,1904-08-18 06:00:00,1015.83,-97.25,20.75
32,TC190410,Andy,A,2,1904-08-25 00:00:00,933.71,-60.72,27.57,1904-08-25 00:00:00,933.71,-60.72,27.57,1904-08-27 00:00:00,938.56,-58.19,37.45,1904-08-28 00:00:00,970.64,-51.61,48.33,1904-08-18 12:00:00,1010.19,-45.43,16.94,1904-08-18 12:00:00,1904-08-29 12:00:00,954.91,-17.75,55.0
33,TC190412,Bonnie,A,2,1904-09-09 18:00:00,960.45,-47.21,39.94,1904-09-09 06:00:00,960.48,-48.57,37.1,1904-09-09 18:00:00,960.45,-47.21,39.94,1904-09-11 18:00:00,993.16,-25.75,45.25,1904-09-06 06:00:00,1010.86,-44.27,30.63,1904-09-06 06:00:00,1904-09-13 06:00:00,969.9,-5.25,54.0
34,TC190413,Charlie,A,0,1904-10-02 12:00:00,994.08,-62.17,22.43,1904-10-02 12:00:00,994.08,-62.17,22.43,,,,,,,,,1904-09-22 12:00:00,1010.4,-48.6,8.79,1904-09-22 12:00:00,1904-10-04 00:00:00,1003.19,-63.04,20.45
35,TC190414,Demi,A,1,1904-10-07 12:00:00,966.52,-40.88,44.5,1904-10-07 12:00:00,966.52,-40.88,44.5,1904-10-09 12:00:00,986.84,-45.8,52.07,,,,,1904-10-01 12:00:00,1012.07,-51.57,30.43,1904-10-01 12:00:00,1904-10-09 18:00:00,988.32,-46.65,54.14
36,TC190416,Erik,A,2,1904-10-12 06:00:00,997.23,-42.9,19.68,1904-10-12 06:00:00,997.23,-42.9,19.68,1904-10-12 12:00:00,998.89,-43.54,20.77,1904-10-14 12:00:00,1005.91,-41.31,30.69,1904-10-08 18:00:00,1006.36,-26.33,11.77,1904-10-08 18:00:00,1904-10-16 12:00:00,1018.35,-34.18,31.77
37,TC190417,Frances,A,1,1904-10-23 06:00:00,982.14,-46.47,31.2,1904-10-23 06:00:00,982.14,-46.47,31.2,1904-10-26 18:00:00,1010.75,-45.5,31.0,,,,,1904-10-20 00:00:00,1006.36,-64.18,28.33,1904-10-22 00:00:00,1904-10-28 18:00:00,1015.09,-41.75,32.75
38,TC190501,Hubert,A,2,1905-01-11 18:00:00,981.84,-21.85,33.68,1905-01-11 18:00:00,981.84,-21.85,33.68,1905-01-15 06:00:00,1013.67,-18.75,33.0,1905-01-15 18:00:00,1016.96,-19.25,30.75,1905-01-11 06:00:00,989.67,-20.22,33.49,1905-01-11 06:00:00,1905-01-15 18:00:00,1016.96,-19.25,30.75
39,TC190509,Julie,A,2,1905-09-10 00:00:00,922.7,-61.74,30.53,1905-09-10 00:00:00,922.7,-61.74,30.53,1905-09-12 18:00:00,950.96,-55.67,44.13,1905-09-13 12:00:00,974.4,-43.67,47.6,1905-09-02 12:00:00,1012.93,-40.88,14.27,1905-09-03 00:00:00,1905-09-21 06:00:00,1013.43,-16.5,39.75
40,TC190510,Keith,A,2,1905-09-19 12:00:00,925.7,-60.18,23.75,1905-09-19 12:00:00,925.7,-60.18,23.75,1905-10-01 12:00:00,974.97,-18.15,36.61,1905-10-02 00:00:00,976.12,-11.42,37.95,1905-09-09 18:00:00,1006.01,-23.26,13.03,1905-09-10 00:00:00,1905-10-02 18:00:00,997.91,2.75,44.0
41,TC190511,Lily,A,1,1905-10-06 12:00:00,956.34,-11.58,32.43,1905-10-06 12:00:00,956.34,-11.58,32.43,1905-10-10 00:00:00,1002.67,-7.62,35.26,,,,,1905-09-22 06:00:00,1006.76,-16.38,10.76,1905-09-23 18:00:00,1905-10-10 06:00:00,1001.53,-5.86,35.17
42,TC190512,Marc,A,2,1905-09-26 18:00:00,952.67,-60.77,42.1,1905-09-26 18:00:00,952.67,-60.77,42.1,1905-09-27 06:00:00,965.05,-57.53,45.95,1905-09-27 12:00:00,982.18,-55.53,47.71,1905-09-25 00:00:00,1003.51,-63.88,35.84,1905-09-25 00:00:00,1905-09-29 18:00:00,1015.06,-35.75,47.5
43,TC190513,Noelle,A,2,1905-10-09 18:00:00,976.88,-28.99,13.73,1905-10-09 18:00:00,976.88,-28.99,13.73,1905-10-15 06:00:00,996.15,-26.75,24.24,1905-10-16 06:00:00,996.71,-19.31,26.76,1905-10-08 00:00:00,1002.34,-30.35,13.17,1905-10-08 00:00:00,1905-10-16 18:00:00,995.2,-13.16,30.25
44,TC190514,Rocco,A,1,1905-10-19 06:00:00,969.87,-57.19,46.53,1905-10-18 12:00:00,990.57,-56.36,39.31,1905-10-18 18:00:00,982.57,-55.64,41.88,,,,,1905-10-15 18:00:00,1008.55,-59.66,22.92,1905-10-15 18:00:00,1905-10-20 18:00:00,988.14,-64.44,46.63
45,TC190515,Shannon,A,2,1905-11-24 00:00:00,977.21,-75.48,18.76,1905-11-24 00:00:00,977.21,-75.48,18.76,1905-11-24 18:00:00,989.84,-72.22,23.17,1905-11-26 00:00:00,1008.45,-62.5,29.0,1905-11-22 00:00:00,1003.82,-80.48,11.26,1905-11-22 00:00:00,1905-11-29 18:00:00,1018.0,-47.25,35.0
46,TC190601,Thomas,A,0,1906-02-09 06:00:00,972.38,-13.44,44.89,1906-02-09 12:00:00,974.56,-12.99,46.07,,,,,,,,,1906-02-08 00:00:00,984.74,-18.84,38.41,1906-02-09 12:00:00,1906-02-12 06:00:00,989.31,-9.25,54.0
47,TC190604,Wendy,A,2,1906-04-02 00:00:00,992.91,-51.91,28.64,1906-04-02 18:00:00,993.67,-48.54,31.44,1906-04-05 06:00:00,1000.57,-43.79,35.32,1906-04-05 18:00:00,1005.58,-41.0,34.25,1906-04-02 00:00:00,992.91,-51.91,28.64,1906-04-02 18:00:00,1906-04-07 18:00:00,1019.18,-35.25,34.25
48,TC190605,Anna,A,1,1906-04-07 00:00:00,993.54,-58.66,32.94,1906-04-07 00:00:00,993.54,-58.66,32.94,1906-04-10 00:00:00,997.75,-58.75,42.25,,,,,1906-04-07 00:00:00,993.54,-58.66,32.94,1906-04-07 00:00:00,1906-04-10 12:00:00,998.36,-58.5,46.75
49,TC190610,Bryan,A,2,1906-08-30 00:00:00,939.55,-60.98,36.16,1906-08-29 06:00:00,967.22,-63.24,32.63,1906-08-29 12:00:00,954.41,-62.63,33.58,1906-09-01 12:00:00,999.01,-49.5,43.4,1906-08-25 00:00:00,1012.42,-70.33,22.86,1906-08-25 00:00:00,1906-09-03 00:00:00,1012.4,-37.76,45.35
50,TC190611,Cissy,A,2,1906-12-06 18:00:00,969.48,-40.08,41.17,1906-12-06 18:00:00,969.48,-40.08,41.17,1906-12-09 12:00:00,1001.29,-26.0,37.75,1906-12-09 18:00:00,1002.85,-24.5,36.75,1906-12-06 06:00:00,975.96,-41.82,40.52,1906-12-06 06:00:00,1906-12-11 18:00:00,1017.39,-19.75,36.25
51,TC190703,Dominic,A,1,1907-04-17 18:00:00,979.98,-37.78,41.91,1907-04-17 18:00:00,979.98,-37.78,41.91,1907-04-20 06:00:00,996.75,-13.75,45.75,,,,,1907-04-17 06:00:00,980.96,-43.13,40.16,1907-04-17 06:00:00,1907-04-21 00:00:00,1006.24,-6.75,47.5
52,TC190704,Esther,A,1,1907-05-31 18:00:00,998.98,-71.7,35.74,1907-05-31 18:00:00,998.98,-71.7,35.74,1907-06-02 00:00:00,1005.84,-63.25,45.25,,,,,1907-05-28 18:00:00,1010.59,-78.52,25.4,1907-05-29 00:00:00,1907-06-02 12:00:00,1007.92,-56.25,51.5
53,TC190705,Frank,A,1,1907-09-14 00:00:00,936.66,-42.99,31.88,1907-09-09 12:00:00,958.37,-61.74,30.53,1907-09-09 18:00:00,964.25,-60.26,31.28,,,,,1907-08-29 06:00:00,1010.64,-31.22,12.81,1907-08-29 06:00:00,1907-09-19 06:00:00,969.83,-8.3,47.53
54,TC190707,Helena,A,2,1907-09-25 00:00:00,911.21,-55.21,26.88,1907-09-25 00:00:00,911.21,-55.21,26.88,1907-09-26 18:00:00,936.9,-49.55,35.35,1907-09-29 00:00:00,938.74,-30.66,59.37,1907-09-13 00:00:00,1011.08,-29.18,9.54,1907-09-13 12:00:00,1907-09-29 00:00:00,938.74,-30.66,59.37
55,TC190708,John,A,0,1907-09-25 18:00:00,993.7,-42.47,28.9,1907-09-25 18:00:00,993.7,-42.47,28.9,,,,,,,,,1907-09-17 12:00:00,1007.06,-14.19,13.14,1907-09-17 12:00:00,1907-09-26 12:00:00,1001.9,-42.17,32.16
56,TC190709,Kannas,A,2,1907-10-28 06:00:00,995.24,-27.51,36.0,1907-10-28 06:00:00,995.24,-27.51,36.0,1907-11-02 00:00:00,1003.83,-26.65,46.87,1907-11-02 12:00:00,1008.59,-20.0,49.25,1907-10-28 06:00:00,995.24,-27.51,36.0,1907-10-28 06:00:00,1907-11-03 00:00:00,1012.81,-11.75,50.0
57,TC190710,Lomy,A,0,1907-11-16 00:00:00,997.49,-82.49,15.95,1907-11-16 00:00:00,997.49,-82.49,15.95,,,,,,,,,1907-11-14 12:00:00,1005.34,-84.19,16.99,1907-11-14 12:00:00,1907-11-19 06:00:00,1003.46,-81.0,21.62
58,TC190801,Mandy,A,0,1908-01-02 18:00:00,989.25,-23.31,31.4,1908-01-02 18:00:00,989.25,-23.31,31.4,,,,,,,,,1908-01-01 06:00:00,997.93,-27.39,29.96,1908-01-02 00:00:00,1908-01-05 00:00:00,1002.2,-11.75,44.0
59,TC190804,Nathan,A,2,1908-07-13 18:00:00,999.47,-46.2,41.25,1908-07-13 18:00:00,999.47,-46.2,41.25,1908-07-14 00:00:00,1000.33,-42.78,42.2,1908-07-14 12:00:00,1002.98,-35.01,43.7,1908-07-09 06:00:00,1014.81,-54.21,25.89,1908-07-09 06:00:00,1908-07-16 06:00:00,1019.49,-15.5,42.5
60,TC190806,Rosalina,A,2,1908-09-12 12:00:00,961.43,-86.4,29.65,1908-09-12 06:00:00,975.9,-87.25,29.16,1908-09-12 12:00:00,961.43,-86.4,29.65,1908-09-15 18:00:00,1005.95,-74.58,37.72,1908-08-25 06:00:00,1007.65,-31.52,12.68,1908-08-26 06:00:00,1908-09-16 06:00:00,1010.53,-70.5,39.5
61,TC190811,Samuel,A,0,1908-10-22 06:00:00,994.69,-25.39,37.55,1908-10-23 00:00:00,995.4,-26.57,39.75,,,,,,,,,1908-10-21 06:00:00,999.62,-28.96,32.72,1908-10-22 12:00:00,1908-10-24 12:00:00,1009.39,-29.0,40.0
62,TC190812,Tatiana,A,2,1908-12-17 18:00:00,995.99,-28.5,41.49,1908-12-17 18:00:00,995.99,-28.5,41.49,1908-12-20 06:00:00,998.51,-36.15,30.79,1908-12-21 06:00:00,1006.11,-32.75,26.25,1908-12-17 18:00:00,995.99,-28.5,41.49,1908-12-17 18:00:00,1908-12-21 18:00:00,1005.3,-30.5,27.0
63,TC190901,Wilson,A,1,1909-03-06 18:00:00,990.74,-39.91,32.89,1909-03-06 18:00:00,990.74,-39.91,32.89,1909-03-08 18:00:00,1006.38,-40.94,38.9,,,,,1909-03-06 00:00:00,993.26,-39.94,30.0,1909-03-06 00:00:00,1909-03-10 18:00:00,1019.11,-46.75,38.5
64,TC190902,Aidan,A,1,1909-04-14 06:00:00,977.84,-46.38,41.55,1909-04-14 06:00:00,977.84,-46.38,41.55,1909-04-19 06:00:00,1005.74,-32.0,47.5,,,,,1909-04-14 06:00:00,977.84,-46.38,41.55,1909-04-14 06:00:00,1909-04-19 06:00:00,1005.74,-32.0,47.5
65,TC190903,Bella,A,2,1909-09-04 06:00:00,987.98,-29.84,40.4,1909-09-04 06:00:00,987.98,-29.84,40.4,1909-09-05 00:00:00,993.31,-25.17,43.72,1909-09-05 06:00:00,997.28,-22.65,44.76,1909-08-26 12:00:00,1018.96,-35.73,34.85,1909-08-26 12:00:00,1909-09-06 12:00:00,1018.08,-10.5,45.75
66,TC190905,Carson,A,2,1909-09-19 12:00:00,976.9,-59.84,48.09,1909-09-18 12:00:00,994.58,-67.46,38.86,1909-09-18 18:00:00,992.65,-65.53,39.86,1909-09-19 12:00:00,976.9,-59.84,48.09,1909-09-16 18:00:00,1003.23,-73.51,36.23,1909-09-16 18:00:00,1909-09-20 06:00:00,990.48,-52.75,52.0
67,TC190906,Dorcas,A,2,1909-09-23 18:00:00,988.03,-60.0,41.18,1909-09-23 18:00:00,988.03,-60.0,41.18,1909-09-26 18:00:00,1008.23,-71.11,43.87,1909-09-27 00:00:00,1011.12,-70.67,45.98,1909-09-20 06:00:00,1010.21,-70.78,32.41,1909-09-20 12:00:00,1909-09-27 12:00:00,1010.57,-66.75,49.75
68,TC190907,Erling,A,2,1909-11-09 18:00:00,981.6,-14.97,47.44,1909-11-04 12:00:00,983.18,-45.38,38.16,1909-11-07 06:00:00,995.95,-32.86,39.66,1909-11-10 00:00:00,985.37,-13.73,48.77,1909-10-31 00:00:00,1009.12,-65.65,27.16,1909-10-31 00:00:00,1909-11-10 18:00:00,989.44,-12.25,57.5
69,TC191001,Grace,A,2,1910-06-17 18:00:00,996.14,-47.24,42.86,1910-06-17 12:00:00,996.43,-50.39,41.52,1910-06-17 18:00:00,996.14,-47.24,42.86,1910-06-18 18:00:00,1001.63,-35.07,48.63,1910-06-12 06:00:00,1008.75,-69.21,25.36,1910-06-12 06:00:00,1910-06-19 06:00:00,1004.2,-28.75,52.25
70,TC191003,Hendrik,A,2,1910-08-11 18:00:00,992.32,-65.61,42.12,1910-08-10 18:00:00,999.92,-75.4,35.95,1910-08-11 06:00:00,1000.85,-71.43,38.72,1910-08-12 00:00:00,997.15,-62.17,43.71,1910-08-07 06:00:00,1012.79,-80.2,23.44,1910-08-07 06:00:00,1910-08-13 18:00:00,1004.35,-34.5,54.75
71,TC191004,Jana,A,2,1910-08-26 12:00:00,938.83,-91.8,28.92,1910-08-26 12:00:00,938.83,-91.8,28.92,1910-08-27 12:00:00,959.36,-88.82,29.77,1910-08-28 18:00:00,994.31,-85.48,32.8,1910-08-23 06:00:00,1003.2,-93.73,22.16,1910-08-23 06:00:00,1910-09-01 18:00:00,1006.63,-73.0,43.75
72,TC191005,Kevin,A,1,1910-09-01 06:00:00,997.22,-51.23,39.16,1910-09-01 06:00:00,997.22,-51.23,39.16,1910-09-04 00:00:00,1019.53,-42.25,47.5,,,,,1910-08-30 12:00:00,1000.07,-49.96,35.56,1910-08-30 12:00:00,1910-09-04 12:00:00,1018.87,-37.75,49.75
73,TC191006,Laura,A,2,1910-09-03 12:00:00,981.02,-93.36,30.56,1910-09-03 12:00:00,981.02,-93.36,30.56,1910-09-04 06:00:00,1002.08,-88.68,34.95,1910-09-04 12:00:00,1003.3,-85.86,36.4,1910-08-31 12:00:00,1007.43,-92.71,18.87,1910-08-31 12:00:00,1910-09-05 00:00:00,1005.15,-80.0,40.25
74,TC191007,Manuel,A,1,1910-09-08 06:00:00,920.24,-52.34,18.11,1910-09-08 06:00:00,920.24,-52.34,18.11,1910-09-14 00:00:00,974.47,-69.06,37.3,,,,,1910-09-02 00:00:00,1006.85,-13.73,9.68,1910-09-04 12:00:00,1910-09-21 12:00:00,998.79,-13.5,55.25
75,TC191008,Olivia,A,2,1910-09-28 18:00:00,996.95,-25.04,36.45,1910-09-29 06:00:00,997.25,-24.99,37.13,1910-10-03 12:00:00,1005.49,-21.75,39.36,1910-10-03 12:00:00,1005.49,-21.75,39.36,1910-09-28 18:00:00,996.95,-25.04,36.45,1910-09-29 06:00:00,1910-10-06 12:00:00,1018.32,-19.5,39.75
76,TC191009,Rayan,A,0,1910-11-15 18:00:00,970.24,-45.35,36.82,1910-11-15 18:00:00,970.24,-45.35,36.82,,,,,,,,,1910-11-13 00:00:00,1001.91,-61.2,24.94,1910-11-13 00:00:00,1910-11-18 18:00:00,1017.07,-16.11,51.11
77,TC191101,Shirley,A,0,1911-06-11 00:00:00,995.71,-74.97,35.81,1911-06-11 00:00:00,995.71,-74.97,35.81,,,,,,,,,1911-06-06 18:00:00,1006.21,-88.77,18.69,1911-06-06 18:00:00,1911-06-11 00:00:00,995.71,-74.97,35.81
78,TC191103,Tijjani,A,0,1911-07-19 12:00:00,988.61,-96.54,22.1,1911-07-19 12:00:00,988.61,-96.54,22.1,,,,,,,,,1911-07-14 18:00:00,1010.16,-67.27,18.36,1911-07-14 18:00:00,1911-07-21 18:00:00,1015.86,-96.75,20.5
79,TC191104,Yui,A,2,1911-08-28 18:00:00,964.41,-61.32,35.99,1911-08-28 18:00:00,964.41,-61.32,35.99,1911-08-29 00:00:00,967.75,-59.82,37.81,1911-09-02 00:00:00,1013.13,-35.25,40.0,1911-08-24 00:00:00,1005.73,-48.5,15.15,1911-08-24 00:00:00,1911-09-02 06:00:00,1010.97,-34.0,40.5
80,TC191105,Alissa,A,1,1911-09-15 12:00:00,933.98,-60.47,31.18,1911-09-15 12:00:00,933.98,-60.47,31.18,1911-09-16 12:00:00,938.46,-59.01,34.25,,,,,1911-09-04 12:00:00,1005.97,-16.22,12.35,1911-09-05 06:00:00,1911-09-21 12:00:00,961.21,-19.64,54.52
81,TC191106,Benjamin,A,2,1911-09-10 06:00:00,989.57,-29.75,57.75,1911-09-09 06:00:00,999.4,-35.43,44.54,1911-09-09 12:00:00,997.31,-34.41,46.83,1911-09-09 18:00:00,995.54,-33.5,50.0,1911-09-06 12:00:00,1014.88,-38.36,36.92,1911-09-06 12:00:00,1911-09-10 06:00:00,989.57,-29.75,57.75
82,TC191107,Carmen,A,2,1911-09-08 12:00:00,996.8,-90.31,27.27,1911-09-08 12:00:00,996.8,-90.31,27.27,1911-09-09 18:00:00,1002.87,-88.52,29.76,1911-09-10 12:00:00,1010.4,-85.63,31.36,1911-09-07 06:00:00,1005.35,-88.51,26.67,1911-09-07 06:00:00,1911-09-12 00:00:00,1014.16,-79.75,36.25
83,TC191108,Daniel,A,2,1911-09-28 18:00:00,982.21,-57.8,40.41,1911-09-28 12:00:00,984.66,-59.6,38.54,1911-09-28 18:00:00,982.21,-57.8,40.41,1911-09-30 00:00:00,1001.44,-44.75,46.25,1911-09-25 12:00:00,1012.18,-60.25,29.79,1911-09-25 12:00:00,1911-10-01 18:00:00,1013.06,-8.75,48.0
84,TC191109,Emily,A,0,1911-10-06 06:00:00,996.57,-25.11,18.44,1911-10-06 06:00:00,996.57,-25.11,18.44,,,,,,,,,1911-10-04 06:00:00,1007.49,-16.8,14.13,1911-10-04 18:00:00,1911-10-08 12:00:00,1011.51,-26.5,20.5
85,TC191201,Geoffrey,A,1,1912-08-16 18:00:00,940.09,-88.17,29.06,1912-08-16 18:00:00,940.09,-88.17,29.06,1912-08-20 00:00:00,1008.54,-91.21,34.37,,,,,1912-08-12 18:00:00,1013.41,-74.47,23.96,1912-08-12 18:00:00,1912-08-21 00:00:00,1013.6,-92.0,34.75
86,TC191203,Hazel,A,1,1912-09-06 12:00:00,968.23,-46.09,41.07,1912-09-04 00:00:00,983.11,-63.02,37.8,1912-09-04 06:00:00,992.55,-60.74,38.01,,,,,1912-09-01 06:00:00,1008.42,-73.9,27.1,1912-09-01 06:00:00,1912-09-10 06:00:00,997.44,-46.75,55.25
87,TC191204,Joshua,A,0,1912-09-24 00:00:00,986.21,-97.8,11.1,1912-09-24 00:00:00,986.21,-97.8,11.1,,,,,,,,,1912-09-19 06:00:00,1006.71,-78.97,12.34,1912-09-19 12:00:00,1912-09-24 00:00:00,986.21,-97.8,11.1
88,TC191302,Kelly,A,2,1913-03-10 18:00:00,981.45,-48.48,30.87,1913-03-10 18:00:00,981.45,-48.48,30.87,1913-03-13 12:00:00,999.32,-27.83,30.55,1913-03-13 18:00:00,999.49,-25.75,31.5,1913-03-10 12:00:00,982.17,-49.11,31.21,1913-03-10 12:00:00,1913-03-14 06:00:00,1000.94,-22.75,33.75
89,TC191303,Luca,A,0,1913-05-17 06:00:00,986.81,-41.99,29.3,1913-05-17 06:00:00,986.81,-41.99,29.3,,,,,,,,,1913-05-17 06:00:00,986.81,-41.99,29.3,1913-05-17 06:00:00,1913-05-25 12:00:00,1016.55,-50.5,37.75
90,TC191304,Mary,A,0,1913-08-31 12:00:00,997.89,-97.57,22.5,1913-08-31 12:00:00,997.89,-97.57,22.5,,,,,,,,,1913-08-28 00:00:00,1010.35,-92.17,24.07,1913-08-28 00:00:00,1913-09-01 00:00:00,1008.67,-98.75,21.75
91,TC191305,Ollie,A,1,1913-09-04 18:00:00,895.93,-94.31,28.41,1913-09-04 18:00:00,895.93,-94.31,28.41,1913-09-06 18:00:00,998.28,-87.27,38.72,,,,,1913-08-28 06:00:00,1006.73,-78.59,15.18,1913-08-28 06:00:00,1913-09-12 18:00:00,1012.64,-58.25,44.5
92,TC191306,Rosita,A,0,1913-09-08 06:00:00,999.05,-65.22,38.22,1913-09-08 06:00:00,999.05,-65.22,38.22,,,,,,,,,1913-09-06 12:00:00,1011.71,-66.2,35.51,1913-09-06 12:00:00,1913-09-10 06:00:00,1009.47,-71.24,38.67
93,TC191307,Stefan,A,2,1913-10-17 12:00:00,976.17,-60.5,55.75,1913-10-14 06:00:00,995.2,-70.39,32.57,1913-10-15 18:00:00,1000.26,-71.58,37.69,1913-10-16 06:00:00,997.46,-70.19,39.44,1913-10-13 18:00:00,996.73,-66.82,29.25,1913-10-13 18:00:00,1913-10-17 12:00:00,976.17,-60.5,55.75
94,TC191308,Tess,A,2,1913-10-23 00:00:00,947.95,-52.23,29.92,1913-10-23 00:00:00,947.95,-52.23,29.92,1913-10-26 18:00:00,961.02,-59.27,43.59,1913-10-27 06:00:00,984.91,-54.63,49.03,1913-10-17 00:00:00,1009.01,-40.61,27.43,1913-10-17 00:00:00,1913-10-27 18:00:00,991.81,-48.01,54.21
95,TC191402,Yves,A,2,1914-07-20 12:00:00,975.88,-67.01,38.69,1914-07-20 12:00:00,975.88,-67.01,38.69,1914-07-22 18:00:00,1003.72,-51.32,48.77,1914-07-22 18:00:00,1003.72,-51.32,48.77,1914-07-18 00:00:00,1011.24,-71.39,35.93,1914-07-18 00:00:00,1914-07-23 18:00:00,1003.87,-32.75,55.0
96,TC191404,Alberto,A,0,1914-09-12 00:00:00,978.58,-96.04,21.18,1914-09-12 00:00:00,978.58,-96.04,21.18,,,,,,,,,1914-09-08 06:00:00,1006.78,-82.44,16.24,1914-09-08 06:00:00,1914-09-12 00:00:00,978.58,-96.04,21.18
97,TC191405,Blaise,A,2,1914-10-17 18:00:00,947.58,-54.18,41.82,1914-10-16 12:00:00,950.29,-60.48,30.54,1914-10-17 00:00:00,955.39,-59.91,34.07,1914-10-18 12:00:00,964.19,-48.8,54.04,1914-10-13 06:00:00,997.45,-51.96,15.77,1914-10-13 06:00:00,1914-10-18 12:00:00,964.19,-48.8,54.04
98,TC191406,Carlos,A,1,1914-11-07 18:00:00,962.05,-45.71,33.88,1914-11-07 18:00:00,962.05,-45.71,33.88,1914-11-09 18:00:00,967.79,-40.72,44.74,,,,,1914-11-04 18:00:00,983.51,-40.47,30.6,1914-11-04 18:00:00,1914-11-11 00:00:00,980.66,-29.86,51.43
99,TC191501,Doreen,A,1,1915-03-17 18:00:00,979.81,-54.08,36.05,1915-03-17 18:00:00,979.81,-54.08,36.05,1915-03-21 00:00:00,1005.09,-42.34,29.17,,,,,1915-03-17 06:00:00,980.64,-56.79,36.97,1915-03-17 06:00:00,1915-03-23 18:00:00,1017.81,-33.75,31.0
100,TC191503,Emiliano,A,0,1915-08-14 18:00:00,935.83,-88.13,30.13,1915-08-14 18:00:00,935.83,-88.13,30.13,,,,,,,,,1915-08-06 06:00:00,1010.66,-51.7,15.29,1915-08-06 06:00:00,1915-08-21 12:00:00,1008.23,-86.78,40.25
101,TC191504,Gloria,A,2,1915-08-19 00:00:00,948.04,-71.84,26.64,1915-08-19 00:00:00,948.04,-71.84,26.64,1915-08-24 06:00:00,992.55,-64.01,48.57,1915-08-24 06:00:00,992.55,-64.01,48.57,1915-08-12 06:00:00,1012.19,-32.39,11.52,1915-08-12 06:00:00,1915-08-25 12:00:00,1004.99,-49.0,52.25
102,TC191505,Ian,A,2,1915-08-22 12:00:00,994.57,-66.34,26.2,1915-08-22 12:00:00,994.57,-66.34,26.2,1915-08-26 00:00:00,1008.73,-67.0,41.25,1915-08-26 06:00:00,1006.55,-64.75,43.25,1915-08-14 12:00:00,1005.99,-19.0,13.99,1915-08-15 12:00:00,1915-08-27 18:00:00,1002.87,-41.5,54.0
103,TC191507,Jessica,A,2,1915-09-23 06:00:00,990.79,-22.24,48.6,1915-09-22 06:00:00,992.28,-34.74,43.75,1915-09-22 12:00:00,993.05,-31.97,44.71,1915-09-23 18:00:00,995.95,-14.44,49.65,1915-09-17 06:00:00,1004.5,-46.49,33.02,1915-09-17 06:00:00,1915-09-24 06:00:00,1002.7,-7.75,50.25
104,TC191508,Kyle,A,2,1915-09-27 12:00:00,922.09,-61.88,23.46,1915-09-27 12:00:00,922.09,-61.88,23.46,1915-09-30 06:00:00,940.16,-64.84,32.41,1915-10-02 18:00:00,962.64,-44.16,49.95,1915-09-17 18:00:00,1008.16,-20.37,13.45,1915-09-19 00:00:00,1915-10-03 06:00:00,970.07,-37.02,55.55
105,TC191509,Lorraine,A,1,1915-09-25 12:00:00,952.31,-58.25,39.98,1915-09-25 00:00:00,967.6,-61.96,37.44,1915-09-25 06:00:00,965.79,-60.53,38.74,,,,,1915-09-19 18:00:00,1010.63,-72.43,37.43,1915-09-19 18:00:00,1915-09-27 06:00:00,987.2,-36.73,46.97
106,TC191510,Manfred,A,1,1915-10-11 12:00:00,915.35,-59.39,29.99,1915-10-11 12:00:00,915.35,-59.39,29.99,1915-10-12 06:00:00,955.27,-56.0,35.85,,,,,1915-09-30 12:00:00,1008.85,-16.59,11.9,1915-09-30 12:00:00,1915-10-14 00:00:00,956.41,-18.29,55.88
107,TC191512,Oxlip,A,1,1915-11-09 06:00:00,936.88,-36.61,40.51,1915-11-09 06:00:00,936.88,-36.61,40.51,1915-11-11 06:00:00,945.76,-27.92,43.41,,,,,1915-10-31 06:00:00,1012.1,-43.57,35.41,1915-10-31 06:00:00,1915-11-12 06:00:00,956.75,-16.43,48.22
108,TC191513,Rodri,A,2,1915-11-09 00:00:00,981.29,-76.09,16.58,1915-11-09 00:00:00,981.29,-76.09,16.58,1915-11-10 18:00:00,1000.27,-73.59,20.71,1915-11-12 06:00:00,994.92,-62.32,25.6,1915-11-04 12:00:00,1004.05,-79.6,9.63,1915-11-05 06:00:00,1915-11-13 18:00:00,1006.62,-44.75,33.5
109,TC191606,Sofiee,A,2,1916-10-02 12:00:00,935.35,-53.76,32.0,1916-10-02 12:00:00,935.35,-53.76,32.0,1916-10-08 00:00:00,973.96,-40.49,40.53,1916-10-09 18:00:00,1003.5,-40.25,34.0,1916-09-26 18:00:00,1013.57,-43.39,28.35,1916-09-26 18:00:00,1916-10-10 06:00:00,1004.09,-40.25,30.25
110,TC191607,Victor,A,0,1916-10-13 06:00:00,970.84,-25.95,36.29,1916-10-13 06:00:00,970.84,-25.95,36.29,,,,,,,,,1916-10-11 00:00:00,988.03,-35.96,26.5,1916-10-11 12:00:00,1916-10-18 00:00:00,1010.78,-4.5,44.5
111,TC191702,Yan,A,0,1917-05-30 06:00:00,985.31,-60.67,38.91,1917-05-30 06:00:00,985.31,-60.67,38.91,,,,,,,,,1917-05-30 06:00:00,985.31,-60.67,38.91,1917-05-30 06:00:00,1917-06-03 06:00:00,1009.65,-49.0,49.5
112,TC191703,Angela,A,2,1917-09-06 12:00:00,970.48,-58.16,40.87,1917-09-06 00:00:00,990.03,-61.82,37.26,1917-09-06 06:00:00,985.65,-60.53,38.74,1917-09-07 06:00:00,987.12,-45.98,50.32,1917-08-28 00:00:00,1012.77,-54.79,23.68,1917-08-28 00:00:00,1917-09-07 12:00:00,988.25,-39.75,54.0
113,TC191704,Bernardo,A,1,1917-09-22 18:00:00,934.65,-27.69,51.87,1917-09-17 18:00:00,949.13,-55.61,27.54,1917-09-18 00:00:00,965.53,-54.44,28.32,,,,,1917-09-07 12:00:00,1011.01,-32.56,12.81,1917-09-08 06:00:00,1917-09-23 06:00:00,943.0,-28.5,53.51
114,TC191705,Corliss,A,2,1917-09-18 06:00:00,973.39,-48.26,19.2,1917-09-18 06:00:00,973.39,-48.26,19.2,1917-09-20 12:00:00,988.53,-43.62,27.46,1917-09-22 00:00:00,992.07,-22.0,41.0,1917-09-11 00:00:00,1006.32,-23.87,9.27,1917-09-11 00:00:00,1917-09-22 06:00:00,985.32,-17.75,43.75
115,TC191709,Derrick,A,2,1917-10-27 12:00:00,947.13,-72.45,28.74,1917-10-27 12:00:00,947.13,-72.45,28.74,1917-10-28 00:00:00,950.47,-71.72,30.4,1917-10-30 00:00:00,997.15,-56.25,38.75,1917-10-23 00:00:00,1007.83,-62.67,22.15,1917-10-23 00:00:00,1917-10-31 06:00:00,1012.53,-40.75,41.0
116,TC191801,Evelyn,A,1,1918-03-29 06:00:00,995.01,-46.22,36.09,1918-03-29 06:00:00,995.01,-46.22,36.09,1918-04-01 06:00:00,1000.54,-33.5,39.75,,,,,1918-03-29 06:00:00,995.01,-46.22,36.09,1918-03-29 06:00:00,1918-04-02 18:00:00,1004.35,-22.25,51.25
117,TC191802,Gabriel,A,1,1918-09-04 00:00:00,927.35,-53.98,31.9,1918-09-04 00:00:00,927.35,-53.98,31.9,1918-09-05 06:00:00,940.86,-50.79,37.33,,,,,1918-08-28 12:00:00,1004.84,-34.74,14.49,1918-08-28 12:00:00,1918-09-07 18:00:00,960.38,-33.5,54.0
118,TC191803,Ivanka,A,1,1918-09-22 00:00:00,907.52,-94.32,25.93,1918-09-22 00:00:00,907.52,-94.32,25.93,1918-09-25 06:00:00,995.97,-97.02,33.18,,,,,1918-09-14 00:00:00,1005.06,-72.77,16.22,1918-09-14 12:00:00,1918-09-25 18:00:00,1000.68,-97.0,36.25
119,TC191804,Jack,A,1,1918-09-22 00:00:00,929.4,-39.27,56.33,1918-09-19 18:00:00,987.72,-54.52,28.9,1918-09-20 06:00:00,986.05,-52.25,31.58,,,,,1918-09-16 06:00:00,1001.27,-52.46,15.52,1918-09-16 06:00:00,1918-09-22 00:00:00,929.4,-39.27,56.33
120,TC191805,Kyan,A,0,1918-09-22 12:00:00,995.51,-87.72,29.19,1918-09-22 12:00:00,995.51,-87.72,29.19,,,,,,,,,1918-09-20 18:00:00,1001.14,-83.06,19.97,1918-09-20 18:00:00,1918-09-22 18:00:00,998.63,-89.41,31.01
121,TC191806,Lionel,A,2,1918-09-29 18:00:00,995.11,-29.5,47.25,1918-09-25 18:00:00,995.36,-47.96,25.12,1918-09-29 06:00:00,995.39,-37.75,41.5,1918-09-29 18:00:00,995.11,-29.5,47.25,1918-09-23 18:00:00,1004.2,-39.25,23.77,1918-09-23 18:00:00,1918-09-30 00:00:00,995.99,-25.0,50.0
122,TC191807,Melody,A,2,1918-10-08 00:00:00,887.03,-82.97,18.23,1918-10-08 00:00:00,887.03,-82.97,18.23,1918-10-09 00:00:00,919.28,-81.29,23.24,1918-10-12 00:00:00,985.49,-66.29,39.47,1918-09-27 18:00:00,1006.82,-26.76,11.37,1918-09-28 00:00:00,1918-10-12 12:00:00,991.01,-56.0,42.25
123,TC191808,Oscar,A,0,1918-10-27 12:00:00,997.34,-67.38,28.27,1918-10-27 12:00:00,997.34,-67.38,28.27,,,,,,,,,1918-10-25 06:00:00,1009.67,-66.91,30.35,1918-10-25 06:00:00,1918-10-29 06:00:00,1001.94,-76.25,26.75
124,TC191809,Rachel,A,2,1918-11-01 06:00:00,954.8,-89.25,28.02,1918-11-01 06:00:00,954.8,-89.25,28.02,1918-11-04 06:00:00,999.96,-90.85,38.5,1918-11-04 18:00:00,1001.23,-87.87,42.12,1918-10-29 18:00:00,998.49,-78.97,27.2,1918-10-29 18:00:00,1918-11-06 18:00:00,1015.22,-74.25,43.5
125,TC191901,Sunny,A,1,1919-01-12 00:00:00,982.14,-46.45,32.46,1919-01-12 00:00:00,982.14,-46.45,32.46,1919-01-14 06:00:00,993.71,-33.58,38.99,,,,,1919-01-12 00:00:00,982.14,-46.45,32.46,1919-01-12 00:00:00,1919-01-17 06:00:00,1012.66,-39.75,34.5
126,TC191902,Victoria,A,2,1919-04-11 18:00:00,992.68,-48.85,42.02,1919-04-11 18:00:00,992.68,-48.85,42.02,1919-04-12 18:00:00,997.96,-48.64,47.58,1919-04-13 18:00:00,1011.86,-55.5,52.0,1919-04-05 18:00:00,999.59,-40.93,31.01,1919-04-05 18:00:00,1919-04-13 18:00:00,1011.86,-55.5,52.0
127,TC191903,Yoshi,A,0,1919-05-11 00:00:00,993.36,-81.44,22.19,1919-05-11 00:00:00,993.36,-81.44,22.19,,,,,,,,,1919-05-08 12:00:00,1004.59,-80.83,14.38,1919-05-08 12:00:00,1919-05-11 06:00:00,995.12,-81.09,23.67
128,TC191905,Antoine,A,2,1919-06-10 06:00:00,988.9,-43.46,29.55,1919-06-09 18:00:00,995.09,-50.42,28.43,1919-06-10 00:00:00,992.16,-47.17,28.95,1919-06-11 06:00:00,996.33,-32.65,34.37,1919-06-07 12:00:00,1006.2,-67.4,23.55,1919-06-07 12:00:00,1919-06-13 00:00:00,1005.69,-32.0,51.75
129,TC191906,Brenda,A,2,1919-08-26 00:00:00,915.16,-86.24,29.79,1919-08-26 00:00:00,915.16,-86.24,29.79,1919-08-26 18:00:00,990.73,-83.27,34.1,1919-08-28 12:00:00,997.73,-76.68,46.92,1919-08-17 12:00:00,1011.11,-36.68,10.56,1919-08-18 06:00:00,1919-08-30 18:00:00,1013.56,-91.5,48.0
130,TC191907,Claudio,A,2,1919-08-24 12:00:00,998.86,-47.11,40.54,1919-08-24 12:00:00,998.86,-47.11,40.54,1919-08-27 06:00:00,1010.22,-28.25,40.75,1919-08-27 12:00:00,1010.42,-27.0,41.0,1919-08-22 18:00:00,1014.07,-60.97,35.53,1919-08-23 12:00:00,1919-08-28 06:00:00,1002.44,-19.75,44.25
131,TC191908,Daisy,A,2,1919-08-28 12:00:00,986.93,-59.21,39.81,1919-08-27 18:00:00,987.62,-66.77,35.85,1919-08-28 12:00:00,986.93,-59.21,39.81,1919-08-31 00:00:00,1008.48,-41.13,35.37,1919-08-23 12:00:00,1008.05,-59.66,21.82,1919-08-23 12:00:00,1919-09-01 06:00:00,1000.54,-27.5,39.25
132,TC191909,Ederson,A,2,1919-09-08 00:00:00,909.69,-66.31,21.56,1919-09-08 00:00:00,909.69,-66.31,21.56,1919-09-14 12:00:00,986.99,-77.19,45.61,1919-09-15 18:00:00,989.64,-65.06,50.14,1919-09-01 00:00:00,1009.03,-27.28,13.87,1919-09-02 00:00:00,1919-09-18 06:00:00,981.73,-35.0,54.0
133,TC191910,Gwyneth,A,0,1919-09-04 12:00:00,995.66,-90.28,28.35,1919-09-04 12:00:00,995.66,-90.28,28.35,,,,,,,,,1919-09-02 18:00:00,1013.61,-83.87,25.89,1919-09-02 18:00:00,1919-09-07 06:00:00,1013.86,-96.25,34.5
134,TC191911,Isaac,A,1,1919-09-14 00:00:00,924.73,-63.53,20.17,1919-09-14 00:00:00,924.73,-63.53,20.17,1919-09-17 06:00:00,931.31,-72.04,32.98,,,,,1919-09-04 12:00:00,1009.32,-30.11,14.82,1919-09-04 12:00:00,1919-09-20 00:00:00,932.47,-34.09,51.03
135,TC191912,Jaime,A,2,1919-09-15 00:00:00,976.63,-19.59,42.45,1919-09-11 06:00:00,997.99,-38.5,26.18,1919-09-11 18:00:00,993.34,-37.95,27.58,1919-09-15 00:00:00,976.63,-19.59,42.45,1919-09-09 12:00:00,1001.43,-36.75,24.68,1919-09-09 12:00:00,1919-09-15 12:00:00,991.21,-10.0,48.5
136,TC191913,Kelechi,A,1,1919-09-12 18:00:00,989.48,-96.24,21.42,1919-09-12 18:00:00,989.48,-96.24,21.42,1919-09-14 12:00:00,1004.67,-97.62,21.11,,,,,1919-09-10 18:00:00,1009.01,-94.14,20.01,1919-09-10 18:00:00,1919-09-14 18:00:00,1006.07,-98.5,21.84
137,TC191914,Laurel,A,2,1919-10-10 06:00:00,936.37,-67.02,42.07,1919-10-08 06:00:00,984.69,-72.58,28.91,1919-10-08 12:00:00,978.38,-71.91,30.28,1919-10-10 12:00:00,949.84,-65.02,43.94,1919-10-02 00:00:00,1004.43,-77.98,13.13,1919-10-03 18:00:00,1919-10-11 06:00:00,962.7,-65.4,52.02
138,TC191917,Micah,A,2,1919-12-06 06:00:00,987.33,-17.75,44.0,1919-12-02 18:00:00,989.91,-42.79,37.18,1919-12-05 06:00:00,991.21,-33.84,44.1,1919-12-05 18:00:00,992.05,-28.1,43.87,1919-12-01 18:00:00,997.0,-37.74,36.54,1919-12-02 06:00:00,1919-12-06 06:00:00,987.33,-17.75,44.0
139,TC192001,Peach,A,2,1920-02-12 06:00:00,978.37,-21.21,33.79,1920-02-12 06:00:00,978.37,-21.21,33.79,1920-02-14 06:00:00,984.78,-15.1,46.07,1920-02-14 12:00:00,987.27,-14.25,45.25,1920-02-12 00:00:00,981.4,-24.64,31.98,1920-02-12 00:00:00,1920-02-16 06:00:00,993.98,13.25,49.75
140,TC192003,Ruben,A,0,1920-03-08 00:00:00,988.51,-25.16,42.89,1920-03-08 00:00:00,988.51,-25.16,42.89,,,,,,,,,1920-03-08 00:00:00,988.51,-25.16,42.89,1920-03-08 00:00:00,1920-03-12 12:00:00,1004.7,-23.0,50.75
141,TC192004,Seldoen,A,1,1920-06-15 12:00:00,969.63,-72.24,36.35,1920-06-15 12:00:00,969.63,-72.24,36.35,1920-06-18 00:00:00,997.04,-50.75,52.5,,,,,1920-06-09 12:00:00,1005.76,-81.66,14.23,1920-06-09 12:00:00,1920-06-18 06:00:00,1000.04,-49.0,56.0
142,TC192006,Vincent,A,1,1920-08-19 18:00:00,877.57,-79.15,25.85,1920-08-19 18:00:00,877.57,-79.15,25.85,1920-08-23 12:00:00,986.77,-87.3,37.3,,,,,1920-08-11 12:00:00,1010.78,-35.73,12.88,1920-08-12 06:00:00,1920-08-25 12:00:00,1000.87,-80.25,42.0
143,TC192007,Zoe,A,2,1920-08-25 12:00:00,978.51,-45.84,41.92,1920-08-22 12:00:00,998.43,-61.13,31.09,1920-08-23 00:00:00,1005.13,-58.54,32.76,1920-08-27 12:00:00,979.67,-16.57,54.05,1920-08-21 00:00:00,1010.21,-59.85,24.31,1920-08-21 00:00:00,1920-08-27 12:00:00,979.67,-16.57,54.05
144,TC192010,Alice,A,0,1920-09-08 12:00:00,996.88,-52.05,37.68,1920-09-08 12:00:00,996.88,-52.05,37.68,,,,,,,,,1920-09-08 06:00:00,998.55,-52.72,38.24,1920-09-08 06:00:00,1920-09-12 00:00:00,1013.11,-45.75,45.25
145,TC192011,Bruce,A,2,1920-10-09 06:00:00,886.74,-86.43,22.69,1920-10-09 06:00:00,886.74,-86.43,22.69,1920-10-12 00:00:00,989.57,-87.94,33.76,1920-10-13 06:00:00,994.8,-84.1,42.43,1920-10-02 00:00:00,1006.57,-66.77,13.73,1920-10-02 00:00:00,1920-10-15 06:00:00,999.03,-76.0,54.5
146,TC192012,Candy,A,2,1920-10-15 18:00:00,953.9,-64.61,34.07,1920-10-15 18:00:00,953.9,-64.61,34.07,1920-10-20 18:00:00,991.25,-58.7,35.26,1920-10-21 06:00:00,990.79,-55.44,35.01,1920-10-03 12:00:00,1006.39,-14.4,11.59,1920-10-05 00:00:00,1920-10-26 00:00:00,971.75,-5.0,55.0
147,TC192013,Dylan,A,1,1920-10-18 18:00:00,967.55,-19.65,39.93,1920-10-17 06:00:00,987.82,-41.44,32.61,1920-10-17 12:00:00,986.35,-38.53,33.1,,,,,1920-10-10 18:00:00,1006.22,-72.37,22.42,1920-10-10 18:00:00,1920-10-19 00:00:00,970.84,-14.34,42.52
148,TC192014,Emmelyn,A,0,1920-10-13 12:00:00,985.32,-56.23,22.97,1920-10-13 12:00:00,985.32,-56.23,22.97,,,,,,,,,1920-10-12 00:00:00,1004.23,-61.51,16.52,1920-10-12 00:00:00,1920-10-15 18:00:00,994.21,-52.13,33.2
149,TC192101,Gianluigi,A,1,1921-03-08 18:00:00,996.38,-44.76,37.57,1921-03-08 18:00:00,996.38,-44.76,37.57,1921-03-11 00:00:00,1002.35,-45.34,34.01,,,,,1921-03-07 18:00:00,996.55,-47.44,36.91,1921-03-08 06:00:00,1921-03-12 06:00:00,1006.75,-43.75,35.5
150,TC192104,Ivy,A,0,1921-08-22 18:00:00,998.61,-22.01,20.53,1921-08-22 18:00:00,998.61,-22.01,20.53,,,,,,,,,1921-08-21 12:00:00,1000.75,-14.87,18.97,1921-08-22 12:00:00,1921-08-28 06:00:00,1011.93,-36.5,36.25
151,TC192105,Jeremy,A,2,1921-09-22 18:00:00,984.54,-66.12,35.05,1921-09-22 18:00:00,984.54,-66.12,35.05,1921-09-23 12:00:00,986.74,-61.96,41.81,1921-09-24 06:00:00,1004.68,-53.25,48.25,1921-09-09 12:00:00,1010.73,-32.56,11.23,1921-09-10 06:00:00,1921-09-25 06:00:00,1010.67,-39.25,52.25
152,TC192107,Katie,A,2,1921-10-12 00:00:00,975.26,-59.43,39.71,1921-10-12 00:00:00,975.26,-59.43,39.71,1921-10-14 18:00:00,1014.22,-56.75,43.25,1921-10-15 00:00:00,1016.21,-55.5,43.0,1921-10-07 18:00:00,1000.81,-68.62,33.89,1921-10-07 18:00:00,1921-10-15 12:00:00,1017.9,-53.25,43.0
153,TC192201,Luigi,A,0,1922-02-01 06:00:00,982.68,-61.13,34.34,1922-02-03 18:00:00,983.6,-49.31,39.47,,,,,,,,,1922-02-01 00:00:00,985.89,-61.83,33.11,1922-02-03 00:00:00,1922-02-06 18:00:00,1006.2,-34.5,40.5
154,TC192203,Michelle,A,1,1922-03-10 18:00:00,973.58,-23.35,40.47,1922-03-10 18:00:00,973.58,-23.35,40.47,1922-03-15 00:00:00,1011.97,-11.5,44.75,,,,,1922-03-08 18:00:00,999.5,-35.32,26.5,1922-03-10 18:00:00,1922-03-15 12:00:00,1013.37,-13.75,41.0
155,TC192205,Phil,A,1,1922-09-27 00:00:00,908.87,-89.56,26.42,1922-09-27 00:00:00,908.87,-89.56,26.42,1922-09-29 00:00:00,983.6,-90.09,31.12,,,,,1922-09-13 00:00:00,1010.34,-37.15,11.04,1922-09-13 00:00:00,1922-10-01 06:00:00,1011.24,-90.75,34.5
156,TC192206,Risa,A,1,1922-09-14 00:00:00,984.57,-62.86,37.24,1922-09-18 18:00:00,997.05,-51.95,41.35,1922-09-19 00:00:00,994.77,-50.65,42.6,,,,,1922-09-13 00:00:00,1002.02,-69.97,35.86,1922-09-14 18:00:00,1922-09-20 18:00:00,1006.24,-42.75,48.25
157,TC192208,Sergio,A,2,1922-10-19 12:00:00,955.72,-54.16,42.2,1922-10-18 12:00:00,973.74,-62.66,37.73,1922-10-18 18:00:00,969.23,-61.11,38.47,1922-10-20 06:00:00,974.31,-40.1,49.25,1922-10-14 18:00:00,1012.74,-61.03,37.01,1922-10-14 18:00:00,1922-10-20 18:00:00,976.95,-25.25,57.25
158,TC192210,Vivianne,A,2,1922-11-06 00:00:00,972.12,-78.59,17.8,1922-11-06 00:00:00,972.12,-78.59,17.8,1922-11-11 12:00:00,997.51,-65.28,25.69,1922-11-12 06:00:00,998.19,-61.75,27.25,1922-10-30 18:00:00,1006.29,-77.15,8.57,1922-10-31 12:00:00,1922-11-13 06:00:00,1000.28,-56.0,33.5
159,TC192211,Zack,A,1,1922-11-15 18:00:00,938.78,-15.44,50.13,1922-11-10 06:00:00,951.01,-46.3,29.07,1922-11-14 00:00:00,979.26,-31.41,36.8,,,,,1922-11-02 06:00:00,1008.21,-61.44,34.45,1922-11-03 18:00:00,1922-11-16 12:00:00,960.36,-10.22,54.28
160,TC192305,Alex,A,1,1923-08-12 18:00:00,913.17,-74.27,25.93,1923-08-12 18:00:00,913.17,-74.27,25.93,1923-08-20 06:00:00,976.22,-50.68,53.28,,,,,1923-08-07 00:00:00,1009.47,-38.5,15.3,1923-08-07 00:00:00,1923-08-21 06:00:00,984.05,-39.5,54.25
161,TC192307,Beatrice,A,2,1923-08-26 18:00:00,975.36,-62.95,40.72,1923-08-26 06:00:00,975.69,-67.22,37.67,1923-08-26 12:00:00,976.14,-65.2,39.13,1923-08-27 18:00:00,990.92,-58.8,46.99,1923-08-21 12:00:00,1011.18,-77.89,25.86,1923-08-21 12:00:00,1923-08-28 00:00:00,992.44,-59.35,48.27
162,TC192308,Colin,A,1,1923-08-29 18:00:00,915.9,-55.13,29.46,1923-08-29 18:00:00,915.9,-55.13,29.46,1923-09-03 06:00:00,953.48,-45.73,41.74,,,,,1923-08-21 18:00:00,1007.06,-26.09,13.59,1923-08-24 18:00:00,1923-09-05 00:00:00,966.01,-30.1,51.9
163,TC192309,Dawn,A,2,1923-09-25 18:00:00,937.48,-30.6,59.85,1923-09-23 12:00:00,943.83,-49.45,37.59,1923-09-23 18:00:00,942.17,-48.44,39.76,1923-09-25 12:00:00,939.55,-30.66,59.37,1923-09-14 06:00:00,996.76,-16.35,11.68,1923-09-15 00:00:00,1923-09-25 18:00:00,937.48,-30.6,59.85
164,TC192310,Ernest,A,2,1923-09-22 00:00:00,948.18,-69.68,15.38,1923-09-22 00:00:00,948.18,-69.68,15.38,1923-09-28 00:00:00,1010.38,-80.27,31.49,1923-09-28 12:00:00,1007.86,-77.95,33.74,1923-09-19 00:00:00,1001.85,-57.68,13.47,1923-09-19 00:00:00,1923-09-29 18:00:00,1009.89,-65.75,39.75
165,TC192311,Flavia,A,1,1923-09-23 18:00:00,994.58,-93.04,27.32,1923-09-23 18:00:00,994.58,-93.04,27.32,1923-09-24 06:00:00,999.99,-91.68,27.69,,,,,1923-09-21 18:00:00,1007.77,-93.43,19.77,1923-09-21 18:00:00,1923-09-27 18:00:00,1014.18,-95.0,20.25
166,TC192312,Harrison,A,1,1923-10-12 00:00:00,947.69,-43.73,44.24,1923-10-10 18:00:00,956.75,-55.75,39.93,1923-10-11 00:00:00,953.03,-54.06,40.58,,,,,1923-10-05 00:00:00,1003.56,-66.22,26.03,1923-10-05 00:00:00,1923-10-13 12:00:00,950.53,-24.83,54.28
167,TC192313,Janet,A,0,1923-11-16 18:00:00,962.36,-59.35,40.37,1923-11-16 18:00:00,962.36,-59.35,40.37,,,,,,,,,1923-11-16 00:00:00,971.6,-65.57,37.47,1923-11-16 18:00:00,1923-11-20 18:00:00,991.09,-31.75,50.25
168,TC192314,Kinen,A,1,1923-11-25 06:00:00,953.02,-35.78,51.84,1923-11-21 06:00:00,958.11,-54.3,42.38,1923-11-22 06:00:00,967.93,-48.02,42.85,,,,,1923-11-19 18:00:00,968.57,-68.29,38.91,1923-11-19 18:00:00,1923-11-26 06:00:00,963.27,-24.5,54.25
169,TC192401,Lydia,A,1,1924-01-17 18:00:00,977.02,-52.21,41.71,1924-01-17 18:00:00,977.02,-52.21,41.71,1924-01-18 06:00:00,985.6,-50.44,44.7,,,,,1924-01-16 00:00:00,981.53,-61.46,36.8,1924-01-16 00:00:00,1924-01-20 00:00:00,1005.05,-59.25,46.0
170,TC192402,Mario,A,0,1924-01-20 18:00:00,972.39,-62.88,37.63,1924-01-20 18:00:00,972.39,-62.88,37.63,,,,,,,,,1924-01-20 06:00:00,974.35,-64.91,37.49,1924-01-20 06:00:00,1924-01-22 06:00:00,983.98,-68.64,39.63
171,TC192403,Nicole,A,0,1924-01-29 18:00:00,951.72,-47.96,41.86,1924-01-29 18:00:00,951.72,-47.96,41.86,,,,,,,,,1924-01-28 12:00:00,974.99,-63.28,36.79,1924-01-29 18:00:00,1924-02-01 18:00:00,966.21,-11.5,53.0
172,TC192404,Quinn,A,0,1924-05-25 12:00:00,956.81,-86.4,29.65,1924-05-25 12:00:00,956.81,-86.4,29.65,,,,,,,,,1924-05-18 06:00:00,1006.93,-84.52,16.96,1924-05-18 06:00:00,1924-05-28 00:00:00,1006.14,-82.5,41.5
173,TC192407,Stephanie,A,0,1924-08-27 12:00:00,935.8,-90.5,28.59,1924-08-27 12:00:00,935.8,-90.5,28.59,,,,,,,,,1924-08-23 12:00:00,1007.71,-72.77,21.26,1924-08-23 12:00:00,1924-08-29 18:00:00,1002.62,-97.35,31.81
174,TC192409,Tony,A,0,1924-09-13 18:00:00,987.01,-72.72,17.13,1924-09-13 18:00:00,987.01,-72.72,17.13,,,,,,,,,1924-09-09 18:00:00,1009.95,-49.36,11.08,1924-09-09 18:00:00,1924-09-18 18:00:00,1018.01,-95.0,30.5
175,TC192410,Winnie,A,1,1924-09-24 06:00:00,942.58,-45.31,32.65,1924-09-24 06:00:00,942.58,-45.31,32.65,1924-09-24 12:00:00,949.81,-44.61,34.48,,,,,1924-09-17 18:00:00,1007.91,-18.53,15.39,1924-09-17 18:00:00,1924-09-26 18:00:00,982.88,-31.25,54.01
176,TC192411,Audrey,A,0,1924-10-06 06:00:00,997.3,-21.47,17.36,1924-10-06 06:00:00,997.3,-21.47,17.36,,,,,,,,,1924-10-03 18:00:00,1008.29,-16.08,13.7,1924-10-03 18:00:00,1924-10-09 12:00:00,1015.85,-31.25,25.75
177,TC192412,Brandon,A,0,1924-10-15 18:00:00,945.83,-45.86,30.04,1924-10-15 18:00:00,945.83,-45.86,30.04,,,,,,,,,1924-10-11 00:00:00,1012.16,-34.0,27.69,1924-10-11 00:00:00,1924-10-19 18:00:00,1009.64,-48.5,38.0
178,TC192413,Christine,A,2,1924-10-26 18:00:00,924.72,-66.6,23.39,1924-10-26 18:00:00,924.72,-66.6,23.39,1924-10-27 18:00:00,945.71,-65.35,24.37,1924-11-01 00:00:00,973.36,-39.69,46.23,1924-10-18 12:00:00,1006.28,-28.09,8.93,1924-10-19 06:00:00,1924-11-01 18:00:00,986.9,-24.59,44.25
179,TC192502,David,A,0,1925-08-05 18:00:00,977.5,-86.36,27.65,1925-08-05 18:00:00,977.5,-86.36,27.65,,,,,,,,,1925-08-03 00:00:00,1010.55,-77.82,22.88,1925-08-03 00:00:00,1925-08-09 18:00:00,1012.86,-83.04,36.34
180,TC192503,Elyse,A,2,1925-08-13 06:00:00,943.45,-49.91,25.33,1925-08-13 06:00:00,943.45,-49.91,25.33,1925-08-16 12:00:00,952.42,-49.06,41.15,1925-08-18 12:00:00,988.18,-28.62,52.0,1925-08-04 00:00:00,1011.27,-26.46,7.83,1925-08-08 06:00:00,1925-08-19 12:00:00,994.22,-20.5,54.75
181,TC192504,Frederick,A,0,1925-08-21 12:00:00,996.74,-98.0,24.12,1925-08-21 12:00:00,996.74,-98.0,24.12,,,,,,,,,1925-08-19 00:00:00,1006.67,-94.04,21.38,1925-08-19 00:00:00,1925-08-21 12:00:00,996.74,-98.0,24.12
182,TC192506,Hope,A,0,1925-09-12 12:00:00,896.54,-93.68,26.92,1925-09-12 12:00:00,896.54,-93.68,26.92,,,,,,,,,1925-09-02 12:00:00,1004.96,-41.24,10.83,1925-09-03 06:00:00,1925-09-13 18:00:00,979.14,-98.86,28.72
183,TC192507,Jacob,A,2,1925-09-17 06:00:00,959.18,-48.63,40.06,1925-09-17 06:00:00,959.18,-48.63,40.06,1925-09-22 00:00:00,1000.65,-28.75,50.75,1925-09-22 06:00:00,1001.75,-27.25,50.75,1925-09-07 12:00:00,1007.95,-41.12,13.49,1925-09-07 12:00:00,1925-09-23 18:00:00,1008.43,-19.75,48.25
184,TC192508,Katrina,A,2,1925-10-14 06:00:00,939.76,-57.23,41.86,1925-10-04 06:00:00,957.21,-56.74,22.72,1925-10-10 06:00:00,983.22,-65.78,25.4,1925-10-15 00:00:00,967.75,-52.43,51.05,1925-09-25 12:00:00,1008.43,-26.96,12.05,1925-09-25 12:00:00,1925-10-15 06:00:00,978.09,-51.24,53.49
185,TC192510,Luke,A,1,1925-11-25 00:00:00,962.65,-51.71,41.43,1925-11-25 00:00:00,962.65,-51.71,41.43,1925-11-30 00:00:00,1000.63,-27.0,36.5,,,,,1925-11-16 00:00:00,1004.8,-77.61,12.46,1925-11-16 00:00:00,1925-11-30 12:00:00,1002.0,-26.25,35.0
186,TC192511,Maho,A,1,1925-12-05 18:00:00,992.62,-26.02,39.46,1925-12-03 06:00:00,995.03,-28.72,35.96,1925-12-03 18:00:00,994.76,-27.08,34.71,,,,,1925-12-01 00:00:00,1001.69,-24.62,33.65,1925-12-01 00:00:00,1925-12-06 00:00:00,993.76,-26.79,37.5
187,TC192601,Nicholas,A,0,1926-02-08 00:00:00,955.95,-46.93,40.25,1926-02-08 00:00:00,955.95,-46.93,40.25,,,,,,,,,1926-02-08 00:00:00,955.95,-46.93,40.25,1926-02-08 00:00:00,1926-02-10 12:00:00,970.44,-11.42,51.07
188,TC192602,Queenie,A,1,1926-05-29 18:00:00,973.0,-69.78,34.37,1926-05-29 18:00:00,973.0,-69.78,34.37,1926-05-30 18:00:00,982.15,-58.09,44.29,,,,,1926-05-24 00:00:00,1007.69,-84.62,15.36,1926-05-24 00:00:00,1926-05-31 12:00:00,988.74,-44.5,52.0
189,TC192604,Samson,A,2,1926-09-12 18:00:00,978.69,-37.28,36.13,1926-09-12 18:00:00,978.69,-37.28,36.13,1926-09-13 00:00:00,981.41,-36.76,37.74,1926-09-14 18:00:00,1007.94,-22.55,48.59,1926-09-01 12:00:00,1009.39,-26.48,15.7,1926-09-01 12:00:00,1926-09-16 00:00:00,1014.31,-18.0,49.5
190,TC192605,Tiffany,A,2,1926-09-14 12:00:00,998.77,-91.55,32.15,1926-09-14 12:00:00,998.77,-91.55,32.15,1926-09-15 12:00:00,1003.77,-86.96,38.99,1926-09-15 18:00:00,1003.43,-84.87,41.83,1926-09-11 00:00:00,1002.05,-92.41,24.86,1926-09-11 00:00:00,1926-09-16 06:00:00,999.47,-79.5,46.25
191,TC192607,William,A,2,1926-10-04 06:00:00,967.24,-72.38,31.57,1926-10-04 06:00:00,967.24,-72.38,31.57,1926-10-07 06:00:00,979.17,-73.86,40.1,1926-10-07 12:00:00,986.12,-74.56,41.6,1926-09-29 12:00:00,1000.76,-78.58,17.31,1926-09-29 12:00:00,1926-10-08 18:00:00,996.12,-76.19,45.51
192,TC192610,Andy,A,1,1926-12-24 18:00:00,993.03,-26.5,42.44,1926-12-20 06:00:00,995.7,-40.71,31.65,1926-12-24 00:00:00,999.19,-28.68,37.35,,,,,1926-12-19 18:00:00,997.12,-41.65,30.55,1926-12-19 18:00:00,1926-12-25 12:00:00,993.68,-25.52,46.78
193,TC192701,Bonnie,A,2,1927-06-10 06:00:00,956.22,-84.24,27.52,1927-06-10 06:00:00,956.22,-84.24,27.52,1927-06-10 18:00:00,976.11,-82.09,32.02,1927-06-11 12:00:00,990.09,-77.72,40.27,1927-06-03 00:00:00,1008.66,-84.05,16.22,1927-06-03 00:00:00,1927-06-13 12:00:00,1007.57,-53.25,49.5
194,TC192703,Charlie,A,1,1927-09-14 06:00:00,929.05,-53.24,31.15,1927-09-14 06:00:00,929.05,-53.24,31.15,1927-09-24 12:00:00,971.46,-52.36,40.39,,,,,1927-09-05 18:00:00,1010.46,-25.79,15.65,1927-09-06 12:00:00,1927-09-25 06:00:00,968.19,-45.98,45.96
195,TC192704,Demi,A,2,1927-09-14 18:00:00,986.42,-54.75,51.75,1927-09-13 00:00:00,998.48,-71.24,40.03,1927-09-13 12:00:00,1000.18,-69.62,41.87,1927-09-13 12:00:00,1000.18,-69.62,41.87,1927-09-09 00:00:00,1011.62,-73.46,35.84,1927-09-10 18:00:00,1927-09-14 18:00:00,986.42,-54.75,51.75
196,TC192705,Erik,A,1,1927-10-09 18:00:00,934.06,-53.78,28.39,1927-10-09 18:00:00,934.06,-53.78,28.39,1927-10-16 00:00:00,979.55,-34.68,46.4,,,,,1927-09-25 06:00:00,1006.06,-15.79,12.61,1927-09-25 06:00:00,1927-10-17 06:00:00,1001.85,-25.75,44.75
197,TC192706,Frances,A,1,1927-10-03 06:00:00,975.64,-74.06,28.59,1927-10-03 06:00:00,975.64,-74.06,28.59,1927-10-07 06:00:00,1004.14,-89.76,39.22,,,,,1927-10-02 18:00:00,994.7,-70.77,29.17,1927-10-02 18:00:00,1927-10-08 00:00:00,1005.83,-89.0,44.0
198,TC192801,Hubert,A,0,1928-01-27 18:00:00,988.74,-23.64,35.83,1928-01-27 18:00:00,988.74,-23.64,35.83,,,,,,,,,1928-01-27 12:00:00,990.37,-22.97,35.14,1928-01-27 12:00:00,1928-02-01 18:00:00,1009.87,-28.0,37.0
199,TC192802,Julie,A,2,1928-02-05 06:00:00,998.09,-35.19,36.46,1928-02-05 06:00:00,998.09,-35.19,36.46,1928-02-06 00:00:00,999.63,-31.01,38.29,1928-02-06 06:00:00,999.02,-28.74,38.72,1928-02-02 06:00:00,1011.46,-30.62,37.28,1928-02-02 06:00:00,1928-02-07 12:00:00,1006.9,-16.25,41.5
200,TC192803,Keith,A,1,1928-02-07 06:00:00,988.54,-47.36,34.09,1928-02-07 06:00:00,988.54,-47.36,34.09,1928-02-10 18:00:00,1000.78,-47.75,35.5,,,,,1928-02-06 06:00:00,1002.34,-44.48,37.88,1928-02-06 06:00:00,1928-02-11 12:00:00,1006.42,-41.0,36.25
201,TC192804,Lily,A,0,1928-08-24 12:00:00,993.19,-74.09,38.04,1928-08-24 12:00:00,993.19,-74.09,38.04,,,,,,,,,1928-08-19 18:00:00,1012.45,-67.61,29.94,1928-08-19 18:00:00,1928-08-26 18:00:00,1011.58,-60.0,45.25
202,TC192805,Marc,A,2,1928-09-07 00:00:00,980.43,-49.24,32.21,1928-09-07 00:00:00,980.43,-49.24,32.21,1928-09-07 06:00:00,984.68,-48.37,33.35,1928-09-08 12:00:00,987.91,-35.17,42.45,1928-08-29 12:00:00,1010.37,-22.09,13.5,1928-08-31 06:00:00,1928-09-09 12:00:00,993.0,-15.0,50.5
203,TC192807,Noelle,A,1,1928-09-09 18:00:00,910.19,-76.36,28.6,1928-09-09 18:00:00,910.19,-76.36,28.6,1928-09-15 12:00:00,996.39,-80.15,36.09,,,,,1928-09-04 12:00:00,1010.28,-79.29,23.88,1928-09-04 12:00:00,1928-09-17 12:00:00,1003.38,-74.65,40.58
204,TC192808,Rocco,A,2,1928-09-13 06:00:00,990.7,-21.25,51.0,1928-09-09 18:00:00,998.54,-45.95,35.61,1928-09-12 06:00:00,1009.08,-39.5,44.0,1928-09-12 12:00:00,1008.35,-37.5,45.75,1928-09-06 18:00:00,1005.24,-56.87,27.17,1928-09-06 18:00:00,1928-09-13 06:00:00,990.7,-21.25,51.0
205,TC192809,Shannon,A,2,1928-09-22 00:00:00,934.4,-63.31,32.34,1928-09-20 12:00:00,961.85,-68.34,28.6,1928-09-21 06:00:00,961.07,-66.39,30.4,1928-09-27 00:00:00,1001.36,-41.0,47.0,1928-09-15 12:00:00,1012.15,-65.72,26.32,1928-09-15 12:00:00,1928-09-27 18:00:00,989.96,-43.0,53.5
206,TC192810,Thomas,A,1,1928-10-04 12:00:00,943.04,-25.39,44.35,1928-09-21 18:00:00,944.88,-37.45,17.34,1928-10-02 00:00:00,957.08,-49.33,34.98,,,,,1928-09-18 12:00:00,1002.76,-20.48,10.66,1928-09-18 12:00:00,1928-10-05 12:00:00,947.75,-10.99,48.7
207,TC192811,Wendy,A,1,1928-10-12 00:00:00,926.83,-52.84,30.49,1928-10-12 00:00:00,926.83,-52.84,30.49,1928-10-23 12:00:00,993.78,-40.18,42.43,,,,,1928-09-22 18:00:00,1008.3,-11.65,12.1,1928-09-24 00:00:00,1928-10-26 06:00:00,995.55,-43.0,46.0
208,TC192902,Anna,A,2,1929-09-19 18:00:00,953.02,-38.61,31.2,1929-09-19 18:00:00,953.02,-38.61,31.2,1929-09-27 00:00:00,1000.11,-21.27,47.2,1929-09-27 18:00:00,1007.69,-15.5,47.25,1929-09-12 18:00:00,1006.07,-26.67,13.69,1929-09-12 18:00:00,1929-09-29 18:00:00,1015.69,1.75,48.5
209,TC192903,Bryan,A,1,1929-09-20 12:00:00,995.22,-52.41,42.82,1929-09-20 12:00:00,995.22,-52.41,42.82,1929-09-21 12:00:00,1001.76,-43.5,52.0,,,,,1929-09-15 00:00:00,1012.71,-54.04,26.04,1929-09-15 00:00:00,1929-09-21 18:00:00,1002.2,-41.75,54.0
210,TC192904,Cissy,A,1,1929-09-28 12:00:00,962.35,-43.16,36.51,1929-09-26 06:00:00,987.51,-59.26,25.72,1929-09-27 00:00:00,989.67,-56.43,28.0,,,,,1929-09-19 18:00:00,1002.23,-35.8,11.05,1929-09-19 18:00:00,1929-10-03 00:00:00,989.59,-15.75,54.5
211,TC193001,Dominic,B,2,1930-06-25 06:00:00,987.41,-84.91,29.95,1930-06-25 06:00:00,987.41,-84.91,29.95,1930-07-03 18:00:00,1015.57,-90.75,36.25,1930-07-03 18:00:00,1015.57,-90.75,36.25,1930-06-19 18:00:00,1015.45,-82.26,27.79,1930-06-20 12:00:00,1930-07-04 00:00:00,1015.96,-90.75,36.0
212,TC193002,Esther,B,1,1930-08-14 06:00:00,887.54,-70.56,27.22,1930-08-14 06:00:00,887.54,-70.56,27.22,1930-08-17 06:00:00,956.4,-62.06,44.15,,,,,1930-08-09 06:00:00,1006.0,-41.87,12.78,1930-08-09 06:00:00,1930-08-18 12:00:00,975.66,-60.61,50.74
213,TC193003,Frank,B,2,1930-09-19 12:00:00,934.83,-70.67,39.42,1930-09-15 18:00:00,943.73,-77.15,24.55,1930-09-18 00:00:00,952.06,-77.17,31.14,1930-09-20 12:00:00,979.68,-62.68,47.61,1930-09-10 00:00:00,1012.26,-33.72,12.32,1930-09-10 00:00:00,1930-09-20 18:00:00,981.64,-60.41,49.34
214,TC193004,Helena,B,2,1930-11-04 00:00:00,948.88,-91.58,20.7,1930-11-04 00:00:00,948.88,-91.58,20.7,1930-11-05 12:00:00,954.74,-87.08,27.0,1930-11-06 12:00:00,992.74,-74.44,30.88,1930-10-29 06:00:00,1007.17,-82.96,19.14,1930-10-29 06:00:00,1930-11-09 06:00:00,1007.87,-24.0,44.75
215,TC193005,John,B,2,1930-11-06 18:00:00,988.17,-20.93,46.12,1930-11-05 00:00:00,994.44,-32.46,35.66,1930-11-06 00:00:00,996.02,-27.73,41.42,1930-11-08 00:00:00,998.22,-9.0,45.0,1930-11-01 00:00:00,1001.78,-36.21,27.73,1930-11-02 12:00:00,1930-11-08 06:00:00,1001.62,-6.5,44.25
216,TC193101,Kannas,B,1,1931-05-22 18:00:00,962.99,-86.73,26.6,1931-05-22 18:00:00,962.99,-86.73,26.6,1931-05-24 12:00:00,1000.16,-82.33,33.11,,,,,1931-05-17 06:00:00,998.32,-77.01,16.56,1931-05-17 06:00:00,1931-05-25 00:00:00,1010.66,-81.5,35.0
217,TC193102,Lomy,B,2,1931-05-27 06:00:00,980.89,-51.83,25.92,1931-05-27 06:00:00,980.89,-51.83,25.92,1931-05-28 12:00:00,991.56,-43.71,30.04,1931-05-30 18:00:00,1008.78,-34.75,24.0,1931-05-23 06:00:00,1013.62,-53.0,22.62,1931-05-23 06:00:00,1931-06-01 06:00:00,1019.2,-38.0,21.5
218,TC193105,Mandy,B,2,1931-09-24 00:00:00,913.33,-60.97,29.81,1931-09-24 00:00:00,913.33,-60.97,29.81,1931-09-27 12:00:00,953.76,-53.37,39.19,1931-09-30 18:00:00,970.25,-38.77,55.68,1931-09-11 18:00:00,1006.33,-18.17,13.59,1931-09-12 12:00:00,1931-10-01 00:00:00,970.46,-37.11,57.94
219,TC193106,Nathan,B,2,1931-09-22 12:00:00,988.8,-74.39,39.5,1931-09-21 18:00:00,994.66,-79.34,34.42,1931-09-22 00:00:00,993.69,-78.47,35.78,1931-09-22 18:00:00,991.98,-71.2,41.68,1931-09-19 06:00:00,1008.53,-78.71,26.19,1931-09-19 06:00:00,1931-09-23 18:00:00,1007.97,-57.75,48.0
220,TC193107,Rosalina,B,2,1931-10-05 18:00:00,974.56,-72.08,36.71,1931-10-06 06:00:00,976.12,-72.49,37.82,1931-10-14 12:00:00,1015.94,-22.0,42.0,1931-10-15 00:00:00,1019.52,-26.0,41.25,1931-10-04 12:00:00,1006.2,-74.9,31.78,1931-10-06 06:00:00,1931-10-15 06:00:00,1019.68,-27.5,41.25
221,TC193109,Samuel,B,2,1931-12-11 06:00:00,942.03,-48.79,45.54,1931-12-11 12:00:00,944.4,-46.99,44.14,1931-12-14 00:00:00,975.2,-32.75,47.0,1931-12-14 06:00:00,975.97,-30.25,47.75,1931-12-10 12:00:00,967.34,-43.73,44.24,1931-12-11 12:00:00,1931-12-14 18:00:00,975.85,-25.0,52.0
222,TC193202,Tatiana,B,1,1932-02-28 06:00:00,982.6,-36.83,34.55,1932-02-27 06:00:00,985.6,-45.17,28.7,1932-02-27 18:00:00,983.75,-41.97,31.22,,,,,1932-02-24 00:00:00,1000.36,-53.91,25.38,1932-02-24 00:00:00,1932-02-28 18:00:00,983.54,-32.46,38.71
223,TC193203,Wilson,B,2,1932-07-17 12:00:00,985.86,-65.64,36.71,1932-07-17 00:00:00,991.46,-70.85,34.4,1932-07-17 06:00:00,986.01,-68.16,35.32,1932-07-19 06:00:00,1006.04,-36.25,46.25,1932-07-14 00:00:00,1011.01,-76.16,31.16,1932-07-14 00:00:00,1932-07-21 00:00:00,1017.11,-19.75,40.75
224,TC193204,Aidan,B,2,1932-07-18 18:00:00,982.74,-66.85,34.65,1932-07-18 18:00:00,982.74,-66.85,34.65,1932-07-19 18:00:00,998.56,-57.66,41.76,1932-07-21 00:00:00,1008.07,-54.18,41.82,1932-07-15 18:00:00,1009.72,-88.55,28.98,1932-07-15 18:00:00,1932-07-22 06:00:00,1018.41,-38.25,45.5
225,TC193205,Bella,B,2,1932-08-09 00:00:00,937.59,-71.89,30.96,1932-08-09 00:00:00,937.59,-71.89,30.96,1932-08-09 18:00:00,937.69,-68.53,35.77,1932-08-11 06:00:00,989.14,-55.91,49.81,1932-07-31 06:00:00,1012.44,-39.55,16.66,1932-07-31 06:00:00,1932-08-12 00:00:00,996.02,-36.25,54.0
226,TC193209,Carson,B,1,1932-10-27 06:00:00,985.57,-49.05,42.31,1932-10-28 06:00:00,986.85,-46.3,43.56,1932-10-30 00:00:00,994.75,-37.75,51.75,,,,,1932-10-27 00:00:00,991.61,-49.62,41.55,1932-10-28 00:00:00,1932-10-30 06:00:00,995.88,-37.0,54.0
227,TC193301,Dorcas,B,1,1933-04-10 06:00:00,975.1,-49.3,42.23,1933-04-10 06:00:00,975.1,-49.3,42.23,1933-04-11 18:00:00,982.11,-35.0,50.5,,,,,1933-04-07 06:00:00,1005.83,-75.6,37.32,1933-04-08 12:00:00,1933-04-12 06:00:00,983.85,-30.75,54.75
228,TC193302,Erling,B,0,1933-05-11 06:00:00,976.11,-61.38,37.08,1933-05-11 06:00:00,976.11,-61.38,37.08,,,,,,,,,1933-05-11 00:00:00,978.33,-63.14,36.61,1933-05-11 00:00:00,1933-05-14 12:00:00,1018.18,-50.0,47.25
229,TC193303,Grace,B,2,1933-06-08 12:00:00,963.85,-52.67,36.61,1933-06-08 12:00:00,963.85,-52.67,36.61,1933-06-09 12:00:00,987.58,-46.5,41.73,1933-06-10 00:00:00,1002.57,-42.68,44.83,1933-05-31 06:00:00,1007.01,-69.62,28.97,1933-05-31 06:00:00,1933-06-11 00:00:00,1014.16,-31.25,52.25
230,TC193305,Hendrik,B,2,1933-08-19 18:00:00,938.15,-73.46,22.59,1933-08-19 18:00:00,938.15,-73.46,22.59,1933-08-27 00:00:00,1003.11,-84.78,42.99,1933-08-27 00:00:00,1003.11,-84.78,42.99,1933-08-10 00:00:00,1012.06,-26.14,8.54,1933-08-10 18:00:00,1933-08-28 06:00:00,990.86,-74.25,54.0
231,TC193306,Jana,B,2,1933-08-31 18:00:00,919.77,-63.84,32.06,1933-08-31 18:00:00,919.77,-63.84,32.06,1933-09-02 00:00:00,944.63,-62.08,35.62,1933-09-09 12:00:00,973.73,-17.06,52.59,1933-08-26 12:00:00,1010.7,-50.51,14.19,1933-08-26 18:00:00,1933-09-09 12:00:00,973.73,-17.06,52.59
232,TC193307,Kevin,B,2,1933-11-19 12:00:00,987.84,-37.11,46.19,1933-11-18 12:00:00,990.79,-49.67,35.08,1933-11-18 18:00:00,991.45,-47.91,36.75,1933-11-19 00:00:00,994.35,-45.24,39.2,1933-11-16 00:00:00,1008.56,-53.4,30.24,1933-11-16 00:00:00,1933-11-19 18:00:00,993.65,-31.25,51.0
233,TC193401,Laura,B,2,1934-04-30 18:00:00,986.34,-53.79,46.05,1934-04-27 00:00:00,993.41,-68.9,31.64,1934-04-30 06:00:00,990.85,-58.9,40.8,1934-04-30 18:00:00,986.34,-53.79,46.05,1934-04-25 06:00:00,1005.96,-72.65,26.06,1934-04-27 00:00:00,1934-05-02 06:00:00,1011.64,-22.0,53.5
234,TC193405,Manuel,B,2,1934-08-23 00:00:00,902.56,-77.0,23.08,1934-08-23 00:00:00,902.56,-77.0,23.08,1934-08-27 06:00:00,996.79,-82.75,38.94,1934-08-28 06:00:00,996.8,-71.46,45.3,1934-08-15 06:00:00,1008.96,-31.28,13.0,1934-08-15 06:00:00,1934-08-29 12:00:00,980.92,-46.25,54.0
235,TC193406,Olivia,B,2,1934-09-09 06:00:00,930.07,-50.7,27.25,1934-09-09 06:00:00,930.07,-50.7,27.25,1934-09-11 12:00:00,951.4,-53.53,37.47,1934-09-15 00:00:00,971.99,-16.23,50.35,1934-08-31 06:00:00,1003.82,-18.96,15.43,1934-08-31 06:00:00,1934-09-15 18:00:00,980.3,-1.75,56.5
236,TC193407,Rayan,B,2,1934-11-05 00:00:00,957.9,-60.76,41.72,1934-11-04 18:00:00,961.07,-61.97,39.18,1934-11-05 00:00:00,957.9,-60.76,41.72,1934-11-05 18:00:00,979.08,-64.57,52.73,1934-10-30 18:00:00,1007.68,-71.18,27.08,1934-11-01 00:00:00,1934-11-05 18:00:00,979.08,-64.57,52.73
237,TC193501,Shirley,B,1,1935-01-07 12:00:00,975.23,-7.25,46.5,1935-01-03 00:00:00,979.6,-28.1,32.91,1935-01-06 06:00:00,986.28,-13.12,45.74,,,,,1935-01-03 00:00:00,979.6,-28.1,32.91,1935-01-03 00:00:00,1935-01-07 12:00:00,975.23,-7.25,46.5
238,TC193503,Tijjani,B,2,1935-06-03 00:00:00,926.29,-83.44,26.25,1935-06-03 00:00:00,926.29,-83.44,26.25,1935-06-04 12:00:00,955.13,-76.67,31.76,1935-06-09 00:00:00,986.18,-36.37,45.4,1935-05-27 18:00:00,1004.33,-86.52,20.72,1935-05-27 18:00:00,1935-06-10 18:00:00,991.53,-1.5,50.25
239,TC193506,Yui,B,1,1935-09-09 00:00:00,920.79,-70.38,27.34,1935-09-09 00:00:00,920.79,-70.38,27.34,1935-09-17 06:00:00,944.56,-48.38,44.53,,,,,1935-08-30 06:00:00,1008.13,-34.11,13.39,1935-08-30 06:00:00,1935-09-19 18:00:00,993.04,-35.0,52.0
240,TC193507,Alissa,B,0,1935-09-08 12:00:00,962.2,-83.74,28.94,1935-09-08 12:00:00,962.2,-83.74,28.94,,,,,,,,,1935-09-04 06:00:00,1012.21,-74.79,24.4,1935-09-04 06:00:00,1935-09-12 00:00:00,1006.14,-86.25,38.0
241,TC193508,Benjamin,B,0,1935-09-10 06:00:00,999.03,-44.36,39.47,1935-09-10 06:00:00,999.03,-44.36,39.47,,,,,,,,,1935-09-08 00:00:00,1004.08,-55.26,38.45,1935-09-08 00:00:00,1935-09-11 06:00:00,1002.15,-42.88,38.7
242,TC193510,Carmen,B,2,1935-09-25 18:00:00,969.88,-58.33,31.37,1935-09-25 18:00:00,969.88,-58.33,31.37,1935-09-29 00:00:00,998.3,-56.5,41.75,1935-09-29 06:00:00,999.23,-55.0,44.0,1935-09-19 00:00:00,1010.93,-43.73,24.42,1935-09-19 00:00:00,1935-09-29 18:00:00,1000.46,-48.75,49.5
243,TC193511,Daniel,B,1,1935-10-11 00:00:00,964.45,-85.03,28.11,1935-10-11 00:00:00,964.45,-85.03,28.11,1935-10-11 06:00:00,969.63,-85.48,29.45,,,,,1935-10-07 00:00:00,1004.81,-81.88,13.82,1935-10-07 00:00:00,1935-10-12 18:00:00,999.83,-87.0,35.0
244,TC193512,Emily,B,0,1935-10-12 00:00:00,990.74,-23.5,12.39,1935-10-12 00:00:00,990.74,-23.5,12.39,,,,,,,,,1935-10-10 12:00:00,1007.29,-16.47,12.34,1935-10-10 18:00:00,1935-10-15 18:00:00,1006.15,-28.0,20.25
245,TC193601,Geoffrey,B,0,1936-01-19 18:00:00,949.16,-27.76,44.95,1936-01-19 18:00:00,949.16,-27.76,44.95,,,,,,,,,1936-01-18 18:00:00,969.56,-37.57,38.28,1936-01-19 12:00:00,1936-01-23 12:00:00,983.36,9.25,52.25
246,TC193604,Hazel,B,1,1936-03-18 12:00:00,974.34,-52.05,35.21,1936-03-18 12:00:00,974.34,-52.05,35.21,1936-03-20 06:00:00,988.17,-46.05,51.26,,,,,1936-03-16 12:00:00,985.64,-58.85,32.04,1936-03-16 12:00:00,1936-03-20 18:00:00,988.61,-40.63,54.73
247,TC193605,Joshua,B,0,1936-06-24 06:00:00,973.89,-97.4,28.21,1936-06-24 06:00:00,973.89,-97.4,28.21,,,,,,,,,1936-06-18 00:00:00,1009.76,-86.8,20.73,1936-06-18 00:00:00,1936-06-24 12:00:00,974.42,-98.48,28.88
248,TC193607,Kelly,B,2,1936-09-07 06:00:00,936.34,-56.0,29.29,1936-09-07 06:00:00,936.34,-56.0,29.29,1936-09-09 12:00:00,956.8,-56.62,42.1,1936-09-10 06:00:00,994.07,-46.11,50.49,1936-09-01 06:00:00,1004.8,-16.59,11.9,1936-09-01 06:00:00,1936-09-10 12:00:00,996.65,-41.07,53.63
249,TC193608,Luca,B,2,1936-09-16 18:00:00,973.29,-93.57,30.02,1936-09-16 18:00:00,973.29,-93.57,30.02,1936-09-18 00:00:00,998.74,-89.45,34.22,1936-09-18 18:00:00,999.41,-85.86,36.69,1936-09-14 12:00:00,1002.75,-95.56,23.5,1936-09-14 12:00:00,1936-09-20 12:00:00,1016.75,-81.0,40.25
250,TC193610,Mary,B,1,1936-09-27 18:00:00,925.0,-54.49,26.37,1936-09-27 18:00:00,925.0,-54.49,26.37,1936-10-10 12:00:00,982.69,-22.32,42.23,,,,,1936-09-23 18:00:00,1006.71,-39.9,13.88,1936-09-23 18:00:00,1936-10-13 18:00:00,1000.95,-4.11,38.78
251,TC193611,Ollie,B,2,1936-10-14 12:00:00,930.56,-71.98,28.13,1936-10-14 12:00:00,930.56,-71.98,28.13,1936-10-19 06:00:00,995.34,-72.7,38.9,1936-10-19 06:00:00,995.34,-72.7,38.9,1936-10-10 00:00:00,1008.48,-69.67,23.28,1936-10-10 00:00:00,1936-10-20 18:00:00,980.17,-62.5,51.75
252,TC193613,Rosita,B,2,1936-12-27 06:00:00,977.29,-25.25,48.93,1936-12-26 06:00:00,989.37,-31.53,34.64,1936-12-26 12:00:00,987.9,-30.87,37.23,1936-12-27 12:00:00,978.44,-20.23,53.01,1936-12-20 06:00:00,1004.0,-33.96,23.57,1936-12-21 00:00:00,1936-12-27 12:00:00,978.44,-20.23,53.01
253,TC193701,Stefan,B,2,1937-01-09 06:00:00,977.15,-37.9,37.45,1937-01-09 06:00:00,977.15,-37.9,37.45,1937-01-11 00:00:00,997.1,-34.5,31.25,1937-01-11 00:00:00,997.1,-34.5,31.25,1937-01-07 12:00:00,980.55,-49.22,37.67,1937-01-07 12:00:00,1937-01-12 06:00:00,997.28,-29.5,25.25
254,TC193702,Tess,B,2,1937-01-14 18:00:00,993.12,-25.65,36.16,1937-01-14 18:00:00,993.12,-25.65,36.16,1937-01-16 12:00:00,996.71,-40.93,33.55,1937-01-16 18:00:00,997.21,-40.5,31.75,1937-01-13 18:00:00,996.13,-23.09,30.58,1937-01-13 18:00:00,1937-01-19 18:00:00,1017.28,-21.0,27.75
255,TC193707,Yves,B,2,1937-03-14 18:00:00,985.73,-62.16,34.95,1937-03-14 18:00:00,985.73,-62.16,34.95,1937-03-20 06:00:00,1008.31,-19.75,34.5,1937-03-20 06:00:00,1008.31,-19.75,34.5,1937-03-14 18:00:00,985.73,-62.16,34.95,1937-03-14 18:00:00,1937-03-21 06:00:00,1019.98,-20.5,32.0
256,TC193708,Alberto,B,0,1937-05-04 18:00:00,983.01,-39.04,48.92,1937-05-04 18:00:00,983.01,-39.04,48.92,,,,,,,,,1937-05-02 06:00:00,1001.79,-59.96,23.39,1937-05-04 18:00:00,1937-05-06 12:00:00,990.0,-15.75,54.5
257,TC193709,Blaise,B,0,1937-09-09 00:00:00,958.97,-82.19,15.55,1937-09-09 00:00:00,958.97,-82.19,15.55,,,,,,,,,1937-09-01 00:00:00,1003.06,-30.57,11.51,1937-09-01 00:00:00,1937-09-11 18:00:00,1000.44,-94.57,15.13
258,TC193710,Carlos,B,2,1937-09-17 12:00:00,950.29,-58.57,38.99,1937-09-17 12:00:00,950.29,-58.57,38.99,1937-09-18 06:00:00,975.14,-54.44,47.83,1937-09-18 18:00:00,991.07,-50.22,52.4,1937-09-08 18:00:00,1004.63,-28.29,11.49,1937-09-08 18:00:00,1937-09-18 18:00:00,991.07,-50.22,52.4
259,TC193711,Doreen,B,2,1937-09-17 06:00:00,910.62,-92.7,26.63,1937-09-17 06:00:00,910.62,-92.7,26.63,1937-09-20 00:00:00,999.15,-92.93,35.25,1937-09-20 00:00:00,999.15,-92.93,35.25,1937-09-11 18:00:00,1009.95,-85.62,25.62,1937-09-11 18:00:00,1937-09-22 12:00:00,990.81,-49.75,45.25
260,TC193712,Emiliano,B,1,1937-09-23 18:00:00,992.03,-66.83,16.27,1937-09-23 18:00:00,992.03,-66.83,16.27,1937-09-29 00:00:00,1011.66,-87.0,24.5,,,,,1937-09-20 00:00:00,1005.73,-47.04,10.61,1937-09-20 00:00:00,1937-09-30 12:00:00,1009.67,-93.25,20.0
261,TC193713,Gloria,B,0,1937-10-09 06:00:00,986.3,-19.25,36.5,1937-10-09 06:00:00,986.3,-19.25,36.5,,,,,,,,,1937-09-29 12:00:00,1007.62,-47.26,13.24,1937-09-29 12:00:00,1937-10-09 06:00:00,986.3,-19.25,36.5
262,TC193714,Ian,B,1,1937-10-07 18:00:00,947.4,-57.57,34.3,1937-10-07 18:00:00,947.4,-57.57,34.3,1937-10-12 12:00:00,979.11,-34.13,39.59,,,,,1937-10-02 12:00:00,1001.26,-74.97,24.27,1937-10-02 12:00:00,1937-10-18 12:00:00,1009.07,-5.75,43.75
263,TC193803,Jessica,B,2,1938-09-12 00:00:00,973.58,-90.92,28.75,1938-09-12 00:00:00,973.58,-90.92,28.75,1938-09-15 06:00:00,995.5,-80.6,41.87,1938-09-15 06:00:00,995.5,-80.6,41.87,1938-09-05 12:00:00,1012.06,-85.23,23.62,1938-09-05 12:00:00,1938-09-16 00:00:00,995.75,-65.0,46.75
264,TC193804,Kyle,B,2,1938-10-04 18:00:00,970.06,-60.48,30.54,1938-10-04 18:00:00,970.06,-60.48,30.54,1938-10-05 18:00:00,987.69,-55.22,34.26,1938-10-07 06:00:00,991.82,-35.25,46.75,1938-09-23 00:00:00,1004.12,-18.48,11.51,1938-09-23 00:00:00,1938-10-08 06:00:00,1004.15,-9.5,51.0
265,TC193901,Lorraine,B,1,1939-08-26 06:00:00,969.31,-89.72,29.95,1939-08-26 06:00:00,969.31,-89.72,29.95,1939-08-29 06:00:00,1008.48,-76.92,40.09,,,,,1939-08-16 18:00:00,1013.02,-32.91,11.29,1939-08-17 12:00:00,1939-08-30 06:00:00,1002.81,-69.5,44.75
266,TC193902,Manfred,B,0,1939-09-09 18:00:00,997.62,-50.67,14.95,1939-09-09 18:00:00,997.62,-50.67,14.95,,,,,,,,,1939-09-05 00:00:00,1011.9,-32.51,9.88,1939-09-06 06:00:00,1939-09-14 12:00:00,1016.96,-77.75,23.0
267,TC193903,Oxlip,B,2,1939-09-21 18:00:00,965.5,-24.63,48.14,1939-09-20 12:00:00,971.05,-28.39,40.45,1939-09-20 18:00:00,968.77,-27.63,41.92,1939-09-22 18:00:00,970.78,-22.66,58.1,1939-09-15 06:00:00,1009.5,-34.76,39.98,1939-09-16 18:00:00,1939-09-22 18:00:00,970.78,-22.66,58.1
268,TC193904,Rodri,B,2,1939-10-06 18:00:00,937.54,-37.97,38.18,1939-10-05 18:00:00,937.68,-38.85,32.66,1939-10-06 06:00:00,940.31,-38.7,34.98,1939-10-08 18:00:00,947.52,-16.07,55.77,1939-09-25 12:00:00,1008.95,-5.43,13.82,1939-09-25 12:00:00,1939-10-09 06:00:00,945.41,-10.67,57.47
269,TC193906,Sofiee,B,0,1939-10-08 18:00:00,999.34,-51.46,39.08,1939-10-08 18:00:00,999.34,-51.46,39.08,,,,,,,,,1939-10-08 18:00:00,999.34,-51.46,39.08,1939-10-08 18:00:00,1939-10-12 00:00:00,1010.03,-46.5,47.75
270,TC193907,Victor,B,2,1939-12-08 06:00:00,990.26,-30.83,49.33,1939-12-05 18:00:00,998.42,-40.79,29.28,1939-12-07 12:00:00,998.34,-39.21,40.64,1939-12-07 12:00:00,998.34,-39.21,40.64,1939-12-05 06:00:00,1001.17,-37.37,29.31,1939-12-05 06:00:00,1939-12-09 00:00:00,996.72,-19.5,55.5
271,TC194002,Yan,B,1,1940-03-21 18:00:00,978.54,-42.99,37.55,1940-03-22 06:00:00,981.95,-40.34,38.85,1940-03-25 00:00:00,1018.03,-36.0,38.5,,,,,1940-03-21 00:00:00,1001.82,-53.01,33.53,1940-03-22 06:00:00,1940-03-25 06:00:00,1017.89,-36.25,37.5
272,TC194003,Angela,B,2,1940-04-09 18:00:00,971.43,-15.38,38.88,1940-04-06 06:00:00,985.09,-40.9,40.76,1940-04-08 00:00:00,990.0,-36.27,34.5,1940-04-08 06:00:00,989.24,-34.23,33.56,1940-04-05 06:00:00,992.38,-45.11,42.11,1940-04-06 00:00:00,1940-04-10 18:00:00,979.48,-10.48,41.43
273,TC194005,Bernardo,B,2,1940-08-07 18:00:00,920.17,-79.15,25.85,1940-08-07 18:00:00,920.17,-79.15,25.85,1940-08-15 06:00:00,997.55,-69.82,40.58,1940-08-17 00:00:00,1001.96,-62.0,47.75,1940-07-31 00:00:00,1006.87,-35.33,12.42,1940-07-31 00:00:00,1940-08-17 18:00:00,1010.14,-53.75,48.25
274,TC194007,Corliss,B,2,1940-08-26 12:00:00,950.67,-72.8,29.18,1940-08-26 12:00:00,950.67,-72.8,29.18,1940-09-01 00:00:00,968.91,-57.86,44.99,1940-09-01 12:00:00,971.99,-51.13,50.61,1940-08-15 12:00:00,1010.13,-29.75,11.68,1940-08-18 00:00:00,1940-09-02 00:00:00,968.34,-47.49,55.06
275,TC194008,Derrick,B,1,1940-09-10 06:00:00,970.77,-52.79,42.91,1940-09-08 12:00:00,971.48,-67.88,27.98,1940-09-09 18:00:00,975.47,-60.53,38.74,,,,,1940-08-28 06:00:00,1008.74,-14.2,10.47,1940-08-28 06:00:00,1940-09-10 12:00:00,977.93,-48.45,45.07
276,TC194009,Evelyn,B,0,1940-09-05 12:00:00,960.07,-95.97,21.73,1940-09-05 12:00:00,960.07,-95.97,21.73,,,,,,,,,1940-08-30 18:00:00,1009.26,-62.57,15.3,1940-08-30 18:00:00,1940-09-05 18:00:00,967.0,-97.13,21.98
277,TC194010,Gabriel,B,0,1940-09-16 12:00:00,943.19,-96.05,22.65,1940-09-16 12:00:00,943.19,-96.05,22.65,,,,,,,,,1940-09-12 18:00:00,1003.93,-77.99,20.53,1940-09-12 18:00:00,1940-09-17 00:00:00,969.22,-98.13,23.66
278,TC194011,Ivanka,B,1,1940-09-18 06:00:00,976.21,-77.1,25.77,1940-09-18 06:00:00,976.21,-77.1,25.77,1940-09-20 18:00:00,1004.19,-91.47,32.54,,,,,1940-09-13 00:00:00,1010.29,-53.96,19.0,1940-09-13 00:00:00,1940-09-21 06:00:00,1007.19,-91.18,32.83
279,TC194012,Jack,B,2,1940-09-23 00:00:00,990.98,-60.72,27.57,1940-09-23 00:00:00,990.98,-60.72,27.57,1940-09-25 12:00:00,1008.35,-48.85,46.74,1940-09-25 18:00:00,1008.25,-43.25,47.5,1940-09-20 18:00:00,1008.19,-51.86,15.58,1940-09-20 18:00:00,1940-09-26 18:00:00,1007.29,-24.0,44.25
280,TC194013,Kyan,B,2,1940-09-27 06:00:00,987.43,-80.05,32.9,1940-09-27 06:00:00,987.43,-80.05,32.9,1940-09-27 12:00:00,993.47,-79.19,34.26,1940-09-28 00:00:00,995.21,-75.44,37.16,1940-09-23 06:00:00,1000.91,-78.99,19.29,1940-09-23 06:00:00,1940-09-28 12:00:00,995.84,-68.75,40.0
281,TC194014,Lionel,B,0,1940-10-02 06:00:00,974.69,-81.07,15.3,1940-10-02 06:00:00,974.69,-81.07,15.3,,,,,,,,,1940-09-27 06:00:00,1002.09,-44.87,9.97,1940-09-27 06:00:00,1940-10-09 06:00:00,1005.4,-98.5,21.84
282,TC194016,Melody,B,2,1940-10-16 06:00:00,950.15,-38.38,27.99,1940-10-16 06:00:00,950.15,-38.38,27.99,1940-10-20 06:00:00,983.08,-31.86,49.71,1940-10-20 12:00:00,986.55,-26.53,51.93,1940-10-11 00:00:00,1000.93,-33.4,30.84,1940-10-11 00:00:00,1940-10-21 12:00:00,986.86,-31.15,51.63
283,TC194017,Oscar,B,0,1940-12-23 18:00:00,982.57,-13.02,41.7,1940-12-23 18:00:00,982.57,-13.02,41.7,,,,,,,,,1940-12-16 18:00:00,992.46,-17.03,25.71,1940-12-16 18:00:00,1940-12-24 00:00:00,985.62,-14.75,43.53
284,TC194101,Rachel,B,1,1941-09-21 00:00:00,952.43,-53.54,34.37,1941-09-21 00:00:00,952.43,-53.54,34.37,1941-09-22 00:00:00,971.46,-49.62,39.95,,,,,1941-09-12 06:00:00,1007.14,-26.67,13.69,1941-09-12 06:00:00,1941-09-25 00:00:00,993.45,-30.35,49.01
285,TC194102,Sunny,B,1,1941-09-29 00:00:00,931.33,-22.99,57.93,1941-09-22 12:00:00,990.13,-76.83,27.59,1941-09-23 00:00:00,980.95,-72.7,30.69,,,,,1941-09-17 00:00:00,1006.73,-79.02,11.09,1941-09-17 12:00:00,1941-09-29 00:00:00,931.33,-22.99,57.93
286,TC194201,Victoria,B,0,1942-01-23 18:00:00,973.33,-31.14,32.9,1942-01-23 18:00:00,973.33,-31.14,32.9,,,,,,,,,1942-01-21 00:00:00,984.07,-33.35,35.45,1942-01-21 18:00:00,1942-01-26 00:00:00,987.36,-34.46,49.6
287,TC194202,Yoshi,B,0,1942-02-16 00:00:00,945.75,-37.98,49.09,1942-02-16 00:00:00,945.75,-37.98,49.09,,,,,,,,,1942-02-15 06:00:00,947.31,-44.6,44.36,1942-02-15 06:00:00,1942-02-17 00:00:00,954.05,-31.79,50.59
288,TC194204,Antoine,B,2,1942-07-14 06:00:00,996.07,-61.57,43.97,1942-07-14 00:00:00,997.7,-64.33,41.6,1942-07-14 06:00:00,996.07,-61.57,43.97,1942-07-14 12:00:00,998.45,-58.34,46.49,1942-07-12 00:00:00,1004.69,-70.67,35.43,1942-07-12 00:00:00,1942-07-15 18:00:00,997.48,-45.0,54.5
289,TC194206,Brenda,B,2,1942-09-13 12:00:00,988.73,-36.0,50.75,1942-09-08 12:00:00,999.3,-64.69,28.05,1942-09-10 06:00:00,1001.99,-62.37,32.84,1942-09-13 00:00:00,990.74,-42.25,49.0,1942-09-06 00:00:00,1013.22,-62.7,23.25,1942-09-07 18:00:00,1942-09-14 00:00:00,995.54,-26.0,53.5
290,TC194207,Claudio,B,1,1942-09-20 00:00:00,989.15,-29.04,48.65,1942-09-15 06:00:00,994.73,-40.29,32.77,1942-09-18 18:00:00,998.27,-35.75,38.71,,,,,1942-09-08 12:00:00,1006.97,-17.5,17.85,1942-09-08 18:00:00,1942-09-20 00:00:00,989.15,-29.04,48.65
291,TC194210,Daisy,B,2,1942-12-13 18:00:00,955.46,-48.69,29.52,1942-12-13 18:00:00,955.46,-48.69,29.52,1942-12-15 00:00:00,961.14,-46.49,43.85,1942-12-15 12:00:00,970.7,-44.45,49.89,1942-12-11 12:00:00,990.49,-53.44,24.56,1942-12-11 12:00:00,1942-12-15 18:00:00,975.14,-41.94,52.37
292,TC194301,Ederson,B,1,1943-03-28 18:00:00,997.58,-38.04,39.24,1943-03-28 18:00:00,997.58,-38.04,39.24,1943-03-31 06:00:00,1007.77,-40.5,40.0,,,,,1943-03-28 06:00:00,998.34,-39.03,37.15,1943-03-28 06:00:00,1943-04-01 18:00:00,1004.15,-53.5,46.75
293,TC194302,Gwyneth,B,0,1943-07-21 00:00:00,946.98,-97.1,27.12,1943-07-21 00:00:00,946.98,-97.1,27.12,,,,,,,,,1943-07-09 18:00:00,1008.64,-31.84,10.75,1943-07-10 06:00:00,1943-07-21 06:00:00,981.84,-98.87,27.22
294,TC194304,Isaac,B,2,1943-09-01 18:00:00,894.09,-66.8,20.87,1943-09-01 18:00:00,894.09,-66.8,20.87,1943-09-05 18:00:00,932.19,-71.04,31.75,1943-09-08 18:00:00,968.71,-51.01,50.86,1943-08-25 00:00:00,1008.81,-30.72,12.24,1943-08-26 00:00:00,1943-09-09 12:00:00,971.93,-46.75,54.75
295,TC194305,Jaime,B,0,1943-09-07 18:00:00,997.33,-51.88,40.56,1943-09-07 18:00:00,997.33,-51.88,40.56,,,,,,,,,1943-09-04 06:00:00,1010.29,-59.14,24.98,1943-09-04 06:00:00,1943-09-07 18:00:00,997.33,-51.88,40.56
296,TC194307,Kelechi,B,2,1943-10-26 06:00:00,962.41,-65.46,37.21,1943-10-25 00:00:00,984.31,-69.18,27.43,1943-10-25 06:00:00,982.05,-68.27,28.89,1943-10-27 12:00:00,975.88,-57.78,45.86,1943-10-20 12:00:00,1006.27,-52.83,14.38,1943-10-20 12:00:00,1943-10-28 12:00:00,993.4,-40.0,48.75
297,TC194308,Laurel,B,2,1943-11-15 12:00:00,965.86,-15.5,54.75,1943-11-08 06:00:00,995.38,-22.61,35.52,1943-11-13 12:00:00,996.32,-33.75,46.5,1943-11-13 18:00:00,994.35,-32.0,46.75,1943-11-07 12:00:00,997.57,-21.16,36.22,1943-11-07 12:00:00,1943-11-15 12:00:00,965.86,-15.5,54.75
298,TC194309,Micah,B,2,1943-11-18 00:00:00,966.64,-33.4,40.26,1943-11-18 00:00:00,966.64,-33.4,40.26,1943-11-19 18:00:00,984.46,-18.11,39.45,1943-11-20 00:00:00,987.29,-14.25,40.58,1943-11-12 06:00:00,998.16,-51.88,40.56,1943-11-13 12:00:00,1943-11-20 06:00:00,988.69,-10.75,41.75
299,TC194402,Peach,B,2,1944-04-26 00:00:00,983.37,-1.75,55.75,1944-04-19 06:00:00,993.74,-38.36,36.92,1944-04-22 12:00:00,998.94,-29.79,35.37,1944-04-23 06:00:00,998.28,-26.61,35.14,1944-04-19 00:00:00,995.13,-38.78,37.76,1944-04-19 00:00:00,1944-04-26 00:00:00,983.37,-1.75,55.75
300,TC194403,Ruben,B,0,1944-07-29 00:00:00,973.58,-93.92,29.34,1944-07-29 00:00:00,973.58,-93.92,29.34,,,,,,,,,1944-07-26 00:00:00,1010.05,-83.24,22.34,1944-07-26 00:00:00,1944-08-01 12:00:00,1007.38,-94.15,35.11
301,TC194404,Seldoen,B,0,1944-08-01 12:00:00,944.71,-88.8,24.39,1944-08-01 12:00:00,944.71,-88.8,24.39,,,,,,,,,1944-07-27 18:00:00,1008.74,-56.16,13.89,1944-07-27 18:00:00,1944-08-03 00:00:00,970.39,-96.19,29.33
302,TC194405,Vincent,B,2,1944-08-20 12:00:00,959.3,-94.54,28.65,1944-08-20 12:00:00,959.3,-94.54,28.65,1944-08-23 18:00:00,1001.43,-93.03,37.77,1944-08-24 06:00:00,998.79,-87.99,40.32,1944-08-12 06:00:00,1006.07,-77.05,15.66,1944-08-12 06:00:00,1944-08-26 12:00:00,1007.96,-84.75,38.75
303,TC194406,Zoe,B,1,1944-08-29 12:00:00,998.88,-96.26,20.93,1944-08-29 12:00:00,998.88,-96.26,20.93,1944-08-31 12:00:00,1005.35,-94.81,24.29,,,,,1944-08-26 00:00:00,1005.88,-91.07,23.74,1944-08-28 06:00:00,1944-09-01 00:00:00,1005.86,-96.8,24.21
304,TC194409,Alice,B,2,1944-09-03 12:00:00,987.08,-72.7,30.69,1944-09-03 12:00:00,987.08,-72.7,30.69,1944-09-09 00:00:00,995.05,-60.42,35.8,1944-09-09 12:00:00,988.85,-54.69,33.88,1944-08-29 12:00:00,1009.38,-58.69,19.38,1944-08-29 12:00:00,1944-09-11 00:00:00,990.07,-30.13,48.54
305,TC194410,Bruce,B,2,1944-09-21 06:00:00,915.01,-53.45,21.79,1944-09-21 06:00:00,915.01,-53.45,21.79,1944-09-24 00:00:00,947.81,-61.05,35.25,1944-09-26 06:00:00,974.7,-61.41,52.62,1944-09-15 18:00:00,1006.74,-15.17,18.8,1944-09-17 00:00:00,1944-09-26 06:00:00,974.7,-61.41,52.62
306,TC194411,Candy,B,0,1944-09-22 12:00:00,963.45,-97.07,24.14,1944-09-22 12:00:00,963.45,-97.07,24.14,,,,,,,,,1944-09-18 18:00:00,1007.12,-78.99,18.0,1944-09-18 18:00:00,1944-09-23 00:00:00,988.04,-98.13,24.76
307,TC194414,Dylan,B,0,1944-12-30 06:00:00,988.63,-27.78,31.97,1944-12-30 06:00:00,988.63,-27.78,31.97,,,,,,,,,1944-12-29 00:00:00,994.83,-23.08,34.78,1944-12-29 00:00:00,1945-01-01 18:00:00,1001.42,-21.25,30.75
308,TC194501,Emmelyn,B,2,1945-05-18 12:00:00,997.13,-79.49,32.61,1945-05-16 12:00:00,999.67,-86.4,22.99,1945-05-18 06:00:00,997.29,-80.61,31.21,1945-05-19 00:00:00,1004.6,-77.19,34.72,1945-05-14 00:00:00,1005.42,-86.59,17.65,1945-05-14 06:00:00,1945-05-21 00:00:00,1005.23,-66.75,44.75
309,TC194503,Gianluigi,B,1,1945-07-30 18:00:00,967.64,-62.27,39.92,1945-07-30 18:00:00,967.64,-62.27,39.92,1945-08-01 06:00:00,986.45,-45.0,51.07,,,,,1945-07-27 00:00:00,1004.48,-68.16,26.01,1945-07-27 00:00:00,1945-08-01 12:00:00,989.47,-41.76,53.33
310,TC194504,Ivy,B,0,1945-09-14 00:00:00,985.72,-86.43,28.88,1945-09-14 00:00:00,985.72,-86.43,28.88,,,,,,,,,1945-09-09 00:00:00,1010.44,-77.02,23.47,1945-09-09 00:00:00,1945-09-15 18:00:00,1015.31,-87.25,32.0
311,TC194506,Jeremy,B,1,1945-09-30 00:00:00,971.59,-65.46,27.36,1945-09-30 00:00:00,971.59,-65.46,27.36,1945-10-01 00:00:00,989.59,-61.21,30.8,,,,,1945-09-19 12:00:00,1011.57,-14.4,8.55,1945-09-22 12:00:00,1945-10-04 00:00:00,1005.25,-36.62,33.11
312,TC194509,Katie,B,2,1945-10-12 06:00:00,985.09,-21.71,40.19,1945-10-12 06:00:00,985.09,-21.71,40.19,1945-10-14 18:00:00,996.44,-16.8,41.04,1945-10-15 00:00:00,997.32,-14.93,41.57,1945-10-12 06:00:00,985.09,-21.71,40.19,1945-10-12 06:00:00,1945-10-15 12:00:00,998.53,-10.34,42.07
313,TC194511,Luigi,B,1,1945-11-05 00:00:00,969.29,-40.31,53.55,1945-11-03 06:00:00,992.47,-45.0,39.28,1945-11-03 12:00:00,986.2,-45.84,41.92,,,,,1945-10-31 18:00:00,999.39,-43.25,32.39,1945-11-01 06:00:00,1945-11-05 06:00:00,970.43,-37.95,55.07
314,TC194601,Michelle,B,2,1946-01-20 18:00:00,990.02,-35.75,41.5,1946-01-19 18:00:00,997.29,-43.09,33.98,1946-01-20 00:00:00,995.21,-42.17,35.48,1946-01-20 06:00:00,993.85,-40.79,36.66,1946-01-17 12:00:00,1008.62,-42.49,29.47,1946-01-17 12:00:00,1946-01-20 18:00:00,990.02,-35.75,41.5
315,TC194602,Phil,B,2,1946-02-10 06:00:00,979.99,-46.94,32.05,1946-02-10 06:00:00,979.99,-46.94,32.05,1946-02-12 00:00:00,1006.43,-36.16,47.06,1946-02-12 06:00:00,1008.4,-30.81,48.66,1946-02-04 18:00:00,1007.92,-43.81,27.83,1946-02-04 18:00:00,1946-02-13 18:00:00,1017.49,-8.5,46.75
316,TC194603,Risa,B,0,1946-03-31 00:00:00,997.26,-66.65,26.27,1946-03-31 00:00:00,997.26,-66.65,26.27,,,,,,,,,1946-03-30 12:00:00,1002.74,-64.54,24.6,1946-03-30 12:00:00,1946-04-02 18:00:00,1003.78,-68.36,31.3
317,TC194606,Sergio,B,2,1946-08-17 12:00:00,914.56,-74.24,28.47,1946-08-17 12:00:00,914.56,-74.24,28.47,1946-08-21 00:00:00,1000.34,-77.13,43.21,1946-08-21 00:00:00,1000.34,-77.13,43.21,1946-08-09 06:00:00,1005.81,-23.43,13.7,1946-08-09 06:00:00,1946-08-24 18:00:00,1014.63,-52.25,46.25
318,TC194608,Vivianne,B,2,1946-09-22 18:00:00,934.21,-44.97,30.15,1946-09-22 18:00:00,934.21,-44.97,30.15,1946-09-23 12:00:00,962.58,-36.36,31.89,1946-09-25 06:00:00,994.21,-16.25,35.0,1946-09-13 00:00:00,1006.6,-15.34,11.22,1946-09-14 18:00:00,1946-09-26 06:00:00,1008.17,-5.75,39.25
319,TC194611,Zack,B,1,1946-10-16 18:00:00,945.18,-24.92,39.14,1946-10-07 12:00:00,972.41,-67.52,21.95,1946-10-09 06:00:00,988.34,-66.28,24.71,,,,,1946-09-30 00:00:00,1009.86,-40.76,12.1,1946-09-30 00:00:00,1946-10-18 18:00:00,972.52,-13.24,46.4
320,TC194613,Alex,B,0,1946-11-25 18:00:00,962.65,-48.23,40.63,1946-11-25 18:00:00,962.65,-48.23,40.63,,,,,,,,,1946-11-24 12:00:00,989.34,-45.18,41.34,1946-11-25 00:00:00,1946-11-27 00:00:00,976.78,-34.26,37.61
321,TC194706,Beatrice,B,0,1947-11-08 18:00:00,994.83,-60.86,29.24,1947-11-08 18:00:00,994.83,-60.86,29.24,,,,,,,,,1947-11-07 00:00:00,1007.56,-64.26,25.74,1947-11-07 06:00:00,1947-11-09 12:00:00,997.11,-58.42,29.6
322,TC194707,Colin,B,0,1947-11-12 06:00:00,997.93,-48.69,32.19,1947-11-12 06:00:00,997.93,-48.69,32.19,,,,,,,,,1947-11-11 12:00:00,1003.57,-52.44,29.83,1947-11-11 18:00:00,1947-11-14 00:00:00,1009.76,-45.5,39.5
323,TC194801,Dawn,B,2,1948-01-30 18:00:00,997.34,-56.02,27.34,1948-01-30 18:00:00,997.34,-56.02,27.34,1948-02-02 12:00:00,1001.62,-51.82,35.3,1948-02-03 06:00:00,1000.77,-44.25,41.0,1948-01-30 06:00:00,1001.43,-54.77,26.85,1948-01-30 06:00:00,1948-02-04 18:00:00,1007.72,-20.25,48.5
324,TC194803,Ernest,B,2,1948-08-07 18:00:00,998.17,-59.77,23.1,1948-08-07 18:00:00,998.17,-59.77,23.1,1948-08-12 00:00:00,1008.0,-61.88,42.09,1948-08-13 00:00:00,1006.79,-52.5,50.0,1948-07-31 00:00:00,1008.89,-26.27,9.69,1948-08-05 00:00:00,1948-08-13 18:00:00,1003.12,-40.5,54.0
325,TC194805,Flavia,B,1,1948-09-20 12:00:00,941.05,-44.34,20.11,1948-09-20 12:00:00,941.05,-44.34,20.11,1948-09-26 06:00:00,970.25,-35.37,41.29,,,,,1948-09-11 00:00:00,1006.9,-19.99,11.57,1948-09-12 00:00:00,1948-09-27 12:00:00,947.07,-23.17,54.12
326,TC194806,Harrison,B,2,1948-10-07 06:00:00,947.16,-31.45,29.39,1948-10-07 06:00:00,947.16,-31.45,29.39,1948-10-11 06:00:00,994.2,-26.52,40.91,1948-10-12 12:00:00,1008.91,-12.75,42.25,1948-09-30 18:00:00,1012.63,-40.69,38.97,1948-10-01 12:00:00,1948-10-14 12:00:00,1018.28,-8.25,35.5
327,TC194808,Janet,B,1,1948-10-31 12:00:00,998.55,-61.93,26.05,1948-10-31 12:00:00,998.55,-61.93,26.05,1948-11-05 12:00:00,1008.8,-82.5,28.25,,,,,1948-10-31 12:00:00,998.55,-61.93,26.05,1948-10-31 12:00:00,1948-11-06 00:00:00,1008.87,-81.0,27.25
328,TC194902,Kinen,B,1,1949-08-04 12:00:00,943.97,-49.76,28.48,1949-08-04 12:00:00,943.97,-49.76,28.48,1949-08-17 18:00:00,989.25,-15.81,41.6,,,,,1949-07-28 06:00:00,1005.55,-14.35,10.21,1949-07-28 18:00:00,1949-08-20 00:00:00,1011.93,-7.5,45.25
329,TC194903,Lydia,B,0,1949-08-27 06:00:00,990.97,-91.12,11.49,1949-08-27 06:00:00,990.97,-91.12,11.49,,,,,,,,,1949-08-24 12:00:00,1008.79,-76.63,10.96,1949-08-24 12:00:00,1949-08-28 06:00:00,996.28,-95.32,12.73
330,TC194904,Mario,B,1,1949-10-23 18:00:00,925.96,-82.8,19.27,1949-10-23 18:00:00,925.96,-82.8,19.27,1949-10-25 12:00:00,1000.58,-79.13,22.41,,,,,1949-10-18 18:00:00,1007.43,-76.48,11.79,1949-10-19 06:00:00,1949-11-02 06:00:00,1010.36,-90.0,20.25
331,TC194905,Nicole,B,0,1949-10-28 18:00:00,986.64,-60.92,34.68,1949-10-28 18:00:00,986.64,-60.92,34.68,,,,,,,,,1949-10-24 06:00:00,998.63,-57.85,31.6,1949-10-24 06:00:00,1949-11-02 18:00:00,1002.03,-55.5,40.25
332,TC194906,Quinn,B,1,1949-11-11 18:00:00,946.88,-33.56,27.82,1949-11-11 18:00:00,946.88,-33.56,27.82,1949-11-14 00:00:00,972.55,-27.48,27.41,,,,,1949-11-06 18:00:00,1006.72,-36.73,27.77,1949-11-06 18:00:00,1949-11-15 12:00:00,967.91,-9.74,37.52
333,TC194907,Stephanie,B,2,1949-11-17 12:00:00,977.22,-75.76,17.44,1949-11-17 12:00:00,977.22,-75.76,17.44,1949-11-20 12:00:00,1005.59,-67.75,26.5,1949-11-21 00:00:00,1006.92,-65.75,27.5,1949-11-14 18:00:00,1005.46,-79.53,12.18,1949-11-15 06:00:00,1949-11-24 12:00:00,1019.46,-51.25,30.75
334,TC194908,Tony,B,1,1949-11-23 18:00:00,976.8,-39.57,31.24,1949-11-23 18:00:00,976.8,-39.57,31.24,1949-11-24 12:00:00,981.67,-40.21,29.48,,,,,1949-11-18 12:00:00,1005.55,-34.11,30.31,1949-11-18 12:00:00,1949-11-26 12:00:00,1005.69,-46.5,30.0
335,TC195001,Winnie,B,1,1950-01-08 06:00:00,952.57,-51.47,41.51,1950-01-08 06:00:00,952.57,-51.47,41.51,1950-01-10 00:00:00,978.48,-46.31,44.33,,,,,1950-01-04 06:00:00,1013.47,-75.64,26.08,1950-01-07 06:00:00,1950-01-10 18:00:00,986.39,-41.6,43.04
336,TC195002,Audrey,B,2,1950-05-14 12:00:00,982.29,-35.89,39.01,1950-05-14 12:00:00,982.29,-35.89,39.01,1950-05-16 18:00:00,1001.45,-25.0,47.0,1950-05-17 12:00:00,1007.2,-27.75,52.0,1950-05-13 18:00:00,983.97,-39.14,41.4,1950-05-13 18:00:00,1950-05-18 00:00:00,1010.65,-30.75,55.25
337,TC195004,Brandon,B,2,1950-08-17 06:00:00,950.86,-65.97,34.48,1950-08-17 06:00:00,950.86,-65.97,34.48,1950-08-17 12:00:00,951.21,-65.89,36.07,1950-08-18 18:00:00,987.36,-62.55,45.92,1950-08-12 18:00:00,1008.43,-57.93,22.73,1950-08-12 18:00:00,1950-08-19 12:00:00,991.67,-51.0,52.0
338,TC195005,Christine,B,2,1950-09-07 06:00:00,960.13,-50.67,37.15,1950-09-06 12:00:00,962.47,-56.92,35.68,1950-09-06 18:00:00,960.99,-54.84,36.34,1950-09-10 00:00:00,988.46,-24.57,50.88,1950-08-23 06:00:00,1002.72,-26.4,9.42,1950-08-23 06:00:00,1950-09-10 12:00:00,991.02,-14.25,56.5
339,TC195006,David,B,1,1950-09-07 06:00:00,881.4,-66.17,22.76,1950-09-07 06:00:00,881.4,-66.17,22.76,1950-09-12 06:00:00,962.47,-73.86,40.1,,,,,1950-08-29 12:00:00,1010.56,-23.76,11.32,1950-08-30 00:00:00,1950-09-12 18:00:00,983.95,-72.68,45.32
340,TC195007,Elyse,B,2,1950-09-12 06:00:00,940.87,-52.43,28.16,1950-09-12 06:00:00,940.87,-52.43,28.16,1950-09-17 12:00:00,969.86,-49.94,40.86,1950-09-20 18:00:00,974.02,-14.0,52.0,1950-09-03 18:00:00,1008.12,-20.09,13.82,1950-09-05 00:00:00,1950-09-21 00:00:00,975.42,-13.25,54.5
341,TC195008,Frederick,B,1,1950-09-26 18:00:00,967.38,-19.56,20.31,1950-09-26 18:00:00,967.38,-19.56,20.31,1950-10-02 12:00:00,1012.61,-32.0,22.75,,,,,1950-09-23 18:00:00,1003.66,-7.42,15.16,1950-09-23 18:00:00,1950-10-03 18:00:00,1012.08,-33.5,20.75
342,TC195009,Hope,B,2,1950-10-08 18:00:00,948.26,-57.85,39.06,1950-10-08 18:00:00,948.26,-57.85,39.06,1950-10-10 00:00:00,978.26,-54.97,47.07,1950-10-10 06:00:00,989.46,-53.26,47.84,1950-10-03 00:00:00,1009.37,-60.58,21.81,1950-10-03 00:00:00,1950-10-12 00:00:00,999.72,-34.5,43.25
343,TC195010,Jacob,B,2,1950-10-25 06:00:00,975.57,-79.78,23.25,1950-10-25 06:00:00,975.57,-79.78,23.25,1950-10-28 06:00:00,1004.02,-81.21,23.79,1950-10-28 18:00:00,1006.47,-79.47,24.67,1950-10-14 00:00:00,1006.44,-14.56,12.72,1950-10-14 12:00:00,1950-10-29 00:00:00,1006.37,-78.75,24.5
344,TC195102,Katrina,B,0,1951-06-30 18:00:00,962.4,-97.21,26.18,1951-06-30 18:00:00,962.4,-97.21,26.18,,,,,,,,,1951-06-28 12:00:00,1005.2,-93.97,20.45,1951-06-28 12:00:00,1951-07-01 12:00:00,989.95,-99.37,27.75
345,TC195104,Luke,B,2,1951-07-29 00:00:00,984.22,-64.52,39.97,1951-07-28 06:00:00,999.03,-70.52,38.06,1951-07-28 12:00:00,993.53,-69.03,38.5,1951-07-31 12:00:00,995.7,-38.0,45.25,1951-07-25 18:00:00,1009.84,-78.45,31.43,1951-07-25 18:00:00,1951-08-04 12:00:00,1001.68,-2.75,49.25
346,TC195105,Maho,B,1,1951-09-04 06:00:00,950.0,-59.16,29.24,1951-09-04 06:00:00,950.0,-59.16,29.24,1951-09-10 00:00:00,996.24,-38.8,47.03,,,,,1951-08-27 00:00:00,1009.76,-38.1,10.39,1951-08-27 00:00:00,1951-09-11 00:00:00,990.53,-32.0,54.25
347,TC195106,Nicholas,B,1,1951-09-02 12:00:00,999.28,-97.71,22.04,1951-09-02 12:00:00,999.28,-97.71,22.04,1951-09-03 18:00:00,1011.36,-97.25,22.75,,,,,1951-08-31 00:00:00,1006.55,-87.11,19.01,1951-08-31 00:00:00,1951-09-05 06:00:00,1012.29,-97.5,25.75
348,TC195107,Queenie,B,0,1951-09-06 18:00:00,998.29,-24.0,20.27,1951-09-06 18:00:00,998.29,-24.0,20.27,,,,,,,,,1951-09-04 18:00:00,1001.4,-15.56,17.52,1951-09-05 12:00:00,1951-09-08 18:00:00,1005.17,-26.61,26.62
349,TC195109,Samson,B,1,1951-10-01 18:00:00,984.26,-50.61,39.83,1951-09-27 18:00:00,994.7,-56.21,38.29,1951-09-28 12:00:00,995.29,-53.24,40.52,,,,,1951-09-24 18:00:00,1007.95,-59.94,30.82,1951-09-24 18:00:00,1951-10-02 18:00:00,997.37,-49.06,45.9
350,TC195202,Tiffany,B,0,1952-04-13 12:00:00,979.09,-42.68,44.83,1952-04-13 12:00:00,979.09,-42.68,44.83,,,,,,,,,1952-04-10 00:00:00,997.94,-35.2,38.11,1952-04-10 00:00:00,1952-04-14 00:00:00,989.36,-46.0,42.5
351,TC195203,William,B,2,1952-05-27 06:00:00,985.43,-57.25,43.75,1952-05-22 00:00:00,992.7,-83.4,28.23,1952-05-25 18:00:00,1002.11,-74.5,38.47,1952-05-26 06:00:00,1000.09,-69.99,39.56,1952-05-19 06:00:00,1003.9,-80.28,21.94,1952-05-19 06:00:00,1952-05-27 06:00:00,985.43,-57.25,43.75
352,TC195205,Andy,B,0,1952-06-14 18:00:00,969.26,-97.07,23.84,1952-06-14 18:00:00,969.26,-97.07,23.84,,,,,,,,,1952-06-08 06:00:00,1006.08,-88.64,25.19,1952-06-08 06:00:00,1952-06-15 06:00:00,984.81,-98.01,23.02
353,TC195207,Bonnie,B,2,1952-09-05 00:00:00,990.55,-24.0,48.0,1952-09-03 00:00:00,992.44,-57.08,44.07,1952-09-03 12:00:00,997.81,-51.89,47.23,1952-09-04 00:00:00,997.93,-44.12,48.25,1952-08-30 18:00:00,1012.66,-65.31,29.92,1952-08-30 18:00:00,1952-09-05 00:00:00,990.55,-24.0,48.0
354,TC195209,Charlie,B,2,1952-09-14 18:00:00,908.07,-69.17,28.75,1952-09-14 18:00:00,908.07,-69.17,28.75,1952-09-17 00:00:00,923.77,-66.69,37.05,1952-09-19 00:00:00,980.45,-67.8,47.8,1952-09-04 06:00:00,1005.38,-26.33,11.77,1952-09-05 00:00:00,1952-09-19 12:00:00,994.35,-64.11,48.14
355,TC195210,Demi,B,1,1952-10-08 12:00:00,960.64,-40.85,50.38,1952-10-07 18:00:00,970.01,-44.82,41.23,1952-10-08 00:00:00,967.34,-43.24,43.94,,,,,1952-09-29 00:00:00,993.34,-58.32,37.62,1952-09-29 00:00:00,1952-10-09 00:00:00,962.45,-40.25,55.89
356,TC195211,Erik,B,2,1952-10-20 06:00:00,971.04,-80.25,24.75,1952-10-20 06:00:00,971.04,-80.25,24.75,1952-10-20 12:00:00,984.39,-78.36,26.45,1952-10-21 06:00:00,981.92,-73.81,36.57,1952-10-06 06:00:00,1008.08,-77.2,8.82,1952-10-08 06:00:00,1952-10-21 06:00:00,981.92,-73.81,36.57
357,TC195212,Frances,B,0,1952-10-12 12:00:00,992.88,-95.72,22.57,1952-10-12 12:00:00,992.88,-95.72,22.57,,,,,,,,,1952-10-09 18:00:00,1004.04,-91.21,23.77,1952-10-09 18:00:00,1952-10-14 12:00:00,1009.33,-97.25,20.75
358,TC195213,Hubert,B,1,1952-10-19 12:00:00,988.49,-64.97,25.23,1952-10-19 12:00:00,988.49,-64.97,25.23,1952-10-23 12:00:00,1007.22,-56.0,25.0,,,,,1952-10-17 06:00:00,1003.89,-78.54,19.62,1952-10-17 06:00:00,1952-10-23 12:00:00,1007.22,-56.0,25.0
359,TC195214,Julie,B,2,1952-10-30 18:00:00,990.69,-14.45,39.54,1952-10-30 18:00:00,990.69,-14.45,39.54,1952-11-01 00:00:00,1003.37,-11.5,36.75,1952-11-01 06:00:00,1005.0,-9.75,36.25,1952-10-28 12:00:00,992.77,-22.17,37.37,1952-10-30 00:00:00,1952-11-01 18:00:00,1010.42,-7.0,35.75
360,TC195215,Keith,B,2,1952-11-04 12:00:00,948.63,-78.39,23.63,1952-11-04 12:00:00,948.63,-78.39,23.63,1952-11-05 12:00:00,975.0,-76.54,28.47,1952-11-08 00:00:00,987.07,-68.46,40.65,1952-10-29 00:00:00,1006.59,-75.33,12.8,1952-10-30 00:00:00,1952-11-09 00:00:00,991.13,-52.56,49.43
361,TC195218,Lily,B,1,1952-11-28 06:00:00,959.29,-30.99,47.96,1952-11-27 06:00:00,976.61,-41.54,33.36,1952-11-27 12:00:00,974.34,-39.26,35.58,,,,,1952-11-23 00:00:00,1000.04,-53.75,26.94,1952-11-23 18:00:00,1952-11-28 18:00:00,967.89,-22.0,59.0
362,TC195302,Marc,B,0,1953-04-03 06:00:00,966.75,-46.03,39.74,1953-04-03 06:00:00,966.75,-46.03,39.74,,,,,,,,,1953-04-02 18:00:00,972.23,-50.37,39.47,1953-04-02 18:00:00,1953-04-10 00:00:00,991.12,-30.25,52.0
363,TC195303,Noelle,B,0,1953-07-17 18:00:00,941.62,-96.61,26.59,1953-07-17 18:00:00,941.62,-96.61,26.59,,,,,,,,,1953-07-12 00:00:00,1011.85,-69.85,22.92,1953-07-12 00:00:00,1953-07-18 06:00:00,982.82,-98.51,26.54
364,TC195305,Rocco,B,2,1953-08-21 06:00:00,938.04,-54.74,36.61,1953-08-21 06:00:00,938.04,-54.74,36.61,1953-08-23 00:00:00,963.02,-53.12,44.42,1953-08-23 18:00:00,983.61,-45.87,49.03,1953-08-08 12:00:00,1008.79,-28.75,12.29,1953-08-08 12:00:00,1953-08-24 06:00:00,990.42,-35.79,50.44
365,TC195306,Shannon,B,2,1953-09-05 00:00:00,945.45,-70.88,36.91,1953-09-05 00:00:00,945.45,-70.88,36.91,1953-09-07 00:00:00,979.33,-64.6,47.44,1953-09-07 00:00:00,979.33,-64.6,47.44,1953-08-19 00:00:00,1012.62,-25.6,11.86,1953-08-20 06:00:00,1953-09-07 00:00:00,979.33,-64.6,47.44
366,TC195307,Thomas,B,1,1953-09-06 18:00:00,904.24,-65.82,21.21,1953-09-06 18:00:00,904.24,-65.82,21.21,1953-09-13 12:00:00,984.52,-66.65,42.01,,,,,1953-08-29 18:00:00,1007.82,-29.18,13.65,1953-08-30 06:00:00,1953-09-14 18:00:00,997.31,-60.48,43.09
367,TC195308,Wendy,B,1,1953-10-24 18:00:00,990.58,-65.37,35.05,1953-10-24 18:00:00,990.58,-65.37,35.05,1953-10-25 00:00:00,991.44,-62.95,38.08,,,,,1953-10-18 18:00:00,1001.68,-60.98,22.45,1953-10-18 18:00:00,1953-10-25 18:00:00,1004.15,-70.2,33.61
368,TC195310,Anna,B,0,1953-12-01 18:00:00,984.61,-29.82,44.02,1953-12-01 18:00:00,984.61,-29.82,44.02,,,,,,,,,1953-11-29 00:00:00,988.7,-43.23,37.48,1953-11-29 00:00:00,1953-12-05 12:00:00,1004.65,-43.25,25.5
369,TC195401,Bryan,B,2,1954-03-17 06:00:00,977.2,-50.18,39.17,1954-03-17 06:00:00,977.2,-50.18,39.17,1954-03-20 12:00:00,985.82,-19.18,43.72,1954-03-21 12:00:00,999.37,-10.5,44.5,1954-03-16 12:00:00,988.14,-56.15,38.74,1954-03-16 12:00:00,1954-03-21 18:00:00,1001.51,-8.0,45.75
370,TC195402,Cissy,B,2,1954-05-29 00:00:00,995.78,-90.62,25.37,1954-05-29 00:00:00,995.78,-90.62,25.37,1954-05-31 06:00:00,1004.65,-86.23,27.5,1954-05-31 18:00:00,1003.94,-81.29,29.96,1954-05-25 06:00:00,1007.25,-87.96,20.11,1954-05-25 06:00:00,1954-06-01 06:00:00,1001.26,-76.0,31.0
371,TC195406,Dominic,B,0,1954-08-13 00:00:00,967.82,-97.08,26.03,1954-08-13 00:00:00,967.82,-97.08,26.03,,,,,,,,,1954-07-31 12:00:00,1008.34,-32.09,10.86,1954-07-31 12:00:00,1954-08-13 06:00:00,979.89,-98.02,26.01
372,TC195410,Esther,B,1,1954-10-15 06:00:00,949.54,-52.55,19.69,1954-10-15 06:00:00,949.54,-52.55,19.69,1954-10-22 00:00:00,975.06,-31.79,50.59,,,,,1954-10-07 06:00:00,1004.66,-14.48,7.8,1954-10-09 12:00:00,1954-10-22 12:00:00,969.45,-40.34,56.91
373,TC195412,Frank,B,2,1954-12-17 18:00:00,987.33,-22.98,35.94,1954-12-17 18:00:00,987.33,-22.98,35.94,1954-12-19 06:00:00,1002.9,-33.5,33.5,1954-12-19 12:00:00,1007.31,-35.25,32.0,1954-12-15 06:00:00,987.96,-28.66,42.64,1954-12-15 06:00:00,1954-12-20 18:00:00,1015.7,-41.25,24.0
374,TC195502,Helena,B,1,1955-04-28 18:00:00,975.88,-66.71,39.26,1955-04-28 18:00:00,975.88,-66.71,39.26,1955-04-30 06:00:00,991.05,-54.18,47.92,,,,,1955-04-26 00:00:00,1002.36,-86.27,35.27,1955-04-28 00:00:00,1955-05-01 00:00:00,994.21,-50.25,54.5
375,TC195504,John,B,1,1955-08-22 00:00:00,979.13,-88.78,29.23,1955-08-16 12:00:00,996.34,-59.38,17.91,1955-08-16 18:00:00,1003.46,-60.35,18.01,,,,,1955-08-12 18:00:00,1010.66,-44.61,11.15,1955-08-12 18:00:00,1955-08-23 18:00:00,1006.41,-99.0,26.75
376,TC195505,Kannas,B,0,1955-08-16 12:00:00,948.95,-97.41,24.23,1955-08-16 12:00:00,948.95,-97.41,24.23,,,,,,,,,1955-08-14 12:00:00,1002.79,-88.59,22.64,1955-08-14 12:00:00,1955-08-16 18:00:00,979.9,-98.46,24.35
377,TC195506,Lomy,B,0,1955-08-21 18:00:00,986.03,-94.68,28.8,1955-08-21 18:00:00,986.03,-94.68,28.8,,,,,,,,,1955-08-17 12:00:00,1006.4,-77.01,16.56,1955-08-19 00:00:00,1955-08-22 00:00:00,990.36,-95.68,28.79
378,TC195507,Mandy,B,2,1955-08-28 06:00:00,907.14,-69.48,23.4,1955-08-28 06:00:00,907.14,-69.48,23.4,1955-09-03 06:00:00,1003.29,-81.57,43.26,1955-09-03 06:00:00,1003.29,-81.57,43.26,1955-08-23 12:00:00,1004.77,-42.24,11.79,1955-08-23 12:00:00,1955-09-04 18:00:00,987.45,-61.25,50.75
379,TC195508,Nathan,B,1,1955-09-16 18:00:00,972.34,-38.22,36.62,1955-09-13 18:00:00,989.92,-51.46,30.25,1955-09-14 00:00:00,984.23,-50.72,31.39,,,,,1955-09-05 12:00:00,1008.27,-18.18,11.63,1955-09-07 06:00:00,1955-09-18 06:00:00,1003.9,-39.38,39.85
380,TC195509,Rosalina,B,1,1955-09-18 18:00:00,959.27,-36.81,35.1,1955-09-18 18:00:00,959.27,-36.81,35.1,1955-09-22 06:00:00,983.04,-18.13,41.92,,,,,1955-09-10 18:00:00,1007.57,-25.13,9.45,1955-09-12 00:00:00,1955-09-23 18:00:00,998.44,-7.04,48.73
381,TC195510,Samuel,B,0,1955-10-01 12:00:00,987.77,-97.64,13.93,1955-10-01 12:00:00,987.77,-97.64,13.93,,,,,,,,,1955-09-25 12:00:00,1004.74,-81.97,12.06,1955-09-25 12:00:00,1955-10-01 18:00:00,993.25,-98.7,14.09
382,TC195511,Tatiana,B,2,1955-10-11 06:00:00,987.89,-80.08,20.76,1955-10-11 06:00:00,987.89,-80.08,20.76,1955-10-12 18:00:00,998.37,-70.17,32.3,1955-10-13 00:00:00,1000.1,-68.88,34.91,1955-10-08 18:00:00,1006.92,-83.19,13.05,1955-10-08 18:00:00,1955-10-14 06:00:00,1003.91,-53.0,49.25
383,TC195605,Wilson,B,1,1956-08-14 06:00:00,986.67,-50.3,40.52,1956-08-14 06:00:00,986.67,-50.3,40.52,1956-08-16 06:00:00,1006.48,-40.75,48.94,,,,,1956-08-09 00:00:00,1010.71,-64.79,36.01,1956-08-09 00:00:00,1956-08-16 06:00:00,1006.48,-40.75,48.94
384,TC195606,Aidan,B,2,1956-08-17 18:00:00,964.32,-56.86,41.4,1956-08-16 12:00:00,974.01,-64.15,37.88,1956-08-16 18:00:00,969.5,-62.83,38.53,1956-08-19 12:00:00,986.86,-42.99,49.98,1956-08-14 00:00:00,1007.95,-76.25,33.01,1956-08-14 00:00:00,1956-08-19 12:00:00,986.86,-42.99,49.98
385,TC195607,Bella,B,2,1956-08-27 12:00:00,932.86,-62.49,39.82,1956-08-27 00:00:00,936.72,-64.17,36.58,1956-08-27 06:00:00,937.87,-63.39,38.26,1956-08-29 18:00:00,945.62,-36.32,58.7,1956-08-21 00:00:00,1008.16,-48.7,16.38,1956-08-21 06:00:00,1956-08-30 00:00:00,950.54,-32.95,59.76
386,TC195608,Carson,B,0,1956-09-05 12:00:00,868.51,-93.98,25.54,1956-09-05 12:00:00,868.51,-93.98,25.54,,,,,,,,,1956-08-25 12:00:00,1008.17,-36.3,13.83,1956-08-27 00:00:00,1956-09-07 00:00:00,974.15,-99.27,29.42
387,TC195609,Dorcas,B,2,1956-09-17 12:00:00,986.93,-90.34,23.9,1956-09-17 12:00:00,986.93,-90.34,23.9,1956-09-19 18:00:00,1004.47,-87.22,30.3,1956-09-20 00:00:00,1006.27,-86.57,31.27,1956-09-12 00:00:00,1011.41,-90.84,28.02,1956-09-12 00:00:00,1956-09-21 00:00:00,1009.38,-84.75,35.5
388,TC195612,Erling,B,1,1956-09-23 00:00:00,968.6,-61.1,39.83,1956-09-21 12:00:00,978.47,-68.58,30.26,1956-09-22 06:00:00,982.12,-66.66,33.45,,,,,1956-09-18 06:00:00,1004.46,-77.58,29.19,1956-09-18 06:00:00,1956-09-23 18:00:00,978.26,-49.44,47.93
389,TC195614,Grace,B,2,1956-10-04 12:00:00,995.73,-85.14,18.24,1956-10-04 12:00:00,995.73,-85.14,18.24,1956-10-05 06:00:00,999.98,-82.59,20.61,1956-10-06 00:00:00,1004.27,-80.25,24.75,1956-09-25 12:00:00,1005.36,-80.67,14.74,1956-09-25 12:00:00,1956-10-07 18:00:00,1004.17,-67.25,36.75
