,Code,Name,Orig Code,Ensemble,Trans Type,Peak Time,Peak SLP,Peak Lon,Peak Lat,Trop Peak Time,Trop Begin Time,Trop Peak SLP,Trop Peak Lon,Trop Peak Lat,Genesis Time,Genesis SLP,Genesis Lon,Genesis Lat,Final Time,Final SLP,Final Lon,Final Lat,Trop Begin SLP,Trop Begin Lon,Trop Begin Lat,ET Begin Time,ET Begin SLP,ET Begin Lon,ET Begin Lat,ET Complete Time,ET Complete SLP,ET Complete Lon,ET Complete Lat
0,TC190001,Alex,0024,A,2,1900-08-31 12:00:00,998.93,-42.4,41.54,1900-08-27 06:00:00,1900-08-25 00:00:00,999.11,-68.55,31.19,1900-08-25 00:00:00,1010.17,-74.91,22.04,1900-09-02 06:00:00,1010.34,-25.5,46.0,1010.17,-74.91,22.04,1900-08-28 00:00:00,1001.52,-65.34,32.7,1900-09-01 00:00:00,1006.23,-37.0,42.75
1,TC190002,Beatrice,0026,A,2,1900-09-03 06:00:00,933.33,-53.61,30.15,1900-09-03 06:00:00,1900-08-29 06:00:00,933.33,-53.61,30.15,1900-08-26 12:00:00,1003.52,-7.32,15.81,1900-09-10 06:00:00,978.17,-16.15,55.43,1003.29,-27.73,17.28,1900-09-04 06:00:00,943.55,-50.41,35.84,1900-09-10 06:00:00,978.17,-16.15,55.43
2,TC190003,Colin,0028,A,1,1900-09-09 12:00:00,972.24,-51.89,48.03,1900-09-07 00:00:00,1900-09-04 18:00:00,993.64,-64.5,40.87,1900-09-04 12:00:00,998.46,-68.21,35.95,1900-09-11 06:00:00,996.61,-38.5,46.25,997.93,-67.63,36.53,1900-09-08 06:00:00,993.82,-60.67,40.65,,,,
3,TC190004,Dawn,0029,A,1,1900-09-16 06:00:00,988.35,-49.1,43.53,1900-09-14 18:00:00,1900-09-11 12:00:00,997.38,-56.81,32.09,1900-09-11 12:00:00,1009.35,-46.84,17.12,1900-09-16 06:00:00,988.35,-49.1,43.53,1009.35,-46.84,17.12,1900-09-15 06:00:00,993.79,-54.45,35.06,,,,
4,TC190006,Ernest,0038,A,2,1900-11-22 18:00:00,991.58,-36.06,34.02,1900-11-22 18:00:00,1900-11-21 12:00:00,991.58,-36.06,34.02,1900-11-21 12:00:00,1006.64,-35.72,24.28,1900-11-25 12:00:00,998.31,-47.52,55.48,1006.64,-35.72,24.28,1900-11-24 18:00:00,998.89,-42.28,44.18,1900-11-25 00:00:00,998.75,-42.63,48.24
5,TC190007,Flavia,0040,A,1,1900-12-05 06:00:00,955.88,-25.59,20.99,1900-12-05 06:00:00,1900-12-01 06:00:00,955.88,-25.59,20.99,1900-12-01 06:00:00,1001.05,-27.41,29.25,1900-12-11 00:00:00,1012.5,-26.25,26.75,1001.05,-27.41,29.25,1900-12-11 00:00:00,1012.5,-26.25,26.75,,,,
6,TC190101,Harrison,0071,A,1,1901-09-02 18:00:00,993.83,-77.4,31.94,1901-09-02 18:00:00,1901-08-31 18:00:00,993.83,-77.4,31.94,1901-08-31 18:00:00,1010.82,-79.01,26.91,1901-09-04 12:00:00,1011.87,-81.25,38.75,1010.82,-79.01,26.91,1901-09-04 00:00:00,1007.64,-82.59,37.74,,,,
7,TC190102,Janet,0075,A,0,1901-09-20 12:00:00,924.85,-65.79,29.2,1901-09-20 12:00:00,1901-09-17 00:00:00,924.85,-65.79,29.2,1901-09-17 00:00:00,1009.0,-58.98,20.7,1901-09-27 18:00:00,1011.63,-45.04,28.97,1009.0,-58.98,20.7,,,,,,,,
8,TC190103,Kinen,0079,A,2,1901-10-13 18:00:00,974.73,-35.58,40.53,1901-10-13 18:00:00,1901-10-10 06:00:00,974.73,-35.58,40.53,1901-10-09 00:00:00,1010.36,-42.7,28.55,1901-10-16 18:00:00,1009.48,-9.5,44.25,1000.39,-39.96,26.88,1901-10-15 06:00:00,984.17,-21.7,47.01,1901-10-16 00:00:00,999.49,-13.75,44.5
9,TC190201,Lydia,0097,A,0,1902-01-24 12:00:00,975.4,-72.99,22.91,1902-01-24 12:00:00,1902-01-17 00:00:00,975.4,-72.99,22.91,1902-01-17 00:00:00,1007.53,-61.49,23.91,1902-01-28 12:00:00,990.66,-73.25,20.25,1007.53,-61.49,23.91,,,,,,,,
10,TC190202,Mario,0100,A,2,1902-02-03 18:00:00,973.36,-28.79,33.46,1902-02-03 18:00:00,1902-01-30 06:00:00,973.36,-28.79,33.46,1902-01-30 06:00:00,999.74,-63.74,21.55,1902-02-07 06:00:00,997.91,-17.5,54.25,999.74,-63.74,21.55,1902-02-06 12:00:00,991.99,-22.84,47.13,1902-02-07 00:00:00,998.08,-21.25,51.41
11,TC190205,Nicole,0120,A,2,1902-08-17 06:00:00,903.29,-66.04,28.17,1902-08-17 06:00:00,1902-08-12 06:00:00,903.29,-66.04,28.17,1902-08-12 06:00:00,1008.83,-48.02,18.24,1902-08-22 18:00:00,974.72,-20.06,59.97,1008.83,-48.02,18.24,1902-08-20 00:00:00,952.77,-62.46,38.07,1902-08-21 06:00:00,968.29,-49.44,50.48
12,TC190206,Quinn,0124,A,2,1902-09-05 00:00:00,951.82,-53.32,42.13,1902-09-03 18:00:00,1902-08-25 06:00:00,957.33,-65.07,34.07,1902-08-23 18:00:00,1009.22,-28.68,10.98,1902-09-06 18:00:00,977.02,-19.23,58.42,1010.25,-36.41,13.2,1902-09-04 12:00:00,971.3,-59.24,38.07,1902-09-05 18:00:00,972.26,-39.48,53.67
13,TC190207,Stephanie,0128,A,0,1902-09-16 18:00:00,983.24,-66.68,37.96,1902-09-16 18:00:00,1902-09-11 00:00:00,983.24,-66.68,37.96,1902-09-11 00:00:00,1011.54,-73.25,24.28,1902-09-19 18:00:00,1007.19,-56.25,41.5,1011.54,-73.25,24.28,,,,,,,,
14,TC190301,Tony,0158,A,0,1903-04-04 06:00:00,996.98,-35.48,25.9,1903-04-04 06:00:00,1903-04-04 06:00:00,996.98,-35.48,25.9,1903-04-03 06:00:00,1004.98,-37.44,22.09,1903-04-07 18:00:00,1008.71,-45.0,30.25,996.98,-35.48,25.9,,,,,,,,
15,TC190302,Winnie,0159,A,0,1903-04-08 18:00:00,986.98,-66.52,30.58,1903-04-08 18:00:00,1903-04-05 18:00:00,986.98,-66.52,30.58,1903-04-05 00:00:00,1006.13,-66.91,23.85,1903-04-10 18:00:00,1005.24,-67.25,30.25,1002.4,-64.2,25.91,,,,,,,,
16,TC190303,Audrey,0161,A,0,1903-04-15 00:00:00,976.9,-60.56,30.26,1903-04-15 00:00:00,1903-04-11 06:00:00,976.9,-60.56,30.26,1903-04-11 06:00:00,1004.64,-67.45,29.13,1903-04-23 18:00:00,1010.1,-49.0,32.75,1004.64,-67.45,29.13,,,,,,,,
17,TC190304,Brandon,0165,A,0,1903-06-11 00:00:00,995.97,-66.44,39.65,1903-06-11 00:00:00,1903-06-01 00:00:00,995.97,-66.44,39.65,1903-06-01 00:00:00,1006.54,-80.59,13.33,1903-06-11 18:00:00,1002.08,-65.75,43.5,1006.54,-80.59,13.33,,,,,,,,
18,TC190305,Christine,0168,A,2,1903-07-15 06:00:00,931.32,-85.46,27.45,1903-07-15 06:00:00,1903-07-10 06:00:00,931.32,-85.46,27.45,1903-07-10 06:00:00,1011.27,-66.5,21.44,1903-07-20 06:00:00,999.48,-57.0,51.5,1011.27,-66.5,21.44,1903-07-19 12:00:00,1002.83,-68.32,42.57,1903-07-19 18:00:00,1002.24,-65.41,44.01
19,TC190306,David,0170,A,0,1903-08-09 06:00:00,962.59,-96.77,27.83,1903-08-09 06:00:00,1903-08-01 12:00:00,962.59,-96.77,27.83,1903-08-01 12:00:00,1009.28,-76.21,19.77,1903-08-09 18:00:00,989.61,-98.23,28.34,1009.28,-76.21,19.77,,,,,,,,
20,TC190307,Elyse,0171,A,2,1903-08-13 12:00:00,990.45,-53.0,44.0,1903-08-12 12:00:00,1903-08-07 00:00:00,991.47,-67.76,39.2,1903-08-07 00:00:00,1011.2,-80.63,30.48,1903-08-13 12:00:00,990.45,-53.0,44.0,1011.2,-80.63,30.48,1903-08-12 18:00:00,993.38,-64.75,39.75,1903-08-13 06:00:00,991.7,-56.25,42.5
21,TC190308,Frederick,0172,A,0,1903-08-13 18:00:00,993.89,-79.7,13.75,1903-08-13 18:00:00,1903-08-12 06:00:00,993.89,-79.7,13.75,1903-08-12 06:00:00,1007.75,-66.45,12.83,1903-08-16 06:00:00,1009.02,-90.86,17.39,1007.75,-66.45,12.83,,,,,,,,
22,TC190309,Hope,0175,A,2,1903-09-08 00:00:00,929.66,-77.98,30.55,1903-09-08 00:00:00,1903-09-01 12:00:00,929.66,-77.98,30.55,1903-09-01 12:00:00,1009.29,-58.77,21.05,1903-09-15 18:00:00,979.91,-58.77,57.7,1009.29,-58.77,21.05,1903-09-10 00:00:00,946.7,-77.42,33.15,1903-09-13 18:00:00,973.9,-59.62,48.55
23,TC190312,Jacob,0183,A,2,1903-10-20 00:00:00,939.47,-46.4,38.62,1903-10-19 06:00:00,1903-10-09 12:00:00,941.52,-48.35,35.79,1903-10-09 12:00:00,1007.71,-62.01,18.82,1903-10-22 18:00:00,992.77,-39.65,59.29,1007.71,-62.01,18.82,1903-10-19 12:00:00,940.99,-47.8,36.57,1903-10-21 18:00:00,966.39,-45.69,50.38
24,TC190401,Katrina,0201,A,1,1904-01-09 18:00:00,998.27,-31.26,35.73,1904-01-09 18:00:00,1904-01-08 06:00:00,998.27,-31.26,35.73,1904-01-08 06:00:00,999.31,-32.61,32.53,1904-01-13 18:00:00,1002.33,-25.25,44.75,999.31,-32.61,32.53,1904-01-13 00:00:00,1005.21,-28.33,39.09,,,,
25,TC190402,Luke,0213,A,2,1904-04-01 00:00:00,988.14,-50.91,42.96,1904-03-31 18:00:00,1904-03-27 12:00:00,988.82,-54.06,40.58,1904-03-27 12:00:00,994.34,-65.02,23.88,1904-04-02 06:00:00,1003.82,-28.5,42.0,994.34,-65.02,23.88,1904-04-01 00:00:00,988.14,-50.91,42.96,1904-04-01 06:00:00,989.17,-47.64,45.09
26,TC190407,Maho,0231,A,2,1904-08-04 00:00:00,946.6,-83.96,28.04,1904-08-04 00:00:00,1904-07-29 12:00:00,946.6,-83.96,28.04,1904-07-28 18:00:00,1012.07,-40.78,15.94,1904-08-11 06:00:00,1002.79,-45.25,48.0,1010.67,-48.93,16.61,1904-08-09 00:00:00,1010.47,-71.08,39.86,1904-08-10 00:00:00,1008.01,-62.84,43.17
27,TC190408,Nicholas,0232,A,2,1904-08-07 00:00:00,987.25,-11.5,51.0,1904-08-03 00:00:00,1904-07-29 06:00:00,987.44,-54.84,36.34,1904-07-29 06:00:00,1008.09,-65.63,34.42,1904-08-08 00:00:00,1003.91,7.5,50.25,1008.09,-65.63,34.42,1904-08-05 06:00:00,1002.53,-42.21,45.36,1904-08-06 00:00:00,1004.74,-30.75,48.25
28,TC190409,Queenie,0235,A,0,1904-08-16 00:00:00,982.58,-96.4,20.78,1904-08-16 00:00:00,1904-08-10 00:00:00,982.58,-96.4,20.78,1904-08-09 00:00:00,1009.59,-55.17,15.24,1904-08-18 00:00:00,1012.56,-97.0,20.5,1007.86,-63.77,16.57,,,,,,,,
29,TC190410,Samson,0236,A,2,1904-08-25 00:00:00,933.71,-60.72,27.57,1904-08-25 00:00:00,1904-08-18 12:00:00,933.71,-60.72,27.57,1904-08-18 12:00:00,1010.19,-45.43,16.94,1904-08-29 12:00:00,954.91,-17.75,55.0,1010.19,-45.43,16.94,1904-08-27 00:00:00,938.56,-58.19,37.45,1904-08-28 00:00:00,970.64,-51.61,48.33
30,TC190412,Tiffany,0239,A,2,1904-09-09 18:00:00,960.45,-47.21,39.94,1904-09-09 06:00:00,1904-09-06 06:00:00,960.48,-48.57,37.1,1904-09-06 06:00:00,1010.86,-44.27,30.63,1904-09-13 06:00:00,969.9,-5.25,54.0,1010.86,-44.27,30.63,1904-09-09 18:00:00,960.45,-47.21,39.94,1904-09-11 18:00:00,993.16,-25.75,45.25
31,TC190413,William,0240,A,0,1904-10-02 12:00:00,994.08,-62.17,22.43,1904-10-02 12:00:00,1904-09-23 00:00:00,994.08,-62.17,22.43,1904-09-23 00:00:00,1010.81,-43.0,8.13,1904-10-04 00:00:00,1003.19,-63.04,20.45,1010.81,-43.0,8.13,,,,,,,,
32,TC190414,Andy,0241,A,1,1904-10-07 12:00:00,966.52,-40.88,44.5,1904-10-07 12:00:00,1904-10-01 12:00:00,966.52,-40.88,44.5,1904-10-01 12:00:00,1012.07,-51.57,30.43,1904-10-10 00:00:00,991.26,-48.61,55.6,1012.07,-51.57,30.43,1904-10-09 12:00:00,986.84,-45.8,52.07,,,,
33,TC190415,Bonnie,0242,A,2,1904-10-15 06:00:00,956.95,-38.53,48.09,1904-10-08 06:00:00,1904-10-05 18:00:00,996.41,-72.98,25.89,1904-10-05 18:00:00,1006.0,-68.93,20.84,1904-10-17 00:00:00,1010.9,-28.5,41.0,1006.0,-68.93,20.84,1904-10-08 12:00:00,996.41,-72.19,26.16,1904-10-16 12:00:00,995.73,-33.15,44.92
34,TC190417,Charlie,0245,A,1,1904-10-23 06:00:00,982.14,-46.47,31.2,1904-10-23 06:00:00,1904-10-22 00:00:00,982.14,-46.47,31.2,1904-10-20 00:00:00,1006.36,-64.18,28.33,1904-10-27 18:00:00,1012.09,-42.25,31.5,999.32,-52.34,29.64,1904-10-26 18:00:00,1010.75,-45.5,31.0,,,,
35,TC190501,Demi,0258,A,0,1905-01-11 18:00:00,981.84,-21.85,33.68,1905-01-11 18:00:00,1905-01-11 06:00:00,981.84,-21.85,33.68,1905-01-11 06:00:00,989.67,-20.22,33.49,1905-01-15 00:00:00,1012.73,-18.75,33.75,989.67,-20.22,33.49,,,,,,,,
36,TC190503,Erik,0270,A,0,1905-04-26 06:00:00,965.79,-42.84,45.18,1905-04-26 06:00:00,1905-04-25 18:00:00,965.79,-42.84,45.18,1905-04-24 12:00:00,987.34,-55.27,39.08,1905-04-27 18:00:00,973.42,-38.38,52.6,972.25,-45.56,44.88,,,,,,,,
37,TC190509,Frances,0288,A,2,1905-09-10 00:00:00,922.7,-61.74,30.53,1905-09-10 00:00:00,1905-09-03 00:00:00,922.7,-61.74,30.53,1905-09-02 12:00:00,1012.93,-40.88,14.27,1905-09-17 06:00:00,1012.35,-15.25,42.0,1012.53,-44.46,16.18,1905-09-12 18:00:00,950.96,-55.67,44.13,1905-09-13 12:00:00,974.4,-43.67,47.6
38,TC190510,Hubert,0289,A,2,1905-09-19 12:00:00,925.7,-60.18,23.75,1905-09-19 12:00:00,1905-09-10 00:00:00,925.7,-60.18,23.75,1905-09-09 18:00:00,1006.01,-23.26,13.03,1905-10-02 18:00:00,997.91,2.75,44.0,1008.56,-24.54,13.47,1905-10-01 12:00:00,974.97,-18.15,36.61,1905-10-02 00:00:00,976.12,-11.42,37.95
39,TC190511,Julie,0291,A,1,1905-10-06 12:00:00,956.34,-11.58,32.43,1905-10-06 12:00:00,1905-09-23 18:00:00,956.34,-11.58,32.43,1905-09-22 06:00:00,1006.76,-16.38,10.76,1905-10-10 06:00:00,1001.53,-5.86,35.17,1009.01,-25.95,11.16,1905-10-10 00:00:00,1002.67,-7.62,35.26,,,,
40,TC190512,Keith,0293,A,2,1905-09-26 18:00:00,952.67,-60.77,42.1,1905-09-26 18:00:00,1905-09-25 00:00:00,952.67,-60.77,42.1,1905-09-25 00:00:00,1003.51,-63.88,35.84,1905-09-28 12:00:00,1011.74,-45.89,52.59,1003.51,-63.88,35.84,1905-09-27 06:00:00,965.05,-57.53,45.95,1905-09-27 12:00:00,982.18,-55.53,47.71
41,TC190513,Lily,0296,A,2,1905-10-09 18:00:00,976.88,-28.99,13.73,1905-10-09 18:00:00,1905-10-08 00:00:00,976.88,-28.99,13.73,1905-10-08 00:00:00,1002.34,-30.35,13.17,1905-10-16 18:00:00,995.2,-13.16,30.25,1002.34,-30.35,13.17,1905-10-15 06:00:00,996.15,-26.75,24.24,1905-10-16 06:00:00,996.71,-19.31,26.76
42,TC190514,Marc,0298,A,1,1905-10-19 06:00:00,969.87,-57.19,46.53,1905-10-18 12:00:00,1905-10-15 18:00:00,990.57,-56.36,39.31,1905-10-15 18:00:00,1008.55,-59.66,22.92,1905-10-20 18:00:00,988.14,-64.44,46.63,1008.55,-59.66,22.92,1905-10-18 18:00:00,982.57,-55.64,41.88,,,,
43,TC190515,Noelle,0307,A,2,1905-11-24 00:00:00,977.21,-75.48,18.76,1905-11-24 00:00:00,1905-11-22 00:00:00,977.21,-75.48,18.76,1905-11-22 00:00:00,1003.82,-80.48,11.26,1905-11-26 06:00:00,1010.87,-61.0,29.5,1003.82,-80.48,11.26,1905-11-24 18:00:00,989.84,-72.22,23.17,1905-11-26 00:00:00,1008.45,-62.5,29.0
44,TC190601,Rocco,0316,A,0,1906-02-09 06:00:00,972.38,-13.44,44.89,1906-02-09 12:00:00,1906-02-09 12:00:00,974.56,-12.99,46.07,1906-02-08 00:00:00,984.74,-18.84,38.41,1906-02-12 06:00:00,989.31,-9.25,54.0,974.56,-12.99,46.07,,,,,,,,
45,TC190604,Shannon,0327,A,2,1906-04-02 00:00:00,992.91,-51.91,28.64,1906-04-02 18:00:00,1906-04-02 18:00:00,993.67,-48.54,31.44,1906-04-02 00:00:00,992.91,-51.91,28.64,1906-04-06 12:00:00,1012.51,-38.0,34.25,993.67,-48.54,31.44,1906-04-05 06:00:00,1000.57,-43.79,35.32,1906-04-05 18:00:00,1005.58,-41.0,34.25
46,TC190605,Thomas,0329,A,1,1906-04-07 00:00:00,993.54,-58.66,32.94,1906-04-07 00:00:00,1906-04-07 00:00:00,993.54,-58.66,32.94,1906-04-07 00:00:00,993.54,-58.66,32.94,1906-04-10 12:00:00,998.36,-58.5,46.75,993.54,-58.66,32.94,1906-04-10 00:00:00,997.75,-58.75,42.25,,,,
47,TC190610,Wendy,0343,A,2,1906-08-30 00:00:00,939.55,-60.98,36.16,1906-08-29 06:00:00,1906-08-25 00:00:00,967.22,-63.24,32.63,1906-08-25 00:00:00,1012.42,-70.33,22.86,1906-09-03 00:00:00,1012.4,-37.76,45.35,1012.42,-70.33,22.86,1906-08-29 12:00:00,954.41,-62.63,33.58,1906-09-01 12:00:00,999.01,-49.5,43.4
48,TC190611,Anna,0363,A,2,1906-12-06 18:00:00,969.48,-40.08,41.17,1906-12-06 18:00:00,1906-12-06 00:00:00,969.48,-40.08,41.17,1906-12-06 00:00:00,989.9,-44.13,37.77,1906-12-10 18:00:00,1010.08,-21.25,34.75,989.9,-44.13,37.77,1906-12-09 12:00:00,1001.29,-26.0,37.75,1906-12-09 18:00:00,1002.85,-24.5,36.75
49,TC190703,Bryan,0377,A,1,1907-04-17 18:00:00,979.98,-37.78,41.91,1907-04-17 18:00:00,1907-04-17 06:00:00,979.98,-37.78,41.91,1907-04-17 06:00:00,980.96,-43.13,40.16,1907-04-21 00:00:00,1006.24,-6.75,47.5,980.96,-43.13,40.16,1907-04-20 06:00:00,996.75,-13.75,45.75,,,,
50,TC190704,Cissy,0381,A,1,1907-05-31 18:00:00,998.98,-71.7,35.74,1907-05-31 18:00:00,1907-05-29 00:00:00,998.98,-71.7,35.74,1907-05-28 18:00:00,1010.59,-78.52,25.4,1907-06-02 12:00:00,1007.92,-56.25,51.5,1010.04,-78.37,25.77,1907-06-02 00:00:00,1005.84,-63.25,45.25,,,,
51,TC190705,Dominic,0390,A,1,1907-09-14 00:00:00,936.66,-42.99,31.88,1907-09-09 12:00:00,1907-08-29 06:00:00,958.37,-61.74,30.53,1907-08-29 06:00:00,1010.64,-31.22,12.81,1907-09-20 06:00:00,985.03,-8.26,57.67,1010.64,-31.22,12.81,1907-09-09 18:00:00,964.25,-60.26,31.28,,,,
52,TC190706,Esther,0393,A,2,1907-09-25 00:00:00,911.21,-55.21,26.88,1907-09-25 00:00:00,1907-09-13 12:00:00,911.21,-55.21,26.88,1907-09-13 06:00:00,1006.99,-24.19,10.92,1907-09-29 06:00:00,940.91,-30.73,59.98,1007.47,-25.62,10.74,1907-09-26 18:00:00,936.9,-49.55,35.35,1907-09-29 00:00:00,938.74,-30.66,59.37
53,TC190707,Frank,0395,A,0,1907-09-25 18:00:00,993.7,-42.47,28.9,1907-09-25 18:00:00,1907-09-17 12:00:00,993.7,-42.47,28.9,1907-09-17 12:00:00,1007.06,-14.19,13.14,1907-09-26 12:00:00,1001.9,-42.17,32.16,1007.06,-14.19,13.14,,,,,,,,
54,TC190708,Helena,0401,A,2,1907-10-28 06:00:00,995.24,-27.51,36.0,1907-10-28 06:00:00,1907-10-28 06:00:00,995.24,-27.51,36.0,1907-10-28 06:00:00,995.24,-27.51,36.0,1907-11-03 00:00:00,1012.81,-11.75,50.0,995.24,-27.51,36.0,1907-11-02 00:00:00,1003.83,-26.65,46.87,1907-11-02 12:00:00,1008.59,-20.0,49.25
55,TC190709,John,0406,A,0,1907-11-16 00:00:00,997.49,-82.49,15.95,1907-11-16 00:00:00,1907-11-14 12:00:00,997.49,-82.49,15.95,1907-11-14 12:00:00,1005.34,-84.19,16.99,1907-11-19 06:00:00,1003.46,-81.0,21.62,1005.34,-84.19,16.99,,,,,,,,
56,TC190801,Kannas,0413,A,0,1908-01-02 18:00:00,989.25,-23.31,31.4,1908-01-02 18:00:00,1908-01-02 00:00:00,989.25,-23.31,31.4,1908-01-01 06:00:00,997.93,-27.39,29.96,1908-01-05 00:00:00,1002.2,-11.75,44.0,990.69,-23.62,32.01,,,,,,,,
57,TC190806,Lomy,0438,A,2,1908-09-12 12:00:00,961.43,-86.4,29.65,1908-09-12 06:00:00,1908-08-26 06:00:00,975.9,-87.25,29.16,1908-08-25 06:00:00,1007.65,-31.52,12.68,1908-09-16 06:00:00,1010.53,-70.5,39.5,1008.77,-34.97,12.68,1908-09-12 12:00:00,961.43,-86.4,29.65,1908-09-15 18:00:00,1005.95,-74.58,37.72
58,TC190811,Mandy,0449,A,0,1908-10-22 06:00:00,994.69,-25.39,37.55,1908-10-23 00:00:00,1908-10-22 12:00:00,995.4,-26.57,39.75,1908-10-21 06:00:00,999.62,-28.96,32.72,1908-10-24 12:00:00,1009.39,-29.0,40.0,996.37,-24.94,37.81,,,,,,,,
59,TC190812,Nathan,0455,A,1,1908-12-17 18:00:00,995.99,-28.5,41.49,1908-12-17 18:00:00,1908-12-17 18:00:00,995.99,-28.5,41.49,1908-12-17 18:00:00,995.99,-28.5,41.49,1908-12-21 00:00:00,1005.21,-33.75,27.0,995.99,-28.5,41.49,1908-12-20 06:00:00,998.51,-36.15,30.79,,,,
60,TC190901,Rosalina,0465,A,1,1909-03-06 18:00:00,990.74,-39.91,32.89,1909-03-06 18:00:00,1909-03-06 00:00:00,990.74,-39.91,32.89,1909-03-06 00:00:00,993.26,-39.94,30.0,1909-03-09 18:00:00,1011.71,-40.69,39.52,993.26,-39.94,30.0,1909-03-08 18:00:00,1006.38,-40.94,38.9,,,,
61,TC190902,Samuel,0468,A,1,1909-04-14 06:00:00,977.84,-46.38,41.55,1909-04-14 06:00:00,1909-04-14 06:00:00,977.84,-46.38,41.55,1909-04-14 06:00:00,977.84,-46.38,41.55,1909-04-19 06:00:00,1005.74,-32.0,47.5,977.84,-46.38,41.55,1909-04-19 06:00:00,1005.74,-32.0,47.5,,,,
62,TC190903,Tatiana,0484,A,2,1909-09-04 06:00:00,987.98,-29.84,40.4,1909-09-04 06:00:00,1909-09-01 18:00:00,987.98,-29.84,40.4,1909-09-01 18:00:00,1012.2,-33.15,34.97,1909-09-06 00:00:00,1011.22,-14.75,46.25,1012.2,-33.15,34.97,1909-09-05 00:00:00,993.31,-25.17,43.72,1909-09-05 06:00:00,997.28,-22.65,44.76
63,TC190905,Wilson,0491,A,2,1909-09-19 12:00:00,976.9,-59.84,48.09,1909-09-18 12:00:00,1909-09-16 18:00:00,994.58,-67.46,38.86,1909-09-16 18:00:00,1003.23,-73.51,36.23,1909-09-20 06:00:00,990.48,-52.75,52.0,1003.23,-73.51,36.23,1909-09-18 18:00:00,992.65,-65.53,39.86,1909-09-19 12:00:00,976.9,-59.84,48.09
64,TC190906,Aidan,0492,A,2,1909-09-23 18:00:00,988.03,-60.0,41.18,1909-09-23 18:00:00,1909-09-21 00:00:00,988.03,-60.0,41.18,1909-09-21 00:00:00,1006.38,-73.05,33.27,1909-09-27 12:00:00,1010.57,-66.75,49.75,1006.38,-73.05,33.27,1909-09-26 18:00:00,1008.23,-71.11,43.87,1909-09-27 00:00:00,1011.12,-70.67,45.98
65,TC190907,Bella,0497,A,2,1909-11-09 18:00:00,981.6,-14.97,47.44,1909-11-04 12:00:00,1909-10-31 12:00:00,983.18,-45.38,38.16,1909-10-31 12:00:00,1004.04,-69.47,26.1,1909-11-10 18:00:00,989.44,-12.25,57.5,1004.04,-69.47,26.1,1909-11-07 06:00:00,995.95,-32.86,39.66,1909-11-10 00:00:00,985.37,-13.73,48.77
66,TC191001,Carson,0526,A,2,1910-06-17 18:00:00,996.14,-47.24,42.86,1910-06-17 12:00:00,1910-06-12 06:00:00,996.43,-50.39,41.52,1910-06-12 06:00:00,1008.75,-69.21,25.36,1910-06-19 06:00:00,1004.2,-28.75,52.25,1008.75,-69.21,25.36,1910-06-17 18:00:00,996.14,-47.24,42.86,1910-06-18 18:00:00,1001.63,-35.07,48.63
67,TC191003,Dorcas,0537,A,2,1910-08-11 18:00:00,992.32,-65.61,42.12,1910-08-10 18:00:00,1910-08-07 06:00:00,999.92,-75.4,35.95,1910-08-07 06:00:00,1012.79,-80.2,23.44,1910-08-13 18:00:00,1004.35,-34.5,54.75,1012.79,-80.2,23.44,1910-08-11 06:00:00,1000.85,-71.43,38.72,1910-08-12 00:00:00,997.15,-62.17,43.71
68,TC191004,Erling,0538,A,2,1910-08-26 12:00:00,938.83,-91.8,28.92,1910-08-26 12:00:00,1910-08-23 06:00:00,938.83,-91.8,28.92,1910-08-23 06:00:00,1003.2,-93.73,22.16,1910-08-30 00:00:00,1007.79,-83.96,36.18,1003.2,-93.73,22.16,1910-08-27 12:00:00,959.36,-88.82,29.77,1910-08-28 18:00:00,994.31,-85.48,32.8
69,TC191005,Grace,0541,A,0,1910-09-01 06:00:00,997.22,-51.23,39.16,1910-09-01 06:00:00,1910-08-30 12:00:00,997.22,-51.23,39.16,1910-08-30 12:00:00,1000.07,-49.96,35.56,1910-09-03 06:00:00,1010.02,-48.18,43.8,1000.07,-49.96,35.56,,,,,,,,
70,TC191006,Hendrik,0542,A,2,1910-09-03 12:00:00,981.02,-93.36,30.56,1910-09-03 12:00:00,1910-08-31 12:00:00,981.02,-93.36,30.56,1910-08-31 12:00:00,1007.43,-92.71,18.87,1910-09-05 00:00:00,1005.15,-80.0,40.25,1007.43,-92.71,18.87,1910-09-04 06:00:00,1002.08,-88.68,34.95,1910-09-04 12:00:00,1003.3,-85.86,36.4
71,TC191007,Jana,0543,A,2,1910-09-08 06:00:00,920.24,-52.34,18.11,1910-09-08 06:00:00,1910-09-04 12:00:00,920.24,-52.34,18.11,1910-09-02 00:00:00,1006.85,-13.73,9.68,1910-09-21 12:00:00,998.79,-13.5,55.25,995.94,-29.73,13.64,1910-09-14 00:00:00,974.47,-69.06,37.3,1910-09-21 12:00:00,998.79,-13.5,55.25
72,TC191008,Kevin,0551,A,2,1910-09-28 18:00:00,996.95,-25.04,36.45,1910-09-29 06:00:00,1910-09-29 06:00:00,997.25,-24.99,37.13,1910-09-28 18:00:00,996.95,-25.04,36.45,1910-10-05 06:00:00,1011.65,-16.5,39.25,997.25,-24.99,37.13,1910-10-03 12:00:00,1005.49,-21.75,39.36,1910-10-03 12:00:00,1005.49,-21.75,39.36
73,TC191009,Laura,0555,A,0,1910-11-15 18:00:00,970.24,-45.35,36.82,1910-11-15 18:00:00,1910-11-13 00:00:00,970.24,-45.35,36.82,1910-11-13 00:00:00,1001.91,-61.2,24.94,1910-11-18 06:00:00,1010.67,-20.23,51.14,1001.91,-61.2,24.94,,,,,,,,
74,TC191101,Manuel,0582,A,0,1911-06-11 00:00:00,995.71,-74.97,35.81,1911-06-11 00:00:00,1911-06-06 18:00:00,995.71,-74.97,35.81,1911-06-06 18:00:00,1006.21,-88.77,18.69,1911-06-11 00:00:00,995.71,-74.97,35.81,1006.21,-88.77,18.69,,,,,,,,
75,TC191103,Olivia,0585,A,0,1911-07-19 12:00:00,988.61,-96.54,22.1,1911-07-19 12:00:00,1911-07-14 18:00:00,988.61,-96.54,22.1,1911-07-14 18:00:00,1010.16,-67.27,18.36,1911-07-20 12:00:00,1010.04,-97.33,20.44,1010.16,-67.27,18.36,,,,,,,,
76,TC191104,Rayan,0590,A,1,1911-08-28 18:00:00,964.41,-61.32,35.99,1911-08-28 18:00:00,1911-08-24 00:00:00,964.41,-61.32,35.99,1911-08-24 00:00:00,1005.73,-48.5,15.15,1911-09-01 12:00:00,1011.56,-37.25,39.75,1005.73,-48.5,15.15,1911-08-29 00:00:00,967.75,-59.82,37.81,,,,
77,TC191105,Shirley,0593,A,2,1911-09-15 12:00:00,933.98,-60.47,31.18,1911-09-15 12:00:00,1911-09-05 06:00:00,933.98,-60.47,31.18,1911-09-04 12:00:00,1005.97,-16.22,12.35,1911-09-22 00:00:00,968.72,-17.94,59.9,1005.59,-20.41,13.63,1911-09-16 12:00:00,938.46,-59.01,34.25,1911-09-22 00:00:00,968.72,-17.94,59.9
78,TC191106,Tijjani,0594,A,2,1911-09-10 06:00:00,989.57,-29.75,57.75,1911-09-09 06:00:00,1911-09-07 06:00:00,999.4,-35.43,44.54,1911-09-07 06:00:00,1011.39,-39.11,37.88,1911-09-10 06:00:00,989.57,-29.75,57.75,1011.39,-39.11,37.88,1911-09-09 12:00:00,997.31,-34.41,46.83,1911-09-09 18:00:00,995.54,-33.5,50.0
79,TC191107,Yui,0595,A,2,1911-09-08 12:00:00,996.8,-90.31,27.27,1911-09-08 12:00:00,1911-09-07 06:00:00,996.8,-90.31,27.27,1911-09-07 06:00:00,1005.35,-88.51,26.67,1911-09-10 12:00:00,1010.4,-85.63,31.36,1005.35,-88.51,26.67,1911-09-09 18:00:00,1002.87,-88.52,29.76,1911-09-10 12:00:00,1010.4,-85.63,31.36
80,TC191108,Alissa,0598,A,2,1911-09-28 18:00:00,982.21,-57.8,40.41,1911-09-28 12:00:00,1911-09-25 12:00:00,984.66,-59.6,38.54,1911-09-25 12:00:00,1012.18,-60.25,29.79,1911-10-01 06:00:00,1011.58,-23.0,47.75,1012.18,-60.25,29.79,1911-09-28 18:00:00,982.21,-57.8,40.41,1911-09-30 00:00:00,1001.44,-44.75,46.25
81,TC191109,Benjamin,0601,A,0,1911-10-06 06:00:00,996.57,-25.11,18.44,1911-10-06 06:00:00,1911-10-04 18:00:00,996.57,-25.11,18.44,1911-10-04 06:00:00,1007.49,-16.8,14.13,1911-10-08 12:00:00,1011.51,-26.5,20.5,1003.49,-18.22,15.51,,,,,,,,
82,TC191201,Carmen,0639,A,1,1912-08-16 18:00:00,940.09,-88.17,29.06,1912-08-16 18:00:00,1912-08-13 00:00:00,940.09,-88.17,29.06,1912-08-13 00:00:00,1011.5,-75.79,23.7,1912-08-20 12:00:00,1010.92,-91.5,35.25,1011.5,-75.79,23.7,1912-08-20 00:00:00,1008.54,-91.21,34.37,,,,
83,TC191203,Daniel,0644,A,0,1912-09-06 12:00:00,968.23,-46.09,41.07,1912-09-06 12:00:00,1912-09-01 06:00:00,968.23,-46.09,41.07,1912-09-01 06:00:00,1008.42,-73.9,27.1,1912-09-10 06:00:00,997.44,-46.75,55.25,1008.42,-73.9,27.1,,,,,,,,
84,TC191302,Emily,0663,A,2,1913-03-10 18:00:00,981.45,-48.48,30.87,1913-03-10 18:00:00,1913-03-10 12:00:00,981.45,-48.48,30.87,1913-03-10 12:00:00,982.17,-49.11,31.21,1913-03-14 06:00:00,1000.94,-22.75,33.75,982.17,-49.11,31.21,1913-03-13 12:00:00,999.32,-27.83,30.55,1913-03-13 18:00:00,999.49,-25.75,31.5
85,TC191303,Geoffrey,0665,A,0,1913-05-17 06:00:00,986.81,-41.99,29.3,1913-05-17 06:00:00,1913-05-17 06:00:00,986.81,-41.99,29.3,1913-05-17 06:00:00,986.81,-41.99,29.3,1913-05-23 18:00:00,1012.5,-49.1,33.67,986.81,-41.99,29.3,,,,,,,,
86,TC191305,Hazel,0674,A,0,1913-09-04 18:00:00,895.93,-94.31,28.41,1913-09-04 18:00:00,1913-08-28 06:00:00,895.93,-94.31,28.41,1913-08-28 06:00:00,1006.73,-78.59,15.18,1913-09-11 00:00:00,1012.94,-70.91,39.03,1006.73,-78.59,15.18,,,,,,,,
87,TC191306,Joshua,0675,A,0,1913-09-08 06:00:00,999.05,-65.22,38.22,1913-09-08 06:00:00,1913-09-06 12:00:00,999.05,-65.22,38.22,1913-09-06 12:00:00,1011.71,-66.2,35.51,1913-09-10 06:00:00,1009.47,-71.24,38.67,1011.71,-66.2,35.51,,,,,,,,
88,TC191307,Kelly,0681,A,2,1913-10-17 12:00:00,976.17,-60.5,55.75,1913-10-14 06:00:00,1913-10-13 18:00:00,995.2,-70.39,32.57,1913-10-13 18:00:00,996.73,-66.82,29.25,1913-10-17 12:00:00,976.17,-60.5,55.75,996.73,-66.82,29.25,1913-10-15 18:00:00,1000.26,-71.58,37.69,1913-10-16 06:00:00,997.46,-70.19,39.44
89,TC191308,Luca,0683,A,2,1913-10-23 00:00:00,947.95,-52.23,29.92,1913-10-23 00:00:00,1913-10-17 00:00:00,947.95,-52.23,29.92,1913-10-17 00:00:00,1009.01,-40.61,27.43,1913-10-27 18:00:00,991.81,-48.01,54.21,1009.01,-40.61,27.43,1913-10-26 18:00:00,961.02,-59.27,43.59,1913-10-27 06:00:00,984.91,-54.63,49.03
90,TC191402,Mary,0711,A,2,1914-07-20 12:00:00,975.88,-67.01,38.69,1914-07-20 12:00:00,1914-07-18 00:00:00,975.88,-67.01,38.69,1914-07-18 00:00:00,1011.24,-71.39,35.93,1914-07-23 18:00:00,1003.87,-32.75,55.0,1011.24,-71.39,35.93,1914-07-22 18:00:00,1003.72,-51.32,48.77,1914-07-22 18:00:00,1003.72,-51.32,48.77
91,TC191404,Ollie,0717,A,0,1914-09-12 00:00:00,978.58,-96.04,21.18,1914-09-12 00:00:00,1914-09-08 06:00:00,978.58,-96.04,21.18,1914-09-08 06:00:00,1006.78,-82.44,16.24,1914-09-12 12:00:00,994.69,-98.22,20.68,1006.78,-82.44,16.24,,,,,,,,
92,TC191405,Rosita,0725,A,2,1914-10-17 18:00:00,947.58,-54.18,41.82,1914-10-16 12:00:00,1914-10-13 06:00:00,950.29,-60.48,30.54,1914-10-13 06:00:00,997.45,-51.96,15.77,1914-10-19 00:00:00,974.56,-44.46,59.44,997.45,-51.96,15.77,1914-10-17 00:00:00,955.39,-59.91,34.07,1914-10-18 12:00:00,964.19,-48.8,54.04
93,TC191406,Stefan,0728,A,1,1914-11-07 18:00:00,962.05,-45.71,33.88,1914-11-07 18:00:00,1914-11-04 18:00:00,962.05,-45.71,33.88,1914-11-04 18:00:00,983.51,-40.47,30.6,1914-11-11 12:00:00,983.27,-27.3,53.56,983.51,-40.47,30.6,1914-11-09 18:00:00,967.79,-40.72,44.74,,,,
94,TC191501,Tess,0753,A,1,1915-03-17 18:00:00,979.81,-54.08,36.05,1915-03-17 18:00:00,1915-03-17 06:00:00,979.81,-54.08,36.05,1915-03-17 06:00:00,980.64,-56.79,36.97,1915-03-23 06:00:00,1012.89,-33.5,31.25,980.64,-56.79,36.97,1915-03-21 00:00:00,1005.09,-42.34,29.17,,,,
95,TC191503,Yves,0767,A,0,1915-08-14 18:00:00,935.83,-88.13,30.13,1915-08-14 18:00:00,1915-08-06 06:00:00,935.83,-88.13,30.13,1915-08-06 06:00:00,1010.66,-51.7,15.29,1915-08-17 18:00:00,1009.97,-84.11,36.8,1010.66,-51.7,15.29,,,,,,,,
96,TC191504,Alberto,0770,A,2,1915-08-19 00:00:00,948.04,-71.84,26.64,1915-08-19 00:00:00,1915-08-12 06:00:00,948.04,-71.84,26.64,1915-08-12 06:00:00,1012.19,-32.39,11.52,1915-08-25 12:00:00,1004.99,-49.0,52.25,1012.19,-32.39,11.52,1915-08-24 06:00:00,992.55,-64.01,48.57,1915-08-24 06:00:00,992.55,-64.01,48.57
97,TC191505,Blaise,0772,A,2,1915-08-22 12:00:00,994.57,-66.34,26.2,1915-08-22 12:00:00,1915-08-15 12:00:00,994.57,-66.34,26.2,1915-08-14 12:00:00,1005.99,-19.0,13.99,1915-08-27 18:00:00,1002.87,-41.5,54.0,1003.27,-26.23,15.59,1915-08-26 00:00:00,1008.73,-67.0,41.25,1915-08-26 06:00:00,1006.55,-64.75,43.25
98,TC191507,Carlos,0776,A,2,1915-09-23 06:00:00,990.79,-22.24,48.6,1915-09-22 06:00:00,1915-09-17 06:00:00,992.28,-34.74,43.75,1915-09-17 06:00:00,1004.5,-46.49,33.02,1915-09-24 06:00:00,1002.7,-7.75,50.25,1004.5,-46.49,33.02,1915-09-22 12:00:00,993.05,-31.97,44.71,1915-09-23 18:00:00,995.95,-14.44,49.65
99,TC191508,Doreen,0777,A,2,1915-09-27 12:00:00,922.09,-61.88,23.46,1915-09-27 12:00:00,1915-09-19 00:00:00,922.09,-61.88,23.46,1915-09-17 18:00:00,1008.16,-20.37,13.45,1915-10-03 06:00:00,970.07,-37.02,55.55,1007.85,-26.04,13.4,1915-09-30 06:00:00,940.16,-64.84,32.41,1915-10-02 18:00:00,962.64,-44.16,49.95
100,TC191509,Emiliano,0779,A,1,1915-09-25 12:00:00,952.31,-58.25,39.98,1915-09-25 00:00:00,1915-09-19 18:00:00,967.6,-61.96,37.44,1915-09-19 18:00:00,1010.63,-72.43,37.43,1915-09-28 06:00:00,975.04,-27.43,58.6,1010.63,-72.43,37.43,1915-09-25 06:00:00,965.79,-60.53,38.74,,,,
101,TC191510,Gloria,0780,A,2,1915-10-11 12:00:00,915.35,-59.39,29.99,1915-10-11 12:00:00,1915-09-30 12:00:00,915.35,-59.39,29.99,1915-09-30 12:00:00,1008.85,-16.59,11.9,1915-10-14 06:00:00,948.55,-17.7,59.22,1008.85,-16.59,11.9,1915-10-12 06:00:00,955.27,-56.0,35.85,1915-10-14 06:00:00,948.55,-17.7,59.22
102,TC191512,Ian,0786,A,2,1915-11-09 06:00:00,936.88,-36.61,40.51,1915-11-09 06:00:00,1915-10-31 06:00:00,936.88,-36.61,40.51,1915-10-31 06:00:00,1012.1,-43.57,35.41,1915-11-13 12:00:00,972.85,-0.3,54.22,1012.1,-43.57,35.41,1915-11-11 06:00:00,945.76,-27.92,43.41,1915-11-13 06:00:00,966.13,-6.26,54.85
103,TC191513,Jessica,0787,A,2,1915-11-09 00:00:00,981.29,-76.09,16.58,1915-11-09 00:00:00,1915-11-05 06:00:00,981.29,-76.09,16.58,1915-11-04 12:00:00,1004.05,-79.6,9.63,1915-11-13 18:00:00,1006.62,-44.75,33.5,1004.23,-74.63,14.12,1915-11-10 18:00:00,1000.27,-73.59,20.71,1915-11-12 06:00:00,994.92,-62.32,25.6
104,TC191606,Kyle,0827,A,2,1916-10-02 12:00:00,935.35,-53.76,32.0,1916-10-02 12:00:00,1916-09-27 18:00:00,935.35,-53.76,32.0,1916-09-27 18:00:00,1012.64,-44.5,29.75,1916-10-10 06:00:00,1004.09,-40.25,30.25,1012.64,-44.5,29.75,1916-10-08 00:00:00,973.96,-40.49,40.53,1916-10-09 18:00:00,1003.5,-40.25,34.0
105,TC191607,Lorraine,0830,A,0,1916-10-13 06:00:00,970.84,-25.95,36.29,1916-10-13 06:00:00,1916-10-11 12:00:00,970.84,-25.95,36.29,1916-10-11 00:00:00,988.03,-35.96,26.5,1916-10-18 00:00:00,1010.78,-4.5,44.5,982.07,-33.16,26.11,,,,,,,,
106,TC191702,Manfred,0861,A,0,1917-05-30 06:00:00,985.31,-60.67,38.91,1917-05-30 06:00:00,1917-05-30 06:00:00,985.31,-60.67,38.91,1917-05-30 06:00:00,985.31,-60.67,38.91,1917-06-03 06:00:00,1009.65,-49.0,49.5,985.31,-60.67,38.91,,,,,,,,
107,TC191703,Oxlip,0871,A,2,1917-09-06 12:00:00,970.48,-58.16,40.87,1917-09-06 00:00:00,1917-08-28 00:00:00,990.03,-61.82,37.26,1917-08-28 00:00:00,1012.77,-54.79,23.68,1917-09-07 12:00:00,988.25,-39.75,54.0,1012.77,-54.79,23.68,1917-09-06 06:00:00,985.65,-60.53,38.74,1917-09-07 06:00:00,987.12,-45.98,50.32
108,TC191704,Rodri,0873,A,1,1917-09-22 18:00:00,934.65,-27.69,51.87,1917-09-17 18:00:00,1917-09-08 06:00:00,949.13,-55.61,27.54,1917-09-07 12:00:00,1011.01,-32.56,12.81,1917-09-24 00:00:00,954.98,-23.52,54.92,1007.72,-33.56,12.83,1917-09-18 00:00:00,965.53,-54.44,28.32,,,,
109,TC191705,Sofiee,0874,A,2,1917-09-18 06:00:00,973.39,-48.26,19.2,1917-09-18 06:00:00,1917-09-11 00:00:00,973.39,-48.26,19.2,1917-09-11 00:00:00,1006.32,-23.87,9.27,1917-09-22 06:00:00,985.32,-17.75,43.75,1006.32,-23.87,9.27,1917-09-20 12:00:00,988.53,-43.62,27.46,1917-09-22 00:00:00,992.07,-22.0,41.0
110,TC191707,Victor,0882,A,2,1917-10-20 12:00:00,946.13,-85.6,27.61,1917-10-20 12:00:00,1917-10-19 18:00:00,946.13,-85.6,27.61,1917-10-17 00:00:00,1000.31,-96.27,27.29,1917-10-22 18:00:00,1004.7,-81.25,42.0,950.44,-85.24,25.69,1917-10-22 00:00:00,1001.12,-85.95,34.96,1917-10-22 00:00:00,1001.12,-85.95,34.96
111,TC191709,Yan,0886,A,2,1917-10-27 12:00:00,947.13,-72.45,28.74,1917-10-27 12:00:00,1917-10-23 00:00:00,947.13,-72.45,28.74,1917-10-23 00:00:00,1007.83,-62.67,22.15,1917-10-31 06:00:00,1012.53,-40.75,41.0,1007.83,-62.67,22.15,1917-10-28 00:00:00,950.47,-71.72,30.4,1917-10-30 00:00:00,997.15,-56.25,38.75
112,TC191801,Angela,0905,A,1,1918-03-29 06:00:00,995.01,-46.22,36.09,1918-03-29 06:00:00,1918-03-29 06:00:00,995.01,-46.22,36.09,1918-03-29 06:00:00,995.01,-46.22,36.09,1918-04-02 18:00:00,1004.35,-22.25,51.25,995.01,-46.22,36.09,1918-04-01 06:00:00,1000.54,-33.5,39.75,,,,
113,TC191802,Bernardo,0918,A,1,1918-09-04 00:00:00,927.35,-53.98,31.9,1918-09-04 00:00:00,1918-08-28 12:00:00,927.35,-53.98,31.9,1918-08-28 12:00:00,1004.84,-34.74,14.49,1918-09-07 18:00:00,960.38,-33.5,54.0,1004.84,-34.74,14.49,1918-09-05 06:00:00,940.86,-50.79,37.33,,,,
114,TC191803,Corliss,0919,A,1,1918-09-22 00:00:00,907.52,-94.32,25.93,1918-09-22 00:00:00,1918-09-14 12:00:00,907.52,-94.32,25.93,1918-09-14 00:00:00,1005.06,-72.77,16.22,1918-09-25 18:00:00,1000.68,-97.0,36.25,1006.89,-73.42,16.42,1918-09-25 06:00:00,995.97,-97.02,33.18,,,,
115,TC191804,Derrick,0920,A,1,1918-09-22 00:00:00,929.4,-39.27,56.33,1918-09-19 18:00:00,1918-09-16 06:00:00,987.72,-54.52,28.9,1918-09-16 06:00:00,1001.27,-52.46,15.52,1918-09-22 18:00:00,947.04,-37.05,58.64,1001.27,-52.46,15.52,1918-09-20 06:00:00,986.05,-52.25,31.58,,,,
116,TC191805,Evelyn,0921,A,0,1918-09-22 12:00:00,995.51,-87.72,29.19,1918-09-22 12:00:00,1918-09-20 18:00:00,995.51,-87.72,29.19,1918-09-20 18:00:00,1001.14,-83.06,19.97,1918-09-22 18:00:00,998.63,-89.41,31.01,1001.14,-83.06,19.97,,,,,,,,
117,TC191806,Gabriel,0922,A,2,1918-09-29 18:00:00,995.11,-29.5,47.25,1918-09-25 18:00:00,1918-09-23 18:00:00,995.36,-47.96,25.12,1918-09-23 18:00:00,1004.2,-39.25,23.77,1918-09-30 00:00:00,995.99,-25.0,50.0,1004.2,-39.25,23.77,1918-09-29 06:00:00,995.39,-37.75,41.5,1918-09-29 18:00:00,995.11,-29.5,47.25
118,TC191807,Ivanka,0923,A,2,1918-10-08 00:00:00,887.03,-82.97,18.23,1918-10-08 00:00:00,1918-09-28 00:00:00,887.03,-82.97,18.23,1918-09-27 18:00:00,1006.82,-26.76,11.37,1918-10-12 12:00:00,991.01,-56.0,42.25,1008.65,-28.14,11.0,1918-10-09 00:00:00,919.28,-81.29,23.24,1918-10-12 00:00:00,985.49,-66.29,39.47
119,TC191808,Jack,0928,A,0,1918-10-27 12:00:00,997.34,-67.38,28.27,1918-10-27 12:00:00,1918-10-26 00:00:00,997.34,-67.38,28.27,1918-10-26 00:00:00,1004.86,-66.43,34.48,1918-10-29 06:00:00,1001.94,-76.25,26.75,1004.86,-66.43,34.48,,,,,,,,
120,TC191809,Kyan,0929,A,2,1918-11-01 06:00:00,954.8,-89.25,28.02,1918-11-01 06:00:00,1918-10-29 18:00:00,954.8,-89.25,28.02,1918-10-29 18:00:00,998.49,-78.97,27.2,1918-11-06 00:00:00,1011.16,-79.62,44.61,998.49,-78.97,27.2,1918-11-04 06:00:00,999.96,-90.85,38.5,1918-11-04 18:00:00,1001.23,-87.87,42.12
121,TC191810,Lionel,0930,A,2,1918-11-05 18:00:00,951.2,-47.67,50.91,1918-11-02 18:00:00,1918-11-02 00:00:00,981.59,-53.28,32.81,1918-11-01 06:00:00,991.16,-51.99,38.29,1918-11-06 18:00:00,970.24,-47.94,52.7,986.88,-56.13,34.1,1918-11-04 00:00:00,984.6,-46.75,34.75,1918-11-06 18:00:00,970.24,-47.94,52.7
122,TC191901,Melody,0945,A,0,1919-01-12 00:00:00,982.14,-46.45,32.46,1919-01-12 00:00:00,1919-01-12 00:00:00,982.14,-46.45,32.46,1919-01-12 00:00:00,982.14,-46.45,32.46,1919-01-16 18:00:00,1011.48,-36.25,33.5,982.14,-46.45,32.46,,,,,,,,
123,TC191902,Oscar,0960,A,1,1919-04-11 18:00:00,992.68,-48.85,42.02,1919-04-11 18:00:00,1919-04-05 18:00:00,992.68,-48.85,42.02,1919-04-05 18:00:00,999.59,-40.93,31.01,1919-04-13 18:00:00,1011.86,-55.5,52.0,999.59,-40.93,31.01,1919-04-12 18:00:00,997.96,-48.64,47.58,,,,
124,TC191903,Rachel,0965,A,0,1919-05-11 00:00:00,993.36,-81.44,22.19,1919-05-11 00:00:00,1919-05-08 12:00:00,993.36,-81.44,22.19,1919-05-08 12:00:00,1004.59,-80.83,14.38,1919-05-11 06:00:00,995.12,-81.09,23.67,1004.59,-80.83,14.38,,,,,,,,
125,TC191905,Sunny,0970,A,2,1919-06-10 06:00:00,988.9,-43.46,29.55,1919-06-09 18:00:00,1919-06-07 12:00:00,995.09,-50.42,28.43,1919-06-07 12:00:00,1006.2,-67.4,23.55,1919-06-13 00:00:00,1005.69,-32.0,51.75,1006.2,-67.4,23.55,1919-06-10 00:00:00,992.16,-47.17,28.95,1919-06-11 06:00:00,996.33,-32.65,34.37
126,TC191906,Victoria,0981,A,2,1919-08-26 00:00:00,915.16,-86.24,29.79,1919-08-26 00:00:00,1919-08-18 06:00:00,915.16,-86.24,29.79,1919-08-17 12:00:00,1011.11,-36.68,10.56,1919-08-29 18:00:00,1012.89,-79.75,48.75,1008.7,-43.36,10.68,1919-08-26 18:00:00,990.73,-83.27,34.1,1919-08-28 12:00:00,997.73,-76.68,46.92
127,TC191908,Yoshi,0985,A,2,1919-08-28 12:00:00,986.93,-59.21,39.81,1919-08-27 18:00:00,1919-08-23 12:00:00,987.62,-66.77,35.85,1919-08-23 12:00:00,1008.05,-59.66,21.82,1919-09-01 06:00:00,1000.54,-27.5,39.25,1008.05,-59.66,21.82,1919-08-28 12:00:00,986.93,-59.21,39.81,1919-08-31 00:00:00,1008.48,-41.13,35.37
128,TC191909,Antoine,0987,A,2,1919-09-08 00:00:00,909.69,-66.31,21.56,1919-09-08 00:00:00,1919-09-02 00:00:00,909.69,-66.31,21.56,1919-09-01 00:00:00,1009.03,-27.28,13.87,1919-09-18 06:00:00,981.73,-35.0,54.0,1004.61,-34.42,13.04,1919-09-14 12:00:00,986.99,-77.19,45.61,1919-09-15 18:00:00,989.64,-65.06,50.14
129,TC191910,Brenda,0988,A,0,1919-09-04 12:00:00,995.66,-90.28,28.35,1919-09-04 12:00:00,1919-09-03 00:00:00,995.66,-90.28,28.35,1919-09-03 00:00:00,1011.08,-85.21,25.98,1919-09-06 06:00:00,1012.57,-93.64,31.89,1011.08,-85.21,25.98,,,,,,,,
130,TC191911,Claudio,0989,A,1,1919-09-14 00:00:00,924.73,-63.53,20.17,1919-09-14 00:00:00,1919-09-04 12:00:00,924.73,-63.53,20.17,1919-09-04 12:00:00,1009.32,-30.11,14.82,1919-09-20 18:00:00,942.32,-21.4,54.28,1009.32,-30.11,14.82,1919-09-17 06:00:00,931.31,-72.04,32.98,,,,
131,TC191912,Daisy,0992,A,2,1919-09-15 00:00:00,976.63,-19.59,42.45,1919-09-11 06:00:00,1919-09-09 12:00:00,997.99,-38.5,26.18,1919-09-09 12:00:00,1001.43,-36.75,24.68,1919-09-15 12:00:00,991.21,-10.0,48.5,1001.43,-36.75,24.68,1919-09-11 18:00:00,993.34,-37.95,27.58,1919-09-15 00:00:00,976.63,-19.59,42.45
132,TC191913,Ederson,0993,A,1,1919-09-12 18:00:00,989.48,-96.24,21.42,1919-09-12 18:00:00,1919-09-10 18:00:00,989.48,-96.24,21.42,1919-09-10 18:00:00,1009.01,-94.14,20.01,1919-09-14 18:00:00,1006.07,-98.5,21.84,1009.01,-94.14,20.01,1919-09-14 12:00:00,1004.67,-97.62,21.11,,,,
133,TC191914,Gwyneth,0994,A,2,1919-10-10 06:00:00,936.37,-67.02,42.07,1919-10-08 06:00:00,1919-10-03 18:00:00,984.69,-72.58,28.91,1919-10-02 00:00:00,1004.43,-77.98,13.13,1919-10-12 00:00:00,971.37,-67.83,54.46,1002.58,-79.93,14.43,1919-10-08 12:00:00,978.38,-71.91,30.28,1919-10-10 12:00:00,949.84,-65.02,43.94
134,TC191917,Isaac,1005,A,2,1919-12-06 06:00:00,987.33,-17.75,44.0,1919-12-02 18:00:00,1919-12-02 06:00:00,989.91,-42.79,37.18,1919-12-01 18:00:00,997.0,-37.74,36.54,1919-12-06 06:00:00,987.33,-17.75,44.0,991.24,-41.18,36.55,1919-12-05 06:00:00,991.21,-33.84,44.1,1919-12-05 18:00:00,992.05,-28.1,43.87
135,TC192001,Jaime,1017,A,2,1920-02-12 06:00:00,978.37,-21.21,33.79,1920-02-12 06:00:00,1920-02-12 00:00:00,978.37,-21.21,33.79,1920-02-12 00:00:00,981.4,-24.64,31.98,1920-02-16 06:00:00,993.98,13.25,49.75,981.4,-24.64,31.98,1920-02-14 06:00:00,984.78,-15.1,46.07,1920-02-14 12:00:00,987.27,-14.25,45.25
136,TC192003,Kelechi,1020,A,0,1920-03-08 00:00:00,988.51,-25.16,42.89,1920-03-08 00:00:00,1920-03-08 00:00:00,988.51,-25.16,42.89,1920-03-08 00:00:00,988.51,-25.16,42.89,1920-03-12 12:00:00,1004.7,-23.0,50.75,988.51,-25.16,42.89,,,,,,,,
137,TC192004,Laurel,1028,A,1,1920-06-15 12:00:00,969.63,-72.24,36.35,1920-06-15 12:00:00,1920-06-09 12:00:00,969.63,-72.24,36.35,1920-06-09 12:00:00,1005.76,-81.66,14.23,1920-06-18 06:00:00,1000.04,-49.0,56.0,1005.76,-81.66,14.23,1920-06-18 00:00:00,997.04,-50.75,52.5,,,,
138,TC192006,Micah,1035,A,0,1920-08-19 18:00:00,877.57,-79.15,25.85,1920-08-19 18:00:00,1920-08-12 06:00:00,877.57,-79.15,25.85,1920-08-11 12:00:00,1010.78,-35.73,12.88,1920-08-25 12:00:00,1000.87,-80.25,42.0,1008.26,-41.49,13.77,,,,,,,,
139,TC192007,Peach,1036,A,2,1920-08-27 18:00:00,977.14,-12.27,55.25,1920-08-22 12:00:00,1920-08-21 00:00:00,998.43,-61.13,31.09,1920-08-21 00:00:00,1010.21,-59.85,24.31,1920-08-28 00:00:00,982.52,-9.32,56.64,1010.21,-59.85,24.31,1920-08-23 00:00:00,1005.13,-58.54,32.76,1920-08-27 12:00:00,979.67,-16.57,54.05
140,TC192010,Ruben,1040,A,0,1920-09-08 12:00:00,996.88,-52.05,37.68,1920-09-08 12:00:00,1920-09-08 06:00:00,996.88,-52.05,37.68,1920-09-08 06:00:00,998.55,-52.72,38.24,1920-09-11 18:00:00,1011.07,-48.84,43.6,998.55,-52.72,38.24,,,,,,,,
141,TC192011,Seldoen,1046,A,2,1920-10-09 06:00:00,886.74,-86.43,22.69,1920-10-09 06:00:00,1920-10-02 00:00:00,886.74,-86.43,22.69,1920-10-02 00:00:00,1006.57,-66.77,13.73,1920-10-15 06:00:00,999.03,-76.0,54.5,1006.57,-66.77,13.73,1920-10-12 00:00:00,989.57,-87.94,33.76,1920-10-13 00:00:00,998.31,-84.38,41.14
142,TC192012,Vincent,1047,A,1,1920-10-15 18:00:00,953.9,-64.61,34.07,1920-10-15 18:00:00,1920-10-05 00:00:00,953.9,-64.61,34.07,1920-10-03 12:00:00,1006.39,-14.4,11.59,1920-10-26 00:00:00,971.75,-5.0,55.0,1004.51,-21.13,14.24,1920-10-20 18:00:00,991.25,-58.7,35.26,,,,
143,TC192013,Zoe,1048,A,1,1920-10-18 18:00:00,967.55,-19.65,39.93,1920-10-17 06:00:00,1920-10-10 18:00:00,987.82,-41.44,32.61,1920-10-10 18:00:00,1006.22,-72.37,22.42,1920-10-19 00:00:00,970.84,-14.34,42.52,1006.22,-72.37,22.42,1920-10-17 12:00:00,986.35,-38.53,33.1,,,,
144,TC192014,Alice,1050,A,0,1920-10-13 12:00:00,985.32,-56.23,22.97,1920-10-13 12:00:00,1920-10-12 00:00:00,985.32,-56.23,22.97,1920-10-12 00:00:00,1004.23,-61.51,16.52,1920-10-15 18:00:00,994.21,-52.13,33.2,1004.23,-61.51,16.52,,,,,,,,
145,TC192101,Bruce,1076,A,0,1921-03-08 18:00:00,996.38,-44.76,37.57,1921-03-08 18:00:00,1921-03-08 06:00:00,996.38,-44.76,37.57,1921-03-07 18:00:00,996.55,-47.44,36.91,1921-03-12 06:00:00,1006.75,-43.75,35.5,997.14,-45.99,36.96,,,,,,,,
146,TC192104,Candy,1092,A,0,1921-08-22 18:00:00,998.61,-22.01,20.53,1921-08-22 18:00:00,1921-08-22 12:00:00,998.61,-22.01,20.53,1921-08-21 12:00:00,1000.75,-14.87,18.97,1921-08-26 06:00:00,1011.27,-33.22,32.77,999.48,-21.0,19.65,,,,,,,,
147,TC192105,Dylan,1094,A,2,1921-09-22 18:00:00,984.54,-66.12,35.05,1921-09-22 18:00:00,1921-09-10 06:00:00,984.54,-66.12,35.05,1921-09-09 12:00:00,1010.73,-32.56,11.23,1921-09-25 06:00:00,1010.67,-39.25,52.25,1010.01,-36.59,11.07,1921-09-23 12:00:00,986.74,-61.96,41.81,1921-09-24 06:00:00,1004.68,-53.25,48.25
148,TC192107,Emmelyn,1102,A,0,1921-10-12 00:00:00,975.26,-59.43,39.71,1921-10-12 00:00:00,1921-10-07 18:00:00,975.26,-59.43,39.71,1921-10-07 18:00:00,1000.81,-68.62,33.89,1921-10-14 12:00:00,1012.79,-57.65,43.01,1000.81,-68.62,33.89,,,,,,,,
149,TC192201,Gianluigi,1116,A,0,1922-02-01 06:00:00,982.68,-61.13,34.34,1922-02-03 18:00:00,1922-02-03 00:00:00,983.6,-49.31,39.47,1922-02-01 00:00:00,985.89,-61.83,33.11,1922-02-06 18:00:00,1006.2,-34.5,40.5,988.11,-50.79,37.33,,,,,,,,
150,TC192203,Ivy,1120,A,1,1922-03-10 18:00:00,973.58,-23.35,40.47,1922-03-10 18:00:00,1922-03-10 18:00:00,973.58,-23.35,40.47,1922-03-08 18:00:00,999.5,-35.32,26.5,1922-03-15 06:00:00,1012.27,-12.5,43.25,973.58,-23.35,40.47,1922-03-15 00:00:00,1011.97,-11.5,44.75,,,,
151,TC192205,Jeremy,1145,A,1,1922-09-27 00:00:00,908.87,-89.56,26.42,1922-09-27 00:00:00,1922-09-13 00:00:00,908.87,-89.56,26.42,1922-09-13 00:00:00,1010.34,-37.15,11.04,1922-10-01 06:00:00,1011.24,-90.75,34.5,1010.34,-37.15,11.04,1922-09-29 00:00:00,983.6,-90.09,31.12,,,,
152,TC192206,Katie,1146,A,1,1922-09-14 00:00:00,984.57,-62.86,37.24,1922-09-18 18:00:00,1922-09-14 18:00:00,997.05,-51.95,41.35,1922-09-13 00:00:00,1002.02,-69.97,35.86,1922-09-20 18:00:00,1006.24,-42.75,48.25,998.54,-62.65,35.98,1922-09-19 00:00:00,994.77,-50.65,42.6,,,,
153,TC192208,Luigi,1151,A,2,1922-10-19 12:00:00,955.72,-54.16,42.2,1922-10-18 12:00:00,1922-10-14 18:00:00,973.74,-62.66,37.73,1922-10-14 18:00:00,1012.74,-61.03,37.01,1922-10-20 18:00:00,976.95,-25.25,57.25,1012.74,-61.03,37.01,1922-10-18 18:00:00,969.23,-61.11,38.47,1922-10-20 06:00:00,974.31,-40.1,49.25
154,TC192210,Michelle,1154,A,2,1922-11-06 00:00:00,972.12,-78.59,17.8,1922-11-06 00:00:00,1922-10-31 12:00:00,972.12,-78.59,17.8,1922-10-30 18:00:00,1006.29,-77.15,8.57,1922-11-13 06:00:00,1000.28,-56.0,33.5,1005.61,-77.17,10.48,1922-11-11 12:00:00,997.51,-65.28,25.69,1922-11-12 06:00:00,998.19,-61.75,27.25
155,TC192211,Phil,1155,A,2,1922-11-15 18:00:00,938.78,-15.44,50.13,1922-11-10 06:00:00,1922-11-03 18:00:00,951.01,-46.3,29.07,1922-11-02 06:00:00,1008.21,-61.44,34.45,1922-11-17 00:00:00,978.5,-8.35,58.36,994.13,-56.68,36.4,1922-11-14 00:00:00,979.26,-31.41,36.8,1922-11-16 18:00:00,969.62,-9.32,56.64
156,TC192305,Risa,1186,A,1,1923-08-12 18:00:00,913.17,-74.27,25.93,1923-08-12 18:00:00,1923-08-07 00:00:00,913.17,-74.27,25.93,1923-08-07 00:00:00,1009.47,-38.5,15.3,1923-08-21 06:00:00,984.05,-39.5,54.25,1009.47,-38.5,15.3,1923-08-20 06:00:00,976.22,-50.68,53.28,,,,
157,TC192307,Sergio,1188,A,2,1923-08-26 18:00:00,975.36,-62.95,40.72,1923-08-26 06:00:00,1923-08-21 12:00:00,975.69,-67.22,37.67,1923-08-21 12:00:00,1011.18,-77.89,25.86,1923-08-28 00:00:00,992.44,-59.35,48.27,1011.18,-77.89,25.86,1923-08-26 12:00:00,976.14,-65.2,39.13,1923-08-27 18:00:00,990.92,-58.8,46.99
158,TC192308,Vivianne,1189,A,1,1923-08-29 18:00:00,915.9,-55.13,29.46,1923-08-29 18:00:00,1923-08-24 18:00:00,915.9,-55.13,29.46,1923-08-21 18:00:00,1007.06,-26.09,13.59,1923-09-05 00:00:00,966.01,-30.1,51.9,1004.21,-38.39,16.15,1923-09-03 06:00:00,953.48,-45.73,41.74,,,,
159,TC192309,Zack,1190,A,2,1923-09-25 18:00:00,937.48,-30.6,59.85,1923-09-23 12:00:00,1923-09-15 00:00:00,943.83,-49.45,37.59,1923-09-14 06:00:00,996.76,-16.35,11.68,1923-09-25 18:00:00,937.48,-30.6,59.85,982.95,-21.43,13.02,1923-09-23 18:00:00,942.17,-48.44,39.76,1923-09-25 12:00:00,939.55,-30.66,59.37
160,TC192310,Alex,1192,A,2,1923-09-22 00:00:00,948.18,-69.68,15.38,1923-09-22 00:00:00,1923-09-19 00:00:00,948.18,-69.68,15.38,1923-09-19 00:00:00,1001.85,-57.68,13.47,1923-09-29 18:00:00,1009.89,-65.75,39.75,1001.85,-57.68,13.47,1923-09-28 00:00:00,1010.38,-80.27,31.49,1923-09-28 12:00:00,1007.86,-77.95,33.74
161,TC192311,Beatrice,1193,A,0,1923-09-23 18:00:00,994.58,-93.04,27.32,1923-09-23 18:00:00,1923-09-21 18:00:00,994.58,-93.04,27.32,1923-09-21 18:00:00,1007.77,-93.43,19.77,1923-09-27 12:00:00,1011.08,-95.0,20.75,1007.77,-93.43,19.77,,,,,,,,
162,TC192312,Colin,1197,A,2,1923-10-13 18:00:00,942.84,-23.87,54.92,1923-10-10 18:00:00,1923-10-05 00:00:00,956.75,-55.75,39.93,1923-10-05 00:00:00,1003.56,-66.22,26.03,1923-10-14 06:00:00,950.01,-13.73,58.1,1003.56,-66.22,26.03,1923-10-11 00:00:00,953.03,-54.06,40.58,1923-10-13 18:00:00,942.84,-23.87,54.92
163,TC192313,Dawn,1201,A,0,1923-11-16 18:00:00,962.36,-59.35,40.37,1923-11-16 18:00:00,1923-11-16 18:00:00,962.36,-59.35,40.37,1923-11-16 00:00:00,971.6,-65.57,37.47,1923-11-20 18:00:00,991.09,-31.75,50.25,962.36,-59.35,40.37,,,,,,,,
164,TC192314,Ernest,1205,A,2,1923-11-25 06:00:00,953.02,-35.78,51.84,1923-11-21 06:00:00,1923-11-19 18:00:00,958.11,-54.3,42.38,1923-11-19 18:00:00,968.57,-68.29,38.91,1923-11-26 06:00:00,963.27,-24.5,54.25,968.57,-68.29,38.91,1923-11-22 06:00:00,967.93,-48.02,42.85,1923-11-26 06:00:00,963.27,-24.5,54.25
165,TC192402,Flavia,1216,A,0,1924-01-20 18:00:00,972.39,-62.88,37.63,1924-01-20 18:00:00,1924-01-20 06:00:00,972.39,-62.88,37.63,1924-01-20 06:00:00,974.35,-64.91,37.49,1924-01-22 06:00:00,983.98,-68.64,39.63,974.35,-64.91,37.49,,,,,,,,
166,TC192403,Harrison,1217,A,0,1924-01-29 18:00:00,951.72,-47.96,41.86,1924-01-29 18:00:00,1924-01-29 18:00:00,951.72,-47.96,41.86,1924-01-28 12:00:00,974.99,-63.28,36.79,1924-02-01 18:00:00,966.21,-11.5,53.0,951.72,-47.96,41.86,,,,,,,,
167,TC192404,Janet,1230,A,0,1924-05-25 12:00:00,956.81,-86.4,29.65,1924-05-25 12:00:00,1924-05-18 18:00:00,956.81,-86.4,29.65,1924-05-18 18:00:00,1009.15,-86.7,17.8,1924-05-28 00:00:00,1006.14,-82.5,41.5,1009.15,-86.7,17.8,,,,,,,,
168,TC192407,Kinen,1243,A,0,1924-08-27 12:00:00,935.8,-90.5,28.59,1924-08-27 12:00:00,1924-08-23 12:00:00,935.8,-90.5,28.59,1924-08-23 12:00:00,1007.71,-72.77,21.26,1924-08-29 18:00:00,1002.62,-97.35,31.81,1007.71,-72.77,21.26,,,,,,,,
169,TC192409,Lydia,1246,A,0,1924-09-13 18:00:00,987.01,-72.72,17.13,1924-09-13 18:00:00,1924-09-09 18:00:00,987.01,-72.72,17.13,1924-09-09 18:00:00,1009.95,-49.36,11.08,1924-09-17 12:00:00,1009.82,-88.75,29.25,1009.95,-49.36,11.08,,,,,,,,
170,TC192410,Mario,1247,A,2,1924-09-24 06:00:00,942.58,-45.31,32.65,1924-09-24 06:00:00,1924-09-17 18:00:00,942.58,-45.31,32.65,1924-09-17 18:00:00,1007.91,-18.53,15.39,1924-09-27 00:00:00,983.24,-29.19,57.07,1007.91,-18.53,15.39,1924-09-24 12:00:00,949.81,-44.61,34.48,1924-09-27 00:00:00,983.24,-29.19,57.07
171,TC192411,Nicole,1250,A,0,1924-10-06 06:00:00,997.3,-21.47,17.36,1924-10-06 06:00:00,1924-10-03 18:00:00,997.3,-21.47,17.36,1924-10-03 18:00:00,1008.29,-16.08,13.7,1924-10-08 18:00:00,1011.58,-28.75,22.0,1008.29,-16.08,13.7,,,,,,,,
172,TC192412,Quinn,1254,A,0,1924-10-15 18:00:00,945.83,-45.86,30.04,1924-10-15 18:00:00,1924-10-11 00:00:00,945.83,-45.86,30.04,1924-10-11 00:00:00,1012.16,-34.0,27.69,1924-10-19 18:00:00,1009.64,-48.5,38.0,1012.16,-34.0,27.69,,,,,,,,
173,TC192413,Stephanie,1257,A,2,1924-10-26 18:00:00,924.72,-66.6,23.39,1924-10-26 18:00:00,1924-10-19 06:00:00,924.72,-66.6,23.39,1924-10-18 12:00:00,1006.28,-28.09,8.93,1924-11-01 18:00:00,986.9,-24.59,44.25,1007.18,-32.4,10.15,1924-10-27 18:00:00,945.71,-65.35,24.37,1924-11-01 00:00:00,973.36,-39.69,46.23
174,TC192501,Tony,1282,A,0,1925-08-05 18:00:00,977.5,-86.36,27.65,1925-08-05 18:00:00,1925-08-03 00:00:00,977.5,-86.36,27.65,1925-08-03 00:00:00,1010.55,-77.82,22.88,1925-08-09 18:00:00,1012.86,-83.04,36.34,1010.55,-77.82,22.88,,,,,,,,
175,TC192502,Winnie,1283,A,2,1925-08-13 06:00:00,943.45,-49.91,25.33,1925-08-13 06:00:00,1925-08-08 06:00:00,943.45,-49.91,25.33,1925-08-04 00:00:00,1011.27,-26.46,7.83,1925-08-19 12:00:00,994.22,-20.5,54.75,995.37,-33.92,13.82,1925-08-16 12:00:00,952.42,-49.06,41.15,1925-08-18 12:00:00,988.18,-28.62,52.0
176,TC192505,Audrey,1287,A,0,1925-09-12 12:00:00,896.54,-93.68,26.92,1925-09-12 12:00:00,1925-09-03 06:00:00,896.54,-93.68,26.92,1925-09-02 12:00:00,1004.96,-41.24,10.83,1925-09-14 06:00:00,992.68,-99.8,29.68,1006.79,-44.7,13.6,,,,,,,,
177,TC192506,Brandon,1288,A,2,1925-09-17 06:00:00,959.18,-48.63,40.06,1925-09-17 06:00:00,1925-09-07 12:00:00,959.18,-48.63,40.06,1925-09-07 12:00:00,1007.95,-41.12,13.49,1925-09-23 18:00:00,1008.43,-19.75,48.25,1007.95,-41.12,13.49,1925-09-22 00:00:00,1000.65,-28.75,50.75,1925-09-22 06:00:00,1001.75,-27.25,50.75
178,TC192507,Christine,1289,A,2,1925-10-14 06:00:00,939.76,-57.23,41.86,1925-10-04 06:00:00,1925-09-25 12:00:00,957.21,-56.74,22.72,1925-09-25 12:00:00,1008.43,-26.96,12.05,1925-10-16 00:00:00,999.53,-49.42,58.67,1008.43,-26.96,12.05,1925-10-10 06:00:00,983.22,-65.78,25.4,1925-10-15 00:00:00,967.75,-52.43,51.05
179,TC192509,David,1301,A,1,1925-11-25 00:00:00,962.65,-51.71,41.43,1925-11-25 00:00:00,1925-11-16 00:00:00,962.65,-51.71,41.43,1925-11-16 00:00:00,1004.8,-77.61,12.46,1925-11-30 12:00:00,1002.0,-26.25,35.0,1004.8,-77.61,12.46,1925-11-30 00:00:00,1000.63,-27.0,36.5,,,,
180,TC192510,Elyse,1303,A,1,1925-12-05 18:00:00,992.62,-26.02,39.46,1925-12-03 06:00:00,1925-12-01 00:00:00,995.03,-28.72,35.96,1925-12-01 00:00:00,1001.69,-24.62,33.65,1925-12-06 00:00:00,993.76,-26.79,37.5,1001.69,-24.62,33.65,1925-12-03 18:00:00,994.76,-27.08,34.71,,,,
181,TC192601,Frederick,1310,A,1,1926-02-08 00:00:00,955.95,-46.93,40.25,1926-02-08 00:00:00,1926-02-08 00:00:00,955.95,-46.93,40.25,1926-02-08 00:00:00,955.95,-46.93,40.25,1926-02-11 12:00:00,975.25,-8.77,55.85,955.95,-46.93,40.25,1926-02-11 06:00:00,975.09,-7.71,54.49,,,,
182,TC192602,Hope,1325,A,1,1926-05-29 18:00:00,973.0,-69.78,34.37,1926-05-29 18:00:00,1926-05-24 00:00:00,973.0,-69.78,34.37,1926-05-24 00:00:00,1007.69,-84.62,15.36,1926-05-31 12:00:00,988.74,-44.5,52.0,1007.69,-84.62,15.36,1926-05-30 18:00:00,982.15,-58.09,44.29,,,,
183,TC192604,Jacob,1339,A,0,1926-09-04 18:00:00,993.54,-37.38,23.47,1926-09-04 18:00:00,1926-09-01 12:00:00,993.54,-37.38,23.47,1926-09-01 12:00:00,1009.39,-26.48,15.7,1926-09-08 12:00:00,1011.13,-35.17,30.64,1009.39,-26.48,15.7,,,,,,,,
184,TC192607,Katrina,1347,A,2,1926-10-04 06:00:00,967.24,-72.38,31.57,1926-10-04 06:00:00,1926-09-29 12:00:00,967.24,-72.38,31.57,1926-09-29 12:00:00,1000.76,-78.58,17.31,1926-10-08 18:00:00,996.12,-76.19,45.51,1000.76,-78.58,17.31,1926-10-07 06:00:00,979.17,-73.86,40.1,1926-10-07 12:00:00,986.12,-74.56,41.6
185,TC192610,Luke,1360,A,1,1926-12-24 18:00:00,993.03,-26.5,42.44,1926-12-20 06:00:00,1926-12-19 18:00:00,995.7,-40.71,31.65,1926-12-19 18:00:00,997.12,-41.65,30.55,1926-12-25 12:00:00,993.68,-25.52,46.78,997.12,-41.65,30.55,1926-12-24 00:00:00,999.19,-28.68,37.35,,,,
186,TC192701,Maho,1378,A,2,1927-06-10 06:00:00,956.22,-84.24,27.52,1927-06-10 06:00:00,1927-06-03 00:00:00,956.22,-84.24,27.52,1927-06-03 00:00:00,1008.66,-84.05,16.22,1927-06-13 12:00:00,1007.57,-53.25,49.5,1008.66,-84.05,16.22,1927-06-10 18:00:00,976.11,-82.09,32.02,1927-06-11 12:00:00,990.09,-77.72,40.27
187,TC192703,Nicholas,1393,A,1,1927-09-14 06:00:00,929.05,-53.24,31.15,1927-09-14 06:00:00,1927-09-06 12:00:00,929.05,-53.24,31.15,1927-09-05 18:00:00,1010.46,-25.79,15.65,1927-09-25 06:00:00,968.19,-45.98,45.96,1006.89,-32.4,15.24,1927-09-24 12:00:00,971.46,-52.36,40.39,,,,
188,TC192704,Queenie,1394,A,2,1927-09-14 18:00:00,986.42,-54.75,51.75,1927-09-13 00:00:00,1927-09-10 18:00:00,998.48,-71.24,40.03,1927-09-09 00:00:00,1011.62,-73.46,35.84,1927-09-14 18:00:00,986.42,-54.75,51.75,1006.77,-71.35,36.22,1927-09-13 12:00:00,1000.18,-69.62,41.87,1927-09-13 12:00:00,1000.18,-69.62,41.87
189,TC192705,Samson,1397,A,0,1927-10-09 18:00:00,934.06,-53.78,28.39,1927-10-09 18:00:00,1927-09-25 06:00:00,934.06,-53.78,28.39,1927-09-25 06:00:00,1006.06,-15.79,12.61,1927-10-17 06:00:00,1001.85,-25.75,44.75,1006.06,-15.79,12.61,,,,,,,,
190,TC192706,Tiffany,1400,A,1,1927-10-03 06:00:00,975.64,-74.06,28.59,1927-10-03 06:00:00,1927-10-02 18:00:00,975.64,-74.06,28.59,1927-10-02 18:00:00,994.7,-70.77,29.17,1927-10-08 00:00:00,1005.83,-89.0,44.0,994.7,-70.77,29.17,1927-10-07 06:00:00,1004.14,-89.76,39.22,,,,
191,TC192801,William,1415,A,0,1928-01-27 18:00:00,988.74,-23.64,35.83,1928-01-27 18:00:00,1928-01-27 12:00:00,988.74,-23.64,35.83,1928-01-27 12:00:00,990.37,-22.97,35.14,1928-02-01 18:00:00,1009.87,-28.0,37.0,990.37,-22.97,35.14,,,,,,,,
192,TC192802,Andy,1416,A,2,1928-02-05 06:00:00,998.09,-35.19,36.46,1928-02-05 06:00:00,1928-02-03 06:00:00,998.09,-35.19,36.46,1928-02-03 06:00:00,1011.39,-37.32,38.34,1928-02-07 12:00:00,1006.9,-16.25,41.5,1011.39,-37.32,38.34,1928-02-06 00:00:00,999.63,-31.01,38.29,1928-02-06 06:00:00,999.02,-28.74,38.72
193,TC192803,Bonnie,1418,A,1,1928-02-07 06:00:00,988.54,-47.36,34.09,1928-02-07 06:00:00,1928-02-06 06:00:00,988.54,-47.36,34.09,1928-02-06 06:00:00,1002.34,-44.48,37.88,1928-02-11 12:00:00,1006.42,-41.0,36.25,1002.34,-44.48,37.88,1928-02-10 18:00:00,1000.78,-47.75,35.5,,,,
194,TC192804,Charlie,1438,A,0,1928-08-24 12:00:00,993.19,-74.09,38.04,1928-08-24 12:00:00,1928-08-19 18:00:00,993.19,-74.09,38.04,1928-08-19 18:00:00,1012.45,-67.61,29.94,1928-08-26 18:00:00,1011.58,-60.0,45.25,1012.45,-67.61,29.94,,,,,,,,
195,TC192805,Demi,1441,A,2,1928-09-07 00:00:00,980.43,-49.24,32.21,1928-09-07 00:00:00,1928-08-31 06:00:00,980.43,-49.24,32.21,1928-08-29 12:00:00,1010.37,-22.09,13.5,1928-09-09 12:00:00,993.0,-15.0,50.5,1006.0,-30.02,13.87,1928-09-07 06:00:00,984.68,-48.37,33.35,1928-09-08 12:00:00,987.91,-35.17,42.45
196,TC192807,Erik,1444,A,0,1928-09-09 18:00:00,910.19,-76.36,28.6,1928-09-09 18:00:00,1928-09-04 12:00:00,910.19,-76.36,28.6,1928-09-04 12:00:00,1010.28,-79.29,23.88,1928-09-17 12:00:00,1003.38,-74.65,40.58,1010.28,-79.29,23.88,,,,,,,,
197,TC192808,Frances,1445,A,2,1928-09-13 06:00:00,990.7,-21.25,51.0,1928-09-09 18:00:00,1928-09-06 18:00:00,998.54,-45.95,35.61,1928-09-06 18:00:00,1005.24,-56.87,27.17,1928-09-13 06:00:00,990.7,-21.25,51.0,1005.24,-56.87,27.17,1928-09-12 06:00:00,1009.08,-39.5,44.0,1928-09-12 12:00:00,1008.35,-37.5,45.75
198,TC192809,Hubert,1447,A,2,1928-09-22 00:00:00,934.4,-63.31,32.34,1928-09-20 12:00:00,1928-09-15 12:00:00,961.85,-68.34,28.6,1928-09-15 12:00:00,1012.15,-65.72,26.32,1928-09-27 18:00:00,989.96,-43.0,53.5,1012.15,-65.72,26.32,1928-09-21 06:00:00,961.07,-66.39,30.4,1928-09-27 00:00:00,1001.36,-41.0,47.0
199,TC192810,Julie,1449,A,2,1928-10-04 12:00:00,943.04,-25.39,44.35,1928-09-21 18:00:00,1928-09-18 12:00:00,944.88,-37.45,17.34,1928-09-18 12:00:00,1002.76,-20.48,10.66,1928-10-07 00:00:00,967.0,3.56,59.16,1002.76,-20.48,10.66,1928-10-02 00:00:00,957.08,-49.33,34.98,1928-10-06 06:00:00,953.44,-4.99,54.93
200,TC192811,Keith,1450,A,0,1928-10-12 00:00:00,926.83,-52.84,30.49,1928-10-12 00:00:00,1928-09-24 00:00:00,926.83,-52.84,30.49,1928-09-22 18:00:00,1008.3,-11.65,12.1,1928-10-26 06:00:00,995.55,-43.0,46.0,1007.6,-14.96,13.95,,,,,,,,
201,TC192902,Lily,1486,A,2,1929-09-19 18:00:00,953.02,-38.61,31.2,1929-09-19 18:00:00,1929-09-12 18:00:00,953.02,-38.61,31.2,1929-09-12 18:00:00,1006.07,-26.67,13.69,1929-09-28 06:00:00,1011.82,-11.25,46.0,1006.07,-26.67,13.69,1929-09-27 00:00:00,1000.11,-21.27,47.2,1929-09-27 18:00:00,1007.69,-15.5,47.25
202,TC192903,Marc,1487,A,1,1929-09-20 12:00:00,995.22,-52.41,42.82,1929-09-20 12:00:00,1929-09-15 12:00:00,995.22,-52.41,42.82,1929-09-15 12:00:00,1012.3,-56.65,26.8,1929-09-21 18:00:00,1002.2,-41.75,54.0,1012.3,-56.65,26.8,1929-09-21 12:00:00,1001.76,-43.5,52.0,,,,
203,TC192904,Noelle,1490,A,0,1929-09-28 12:00:00,962.35,-43.16,36.51,1929-09-28 12:00:00,1929-09-19 18:00:00,962.35,-43.16,36.51,1929-09-19 18:00:00,1002.23,-35.8,11.05,1929-10-03 00:00:00,989.59,-15.75,54.5,1002.23,-35.8,11.05,,,,,,,,
204,TC193001,Rocco,0024,B,0,1930-06-25 06:00:00,987.41,-84.91,29.95,1930-06-25 06:00:00,1930-06-20 18:00:00,987.41,-84.91,29.95,1930-06-20 18:00:00,1012.62,-83.53,27.86,1930-07-03 06:00:00,1011.32,-90.31,37.05,1012.62,-83.53,27.86,,,,,,,,
205,TC193002,Shannon,0027,B,2,1930-08-14 06:00:00,887.54,-70.56,27.22,1930-08-14 06:00:00,1930-08-09 06:00:00,887.54,-70.56,27.22,1930-08-09 06:00:00,1006.0,-41.87,12.78,1930-08-20 12:00:00,995.22,-54.32,55.53,1006.0,-41.87,12.78,1930-08-19 00:00:00,983.87,-61.04,53.13,1930-08-19 12:00:00,988.97,-59.94,54.78
206,TC193003,Thomas,0029,B,2,1930-09-19 12:00:00,934.83,-70.67,39.42,1930-09-15 18:00:00,1930-09-10 00:00:00,943.73,-77.15,24.55,1930-09-10 00:00:00,1012.26,-33.72,12.32,1930-09-22 18:00:00,982.39,-48.13,56.11,1012.26,-33.72,12.32,1930-09-18 00:00:00,952.06,-77.17,31.14,1930-09-20 12:00:00,979.68,-62.68,47.61
207,TC193004,Wendy,0046,B,2,1930-11-04 00:00:00,948.88,-91.58,20.7,1930-11-04 00:00:00,1930-10-29 06:00:00,948.88,-91.58,20.7,1930-10-29 06:00:00,1007.17,-82.96,19.14,1930-11-09 06:00:00,1007.87,-24.0,44.75,1007.17,-82.96,19.14,1930-11-05 12:00:00,954.74,-87.08,27.0,1930-11-06 12:00:00,992.74,-74.44,30.88
208,TC193005,Anna,0048,B,2,1930-11-06 18:00:00,988.17,-20.93,46.12,1930-11-05 00:00:00,1930-11-02 12:00:00,994.44,-32.46,35.66,1930-11-01 00:00:00,1001.78,-36.21,27.73,1930-11-08 06:00:00,1001.62,-6.5,44.25,1006.47,-32.93,35.75,1930-11-06 00:00:00,996.02,-27.73,41.42,1930-11-08 00:00:00,998.22,-9.0,45.0
209,TC193101,Bryan,0077,B,1,1931-05-22 18:00:00,962.99,-86.73,26.6,1931-05-22 18:00:00,1931-05-17 06:00:00,962.99,-86.73,26.6,1931-05-17 06:00:00,998.32,-77.01,16.56,1931-05-25 00:00:00,1010.66,-81.5,35.0,998.32,-77.01,16.56,1931-05-24 12:00:00,1000.16,-82.33,33.11,,,,
210,TC193102,Cissy,0078,B,2,1931-05-27 06:00:00,980.89,-51.83,25.92,1931-05-27 06:00:00,1931-05-24 12:00:00,980.89,-51.83,25.92,1931-05-24 12:00:00,1012.53,-51.39,24.67,1931-05-31 00:00:00,1012.31,-34.25,23.75,1012.53,-51.39,24.67,1931-05-28 12:00:00,991.56,-43.71,30.04,1931-05-30 18:00:00,1008.78,-34.75,24.0
211,TC193104,Dominic,0088,B,0,1931-09-13 06:00:00,998.95,-56.51,42.98,1931-09-13 06:00:00,1931-09-09 06:00:00,998.95,-56.51,42.98,1931-09-09 06:00:00,1011.58,-67.71,28.73,1931-09-15 18:00:00,1002.47,-47.75,50.5,1011.58,-67.71,28.73,,,,,,,,
212,TC193105,Esther,0089,B,2,1931-09-24 00:00:00,913.33,-60.97,29.81,1931-09-24 00:00:00,1931-09-12 12:00:00,913.33,-60.97,29.81,1931-09-11 18:00:00,1006.33,-18.17,13.59,1931-10-01 00:00:00,970.46,-37.11,57.94,1004.28,-23.57,13.44,1931-09-27 12:00:00,953.76,-53.37,39.19,1931-09-30 18:00:00,970.25,-38.77,55.68
213,TC193106,Frank,0090,B,2,1931-09-22 12:00:00,988.8,-74.39,39.5,1931-09-21 18:00:00,1931-09-19 06:00:00,994.66,-79.34,34.42,1931-09-19 06:00:00,1008.53,-78.71,26.19,1931-09-23 18:00:00,1007.97,-57.75,48.0,1008.53,-78.71,26.19,1931-09-22 00:00:00,993.69,-78.47,35.78,1931-09-22 18:00:00,991.98,-71.2,41.68
214,TC193107,Helena,0095,B,0,1931-10-05 18:00:00,974.56,-72.08,36.71,1931-10-06 06:00:00,1931-10-06 06:00:00,976.12,-72.49,37.82,1931-10-04 12:00:00,1006.2,-74.9,31.78,1931-10-13 18:00:00,1010.34,-20.25,44.5,976.12,-72.49,37.82,,,,,,,,
215,TC193109,John,0108,B,2,1931-12-11 06:00:00,942.03,-48.79,45.54,1931-12-11 12:00:00,1931-12-11 12:00:00,944.4,-46.99,44.14,1931-12-10 12:00:00,967.34,-43.73,44.24,1931-12-14 18:00:00,975.85,-25.0,52.0,944.4,-46.99,44.14,1931-12-14 00:00:00,975.2,-32.75,47.0,1931-12-14 06:00:00,975.97,-30.25,47.75
216,TC193202,Kannas,0119,B,1,1932-02-28 06:00:00,982.6,-36.83,34.55,1932-02-27 06:00:00,1932-02-24 00:00:00,985.6,-45.17,28.7,1932-02-24 00:00:00,1000.36,-53.91,25.38,1932-02-28 18:00:00,983.54,-32.46,38.71,1000.36,-53.91,25.38,1932-02-27 18:00:00,983.75,-41.97,31.22,,,,
217,TC193203,Lomy,0131,B,2,1932-07-17 12:00:00,985.86,-65.64,36.71,1932-07-17 00:00:00,1932-07-14 18:00:00,991.46,-70.85,34.4,1932-07-14 18:00:00,1012.15,-77.36,30.91,1932-07-20 06:00:00,1012.72,-23.5,44.5,1012.15,-77.36,30.91,1932-07-17 06:00:00,986.01,-68.16,35.32,1932-07-19 06:00:00,1006.04,-36.25,46.25
218,TC193204,Mandy,0132,B,2,1932-07-18 18:00:00,982.74,-66.85,34.65,1932-07-18 18:00:00,1932-07-15 18:00:00,982.74,-66.85,34.65,1932-07-15 18:00:00,1009.72,-88.55,28.98,1932-07-21 06:00:00,1011.21,-50.53,42.86,1009.72,-88.55,28.98,1932-07-19 18:00:00,998.56,-57.66,41.76,1932-07-21 00:00:00,1008.07,-54.18,41.82
219,TC193205,Nathan,0133,B,2,1932-08-09 00:00:00,937.59,-71.89,30.96,1932-08-09 00:00:00,1932-07-31 06:00:00,937.59,-71.89,30.96,1932-07-31 06:00:00,1012.44,-39.55,16.66,1932-08-12 00:00:00,996.02,-36.25,54.0,1012.44,-39.55,16.66,1932-08-09 18:00:00,937.69,-68.53,35.77,1932-08-11 06:00:00,989.14,-55.91,49.81
220,TC193209,Rosalina,0154,B,1,1932-10-27 06:00:00,985.57,-49.05,42.31,1932-10-28 06:00:00,1932-10-28 00:00:00,986.85,-46.3,43.56,1932-10-27 00:00:00,991.61,-49.62,41.55,1932-10-30 06:00:00,995.88,-37.0,54.0,988.57,-47.22,43.3,1932-10-30 00:00:00,994.75,-37.75,51.75,,,,
221,TC193301,Samuel,0175,B,1,1933-04-10 06:00:00,975.1,-49.3,42.23,1933-04-10 06:00:00,1933-04-08 12:00:00,975.1,-49.3,42.23,1933-04-07 06:00:00,1005.83,-75.6,37.32,1933-04-12 06:00:00,983.85,-30.75,54.75,985.81,-57.73,38.26,1933-04-11 18:00:00,982.11,-35.0,50.5,,,,
222,TC193302,Tatiana,0178,B,0,1933-05-11 06:00:00,976.11,-61.38,37.08,1933-05-11 06:00:00,1933-05-11 00:00:00,976.11,-61.38,37.08,1933-05-11 00:00:00,978.33,-63.14,36.61,1933-05-14 06:00:00,1012.27,-50.75,47.25,978.33,-63.14,36.61,,,,,,,,
223,TC193303,Wilson,0182,B,2,1933-06-08 12:00:00,963.85,-52.67,36.61,1933-06-08 12:00:00,1933-05-31 06:00:00,963.85,-52.67,36.61,1933-05-31 06:00:00,1007.01,-69.62,28.97,1933-06-10 18:00:00,1012.75,-34.5,50.5,1007.01,-69.62,28.97,1933-06-09 12:00:00,987.58,-46.5,41.73,1933-06-10 00:00:00,1002.57,-42.68,44.83
224,TC193305,Aidan,0190,B,2,1933-08-19 18:00:00,938.15,-73.46,22.59,1933-08-19 18:00:00,1933-08-10 18:00:00,938.15,-73.46,22.59,1933-08-10 00:00:00,1012.06,-26.14,8.54,1933-08-28 06:00:00,990.86,-74.25,54.0,1008.01,-29.62,7.98,1933-08-27 00:00:00,1003.11,-84.78,42.99,1933-08-27 00:00:00,1003.11,-84.78,42.99
225,TC193306,Bella,0191,B,2,1933-08-31 18:00:00,919.77,-63.84,32.06,1933-08-31 18:00:00,1933-08-26 18:00:00,919.77,-63.84,32.06,1933-08-26 12:00:00,1010.7,-50.51,14.19,1933-09-09 12:00:00,973.73,-17.06,52.59,1009.69,-52.19,14.58,1933-09-02 00:00:00,944.63,-62.08,35.62,1933-09-09 12:00:00,973.73,-17.06,52.59
226,TC193307,Carson,0201,B,2,1933-11-19 12:00:00,987.84,-37.11,46.19,1933-11-18 12:00:00,1933-11-16 00:00:00,990.79,-49.67,35.08,1933-11-16 00:00:00,1008.56,-53.4,30.24,1933-11-19 18:00:00,993.65,-31.25,51.0,1008.56,-53.4,30.24,1933-11-18 18:00:00,991.45,-47.91,36.75,1933-11-19 00:00:00,994.35,-45.24,39.2
227,TC193401,Dorcas,0223,B,2,1934-04-30 18:00:00,986.34,-53.79,46.05,1934-04-27 00:00:00,1934-04-27 00:00:00,993.41,-68.9,31.64,1934-04-25 06:00:00,1005.96,-72.65,26.06,1934-05-02 06:00:00,1011.64,-22.0,53.5,993.41,-68.9,31.64,1934-04-30 06:00:00,990.85,-58.9,40.8,1934-04-30 18:00:00,986.34,-53.79,46.05
228,TC193405,Erling,0236,B,2,1934-08-23 00:00:00,902.56,-77.0,23.08,1934-08-23 00:00:00,1934-08-15 06:00:00,902.56,-77.0,23.08,1934-08-15 06:00:00,1008.96,-31.28,13.0,1934-08-29 12:00:00,980.92,-46.25,54.0,1008.96,-31.28,13.0,1934-08-27 06:00:00,996.79,-82.75,38.94,1934-08-28 06:00:00,996.8,-71.46,45.3
229,TC193406,Grace,0239,B,2,1934-09-09 06:00:00,930.07,-50.7,27.25,1934-09-09 06:00:00,1934-08-31 06:00:00,930.07,-50.7,27.25,1934-08-31 06:00:00,1003.82,-18.96,15.43,1934-09-15 18:00:00,980.3,-1.75,56.5,1003.82,-18.96,15.43,1934-09-11 12:00:00,951.4,-53.53,37.47,1934-09-15 00:00:00,971.99,-16.23,50.35
230,TC193407,Hendrik,0248,B,2,1934-11-05 00:00:00,957.9,-60.76,41.72,1934-11-04 18:00:00,1934-11-01 00:00:00,961.07,-61.97,39.18,1934-10-30 18:00:00,1007.68,-71.18,27.08,1934-11-05 18:00:00,979.08,-64.57,52.73,987.31,-62.78,34.39,1934-11-05 00:00:00,957.9,-60.76,41.72,1934-11-05 18:00:00,979.08,-64.57,52.73
231,TC193501,Jana,0254,B,1,1935-01-07 12:00:00,975.23,-7.25,46.5,1935-01-03 00:00:00,1935-01-03 00:00:00,979.6,-28.1,32.91,1935-01-03 00:00:00,979.6,-28.1,32.91,1935-01-07 12:00:00,975.23,-7.25,46.5,979.6,-28.1,32.91,1935-01-06 06:00:00,986.28,-13.12,45.74,,,,
232,TC193503,Kevin,0267,B,2,1935-06-03 00:00:00,926.29,-83.44,26.25,1935-06-03 00:00:00,1935-05-27 18:00:00,926.29,-83.44,26.25,1935-05-27 18:00:00,1004.33,-86.52,20.72,1935-06-10 18:00:00,991.53,-1.5,50.25,1004.33,-86.52,20.72,1935-06-04 12:00:00,955.13,-76.67,31.76,1935-06-09 00:00:00,986.18,-36.37,45.4
233,TC193506,Laura,0280,B,1,1935-09-09 00:00:00,920.79,-70.38,27.34,1935-09-09 00:00:00,1935-08-30 06:00:00,920.79,-70.38,27.34,1935-08-30 06:00:00,1008.13,-34.11,13.39,1935-09-19 18:00:00,993.04,-35.0,52.0,1008.13,-34.11,13.39,1935-09-18 12:00:00,973.92,-47.51,45.34,,,,
234,TC193507,Manuel,0282,B,0,1935-09-08 12:00:00,962.2,-83.74,28.94,1935-09-08 12:00:00,1935-09-04 06:00:00,962.2,-83.74,28.94,1935-09-04 06:00:00,1012.21,-74.79,24.4,1935-09-12 00:00:00,1006.14,-86.25,38.0,1012.21,-74.79,24.4,,,,,,,,
235,TC193510,Olivia,0288,B,2,1935-09-25 18:00:00,969.88,-58.33,31.37,1935-09-25 18:00:00,1935-09-19 00:00:00,969.88,-58.33,31.37,1935-09-19 00:00:00,1010.93,-43.73,24.42,1935-09-29 18:00:00,1000.46,-48.75,49.5,1010.93,-43.73,24.42,1935-09-29 00:00:00,998.3,-56.5,41.75,1935-09-29 06:00:00,999.23,-55.0,44.0
236,TC193511,Rayan,0290,B,1,1935-10-11 00:00:00,964.45,-85.03,28.11,1935-10-11 00:00:00,1935-10-07 00:00:00,964.45,-85.03,28.11,1935-10-07 00:00:00,1004.81,-81.88,13.82,1935-10-12 18:00:00,999.83,-87.0,35.0,1004.81,-81.88,13.82,1935-10-11 06:00:00,969.63,-85.48,29.45,,,,
237,TC193512,Shirley,0291,B,0,1935-10-12 00:00:00,990.74,-23.5,12.39,1935-10-12 00:00:00,1935-10-10 18:00:00,990.74,-23.5,12.39,1935-10-10 12:00:00,1007.29,-16.47,12.34,1935-10-15 18:00:00,1006.15,-28.0,20.25,1006.18,-18.13,13.41,,,,,,,,
238,TC193601,Tijjani,0304,B,0,1936-01-19 18:00:00,949.16,-27.76,44.95,1936-01-19 18:00:00,1936-01-19 12:00:00,949.16,-27.76,44.95,1936-01-18 18:00:00,969.56,-37.57,38.28,1936-01-23 12:00:00,983.36,9.25,52.25,951.86,-30.11,43.61,,,,,,,,
239,TC193604,Yui,0315,B,1,1936-03-18 12:00:00,974.34,-52.05,35.21,1936-03-18 12:00:00,1936-03-16 12:00:00,974.34,-52.05,35.21,1936-03-16 12:00:00,985.64,-58.85,32.04,1936-03-20 18:00:00,988.61,-40.63,54.73,985.64,-58.85,32.04,1936-03-20 06:00:00,988.17,-46.05,51.26,,,,
240,TC193605,Alissa,0325,B,0,1936-06-24 06:00:00,973.89,-97.4,28.21,1936-06-24 06:00:00,1936-06-18 00:00:00,973.89,-97.4,28.21,1936-06-18 00:00:00,1009.76,-86.8,20.73,1936-06-24 12:00:00,974.42,-98.48,28.88,1009.76,-86.8,20.73,,,,,,,,
241,TC193607,Benjamin,0335,B,2,1936-09-07 06:00:00,936.34,-56.0,29.29,1936-09-07 06:00:00,1936-09-01 06:00:00,936.34,-56.0,29.29,1936-09-01 06:00:00,1004.8,-16.59,11.9,1936-09-10 12:00:00,996.65,-41.07,53.63,1004.8,-16.59,11.9,1936-09-09 12:00:00,956.8,-56.62,42.1,1936-09-10 06:00:00,994.07,-46.11,50.49
242,TC193608,Carmen,0337,B,2,1936-09-16 18:00:00,973.29,-93.57,30.02,1936-09-16 18:00:00,1936-09-14 12:00:00,973.29,-93.57,30.02,1936-09-14 12:00:00,1002.75,-95.56,23.5,1936-09-20 00:00:00,1012.03,-81.5,40.0,1002.75,-95.56,23.5,1936-09-18 00:00:00,998.74,-89.45,34.22,1936-09-18 18:00:00,999.41,-85.86,36.69
243,TC193610,Daniel,0340,B,1,1936-09-27 18:00:00,925.0,-54.49,26.37,1936-09-27 18:00:00,1936-09-23 18:00:00,925.0,-54.49,26.37,1936-09-23 18:00:00,1006.71,-39.9,13.88,1936-10-13 18:00:00,1000.95,-4.11,38.78,1006.71,-39.9,13.88,1936-10-10 12:00:00,982.69,-22.32,42.23,,,,
244,TC193611,Emily,0344,B,2,1936-10-14 12:00:00,930.56,-71.98,28.13,1936-10-14 12:00:00,1936-10-10 00:00:00,930.56,-71.98,28.13,1936-10-10 00:00:00,1008.48,-69.67,23.28,1936-10-20 18:00:00,980.17,-62.5,51.75,1008.48,-69.67,23.28,1936-10-19 06:00:00,995.34,-72.7,38.9,1936-10-19 06:00:00,995.34,-72.7,38.9
245,TC193613,Geoffrey,0359,B,2,1936-12-27 06:00:00,977.29,-25.25,48.93,1936-12-26 06:00:00,1936-12-21 00:00:00,989.37,-31.53,34.64,1936-12-20 06:00:00,1004.0,-33.96,23.57,1936-12-27 12:00:00,978.44,-20.23,53.01,997.64,-33.48,29.35,1936-12-26 12:00:00,987.9,-30.87,37.23,1936-12-27 12:00:00,978.44,-20.23,53.01
246,TC193701,Hazel,0362,B,2,1937-01-09 06:00:00,977.15,-37.9,37.45,1937-01-09 06:00:00,1937-01-07 12:00:00,977.15,-37.9,37.45,1937-01-07 12:00:00,980.55,-49.22,37.67,1937-01-12 06:00:00,997.28,-29.5,25.25,980.55,-49.22,37.67,1937-01-11 00:00:00,997.1,-34.5,31.25,1937-01-11 00:00:00,997.1,-34.5,31.25
247,TC193702,Joshua,0363,B,2,1937-01-14 18:00:00,993.12,-25.65,36.16,1937-01-14 18:00:00,1937-01-13 18:00:00,993.12,-25.65,36.16,1937-01-13 18:00:00,996.13,-23.09,30.58,1937-01-18 06:00:00,1012.64,-30.75,27.25,996.13,-23.09,30.58,1937-01-16 12:00:00,996.71,-40.93,33.55,1937-01-16 18:00:00,997.21,-40.5,31.75
248,TC193707,Kelly,0374,B,2,1937-03-14 18:00:00,985.73,-62.16,34.95,1937-03-14 18:00:00,1937-03-14 18:00:00,985.73,-62.16,34.95,1937-03-14 18:00:00,985.73,-62.16,34.95,1937-03-20 06:00:00,1008.31,-19.75,34.5,985.73,-62.16,34.95,1937-03-20 06:00:00,1008.31,-19.75,34.5,1937-03-20 06:00:00,1008.31,-19.75,34.5
249,TC193708,Luca,0381,B,0,1937-05-04 18:00:00,983.01,-39.04,48.92,1937-05-04 18:00:00,1937-05-04 18:00:00,983.01,-39.04,48.92,1937-05-02 06:00:00,1001.79,-59.96,23.39,1937-05-06 12:00:00,990.0,-15.75,54.5,983.01,-39.04,48.92,,,,,,,,
250,TC193709,Mary,0390,B,0,1937-09-09 00:00:00,958.97,-82.19,15.55,1937-09-09 00:00:00,1937-09-01 00:00:00,958.97,-82.19,15.55,1937-09-01 00:00:00,1003.06,-30.57,11.51,1937-09-11 18:00:00,1000.44,-94.57,15.13,1003.06,-30.57,11.51,,,,,,,,
251,TC193710,Ollie,0392,B,2,1937-09-17 12:00:00,950.29,-58.57,38.99,1937-09-17 12:00:00,1937-09-08 18:00:00,950.29,-58.57,38.99,1937-09-08 18:00:00,1004.63,-28.29,11.49,1937-09-18 18:00:00,991.07,-50.22,52.4,1004.63,-28.29,11.49,1937-09-18 06:00:00,975.14,-54.44,47.83,1937-09-18 18:00:00,991.07,-50.22,52.4
252,TC193711,Rosita,0394,B,2,1937-09-17 06:00:00,910.62,-92.7,26.63,1937-09-17 06:00:00,1937-09-11 18:00:00,910.62,-92.7,26.63,1937-09-11 18:00:00,1009.95,-85.62,25.62,1937-09-22 12:00:00,990.81,-49.75,45.25,1009.95,-85.62,25.62,1937-09-20 00:00:00,999.15,-92.93,35.25,1937-09-20 00:00:00,999.15,-92.93,35.25
253,TC193712,Stefan,0395,B,0,1937-09-23 18:00:00,992.03,-66.83,16.27,1937-09-23 18:00:00,1937-09-20 00:00:00,992.03,-66.83,16.27,1937-09-20 00:00:00,1005.73,-47.04,10.61,1937-09-28 12:00:00,1011.94,-85.0,24.75,1005.73,-47.04,10.61,,,,,,,,
254,TC193713,Tess,0397,B,0,1937-10-09 06:00:00,986.3,-19.25,36.5,1937-10-09 06:00:00,1937-09-29 12:00:00,986.3,-19.25,36.5,1937-09-29 12:00:00,1007.62,-47.26,13.24,1937-10-09 06:00:00,986.3,-19.25,36.5,1007.62,-47.26,13.24,,,,,,,,
255,TC193714,Yves,0398,B,1,1937-10-07 18:00:00,947.4,-57.57,34.3,1937-10-07 18:00:00,1937-10-02 12:00:00,947.4,-57.57,34.3,1937-10-02 12:00:00,1001.26,-74.97,24.27,1937-10-18 12:00:00,1009.07,-5.75,43.75,1001.26,-74.97,24.27,1937-10-12 12:00:00,979.11,-34.13,39.59,,,,
256,TC193803,Alberto,0435,B,2,1938-09-12 00:00:00,973.58,-90.92,28.75,1938-09-12 00:00:00,1938-09-05 12:00:00,973.58,-90.92,28.75,1938-09-05 12:00:00,1012.06,-85.23,23.62,1938-09-16 00:00:00,995.75,-65.0,46.75,1012.06,-85.23,23.62,1938-09-15 06:00:00,995.5,-80.6,41.87,1938-09-15 06:00:00,995.5,-80.6,41.87
257,TC193804,Blaise,0437,B,2,1938-10-04 18:00:00,970.06,-60.48,30.54,1938-10-04 18:00:00,1938-09-23 00:00:00,970.06,-60.48,30.54,1938-09-23 00:00:00,1004.12,-18.48,11.51,1938-10-08 06:00:00,1004.15,-9.5,51.0,1004.12,-18.48,11.51,1938-10-05 18:00:00,987.69,-55.22,34.26,1938-10-07 06:00:00,991.82,-35.25,46.75
258,TC193901,Carlos,0471,B,1,1939-08-26 06:00:00,969.31,-89.72,29.95,1939-08-26 06:00:00,1939-08-17 12:00:00,969.31,-89.72,29.95,1939-08-17 06:00:00,1008.93,-35.32,11.26,1939-08-30 06:00:00,1002.81,-69.5,44.75,1007.8,-36.18,11.47,1939-08-29 06:00:00,1008.48,-76.92,40.09,,,,
259,TC193902,Doreen,0475,B,0,1939-09-09 18:00:00,997.62,-50.67,14.95,1939-09-09 18:00:00,1939-09-06 06:00:00,997.62,-50.67,14.95,1939-09-05 00:00:00,1011.9,-32.51,9.88,1939-09-13 06:00:00,1012.48,-71.5,22.0,1006.12,-31.91,10.94,,,,,,,,
260,TC193903,Emiliano,0480,B,2,1939-09-21 18:00:00,965.5,-24.63,48.14,1939-09-20 12:00:00,1939-09-16 18:00:00,971.05,-28.39,40.45,1939-09-15 06:00:00,1009.5,-34.76,39.98,1939-09-22 18:00:00,970.78,-22.66,58.1,1001.8,-39.47,35.1,1939-09-20 18:00:00,968.77,-27.63,41.92,1939-09-22 18:00:00,970.78,-22.66,58.1
261,TC193904,Gloria,0483,B,2,1939-10-06 18:00:00,937.54,-37.97,38.18,1939-10-05 18:00:00,1939-09-25 12:00:00,937.68,-38.85,32.66,1939-09-25 12:00:00,1008.95,-5.43,13.82,1939-10-10 00:00:00,964.92,2.06,58.92,1008.95,-5.43,13.82,1939-10-06 06:00:00,940.31,-38.7,34.98,1939-10-08 18:00:00,947.52,-16.07,55.77
262,TC193907,Ian,0499,B,2,1939-12-08 06:00:00,990.26,-30.83,49.33,1939-12-05 18:00:00,1939-12-05 06:00:00,998.42,-40.79,29.28,1939-12-05 06:00:00,1001.17,-37.37,29.31,1939-12-09 00:00:00,996.72,-19.5,55.5,1001.17,-37.37,29.31,1939-12-07 12:00:00,998.34,-39.21,40.64,1939-12-07 12:00:00,998.34,-39.21,40.64
263,TC194001,Jessica,0512,B,1,1940-02-15 00:00:00,961.38,-46.44,40.4,1940-02-18 06:00:00,1940-02-15 18:00:00,965.46,-52.61,45.63,1940-02-15 00:00:00,961.38,-46.44,40.4,1940-02-20 06:00:00,982.59,-34.5,50.25,971.22,-37.9,50.85,1940-02-18 12:00:00,965.5,-48.58,46.39,,,,
264,TC194002,Kyle,0515,B,0,1940-03-21 18:00:00,978.54,-42.99,37.55,1940-03-22 06:00:00,1940-03-22 06:00:00,981.95,-40.34,38.85,1940-03-21 00:00:00,1001.82,-53.01,33.53,1940-03-24 06:00:00,1011.2,-36.5,40.0,981.95,-40.34,38.85,,,,,,,,
265,TC194003,Lorraine,0518,B,2,1940-04-09 18:00:00,971.43,-15.38,38.88,1940-04-06 06:00:00,1940-04-06 00:00:00,985.09,-40.9,40.76,1940-04-05 06:00:00,992.38,-45.11,42.11,1940-04-10 18:00:00,979.48,-10.48,41.43,986.68,-42.06,41.97,1940-04-08 00:00:00,990.0,-36.27,34.5,1940-04-08 06:00:00,989.24,-34.23,33.56
266,TC194005,Manfred,0528,B,2,1940-08-07 18:00:00,920.17,-79.15,25.85,1940-08-07 18:00:00,1940-07-31 00:00:00,920.17,-79.15,25.85,1940-07-31 00:00:00,1006.87,-35.33,12.42,1940-08-17 18:00:00,1010.14,-53.75,48.25,1006.87,-35.33,12.42,1940-08-15 06:00:00,997.55,-69.82,40.58,1940-08-17 00:00:00,1001.96,-62.0,47.75
267,TC194007,Oxlip,0531,B,2,1940-08-26 12:00:00,950.67,-72.8,29.18,1940-08-26 12:00:00,1940-08-18 00:00:00,950.67,-72.8,29.18,1940-08-15 12:00:00,1010.13,-29.75,11.68,1940-09-03 06:00:00,977.18,-40.63,56.15,1009.66,-43.74,14.63,1940-09-01 00:00:00,968.91,-57.86,44.99,1940-09-01 12:00:00,971.99,-51.13,50.61
268,TC194008,Rodri,0535,B,2,1940-09-10 06:00:00,970.77,-52.79,42.91,1940-09-08 12:00:00,1940-08-28 06:00:00,971.48,-67.88,27.98,1940-08-28 06:00:00,1008.74,-14.2,10.47,1940-09-11 06:00:00,983.04,-32.4,54.41,1008.74,-14.2,10.47,1940-09-09 18:00:00,975.47,-60.53,38.74,1940-09-11 00:00:00,983.11,-38.13,51.21
269,TC194009,Sofiee,0536,B,0,1940-09-05 12:00:00,960.07,-95.97,21.73,1940-09-05 12:00:00,1940-08-30 18:00:00,960.07,-95.97,21.73,1940-08-30 18:00:00,1009.26,-62.57,15.3,1940-09-05 18:00:00,967.0,-97.13,21.98,1009.26,-62.57,15.3,,,,,,,,
270,TC194010,Victor,0537,B,0,1940-09-16 12:00:00,943.19,-96.05,22.65,1940-09-16 12:00:00,1940-09-12 18:00:00,943.19,-96.05,22.65,1940-09-12 18:00:00,1003.93,-77.99,20.53,1940-09-17 00:00:00,969.22,-98.13,23.66,1003.93,-77.99,20.53,,,,,,,,
271,TC194011,Yan,0538,B,1,1940-09-18 06:00:00,976.21,-77.1,25.77,1940-09-18 06:00:00,1940-09-13 00:00:00,976.21,-77.1,25.77,1940-09-13 00:00:00,1010.29,-53.96,19.0,1940-09-21 06:00:00,1007.19,-91.18,32.83,1010.29,-53.96,19.0,1940-09-20 18:00:00,1004.19,-91.47,32.54,,,,
272,TC194012,Angela,0540,B,2,1940-09-23 00:00:00,990.98,-60.72,27.57,1940-09-23 00:00:00,1940-09-20 18:00:00,990.98,-60.72,27.57,1940-09-20 18:00:00,1008.19,-51.86,15.58,1940-09-26 18:00:00,1007.29,-24.0,44.25,1008.19,-51.86,15.58,1940-09-25 12:00:00,1008.35,-48.85,46.74,1940-09-25 18:00:00,1008.25,-43.25,47.5
273,TC194013,Bernardo,0541,B,2,1940-09-27 06:00:00,987.43,-80.05,32.9,1940-09-27 06:00:00,1940-09-23 06:00:00,987.43,-80.05,32.9,1940-09-23 06:00:00,1000.91,-78.99,19.29,1940-09-28 12:00:00,995.84,-68.75,40.0,1000.91,-78.99,19.29,1940-09-27 12:00:00,993.47,-79.19,34.26,1940-09-28 00:00:00,995.21,-75.44,37.16
274,TC194014,Corliss,0542,B,0,1940-10-02 06:00:00,974.69,-81.07,15.3,1940-10-02 06:00:00,1940-09-27 06:00:00,974.69,-81.07,15.3,1940-09-27 06:00:00,1002.09,-44.87,9.97,1940-10-09 06:00:00,1005.4,-98.5,21.84,1002.09,-44.87,9.97,,,,,,,,
275,TC194016,Derrick,0545,B,2,1940-10-16 06:00:00,950.15,-38.38,27.99,1940-10-16 06:00:00,1940-10-11 00:00:00,950.15,-38.38,27.99,1940-10-11 00:00:00,1000.93,-33.4,30.84,1940-10-21 12:00:00,986.86,-31.15,51.63,1000.93,-33.4,30.84,1940-10-20 06:00:00,983.08,-31.86,49.71,1940-10-20 12:00:00,986.55,-26.53,51.93
276,TC194017,Evelyn,0559,B,0,1940-12-23 18:00:00,982.57,-13.02,41.7,1940-12-23 18:00:00,1940-12-16 18:00:00,982.57,-13.02,41.7,1940-12-16 18:00:00,992.46,-17.03,25.71,1940-12-24 00:00:00,985.62,-14.75,43.53,992.46,-17.03,25.71,,,,,,,,
277,TC194101,Gabriel,0593,B,0,1941-09-21 00:00:00,952.43,-53.54,34.37,1941-09-21 00:00:00,1941-09-12 06:00:00,952.43,-53.54,34.37,1941-09-12 06:00:00,1007.14,-26.67,13.69,1941-09-25 00:00:00,993.45,-30.35,49.01,1007.14,-26.67,13.69,,,,,,,,
278,TC194102,Ivanka,0598,B,1,1941-09-29 00:00:00,931.33,-22.99,57.93,1941-09-22 12:00:00,1941-09-17 12:00:00,990.13,-76.83,27.59,1941-09-17 00:00:00,1006.73,-79.02,11.09,1941-09-29 00:00:00,931.33,-22.99,57.93,1004.23,-79.87,13.77,1941-09-23 00:00:00,980.95,-72.7,30.69,,,,
279,TC194201,Jack,0615,B,0,1942-01-23 18:00:00,973.33,-31.14,32.9,1942-01-23 18:00:00,1942-01-21 18:00:00,973.33,-31.14,32.9,1942-01-21 00:00:00,984.07,-33.35,35.45,1942-01-26 12:00:00,991.84,-37.36,53.74,984.44,-33.02,37.68,,,,,,,,
280,TC194202,Kyan,0618,B,0,1942-02-16 00:00:00,945.75,-37.98,49.09,1942-02-16 00:00:00,1942-02-15 06:00:00,945.75,-37.98,49.09,1942-02-15 06:00:00,947.31,-44.6,44.36,1942-02-25 00:00:00,995.41,-56.0,48.5,947.31,-44.6,44.36,,,,,,,,
281,TC194207,Lionel,0639,B,1,1942-09-20 12:00:00,980.13,-28.94,53.31,1942-09-15 06:00:00,1942-09-08 18:00:00,994.73,-40.29,32.77,1942-09-08 12:00:00,1006.97,-17.5,17.85,1942-09-21 00:00:00,988.63,-25.86,54.55,1003.88,-19.31,18.11,1942-09-18 18:00:00,998.27,-35.75,38.71,,,,
282,TC194210,Melody,0653,B,2,1942-12-13 18:00:00,955.46,-48.69,29.52,1942-12-13 18:00:00,1942-12-11 12:00:00,955.46,-48.69,29.52,1942-12-11 12:00:00,990.49,-53.44,24.56,1942-12-16 12:00:00,980.12,-23.79,59.69,990.49,-53.44,24.56,1942-12-15 00:00:00,961.14,-46.49,43.85,1942-12-15 12:00:00,970.7,-44.45,49.89
283,TC194302,Oscar,0677,B,0,1943-07-21 00:00:00,946.98,-97.1,27.12,1943-07-21 00:00:00,1943-07-10 06:00:00,946.98,-97.1,27.12,1943-07-09 18:00:00,1008.64,-31.84,10.75,1943-07-21 06:00:00,981.84,-98.87,27.22,1009.71,-33.13,12.22,,,,,,,,
284,TC194303,Rachel,0679,B,2,1943-09-01 18:00:00,894.09,-66.8,20.87,1943-09-01 18:00:00,1943-08-26 00:00:00,894.09,-66.8,20.87,1943-08-25 00:00:00,1008.81,-30.72,12.24,1943-09-09 12:00:00,971.93,-46.75,54.75,1008.79,-34.42,13.04,1943-09-05 18:00:00,932.19,-71.04,31.75,1943-09-08 18:00:00,968.71,-51.01,50.86
285,TC194304,Sunny,0680,B,0,1943-09-07 18:00:00,997.33,-51.88,40.56,1943-09-07 18:00:00,1943-09-04 06:00:00,997.33,-51.88,40.56,1943-09-04 06:00:00,1010.29,-59.14,24.98,1943-09-07 18:00:00,997.33,-51.88,40.56,1010.29,-59.14,24.98,,,,,,,,
286,TC194306,Victoria,0686,B,2,1943-10-26 06:00:00,962.41,-65.46,37.21,1943-10-25 00:00:00,1943-10-20 12:00:00,984.31,-69.18,27.43,1943-10-20 12:00:00,1006.27,-52.83,14.38,1943-10-28 12:00:00,993.4,-40.0,48.75,1006.27,-52.83,14.38,1943-10-25 06:00:00,982.05,-68.27,28.89,1943-10-27 12:00:00,975.88,-57.78,45.86
287,TC194307,Yoshi,0690,B,2,1943-11-15 12:00:00,965.86,-15.5,54.75,1943-11-08 06:00:00,1943-11-07 12:00:00,995.38,-22.61,35.52,1943-11-07 12:00:00,997.57,-21.16,36.22,1943-11-15 12:00:00,965.86,-15.5,54.75,997.57,-21.16,36.22,1943-11-13 12:00:00,996.32,-33.75,46.5,1943-11-13 18:00:00,994.35,-32.0,46.75
288,TC194308,Antoine,0692,B,2,1943-11-18 00:00:00,966.64,-33.4,40.26,1943-11-18 00:00:00,1943-11-13 12:00:00,966.64,-33.4,40.26,1943-11-12 06:00:00,998.16,-51.88,40.56,1943-11-20 06:00:00,988.69,-10.75,41.75,995.49,-52.37,37.51,1943-11-19 18:00:00,984.46,-18.11,39.45,1943-11-20 00:00:00,987.29,-14.25,40.58
289,TC194402,Brenda,0714,B,2,1944-04-26 00:00:00,983.37,-1.75,55.75,1944-04-19 06:00:00,1944-04-19 00:00:00,993.74,-38.36,36.92,1944-04-19 00:00:00,995.13,-38.78,37.76,1944-04-26 00:00:00,983.37,-1.75,55.75,995.13,-38.78,37.76,1944-04-22 12:00:00,998.94,-29.79,35.37,1944-04-23 06:00:00,998.28,-26.61,35.14
290,TC194403,Claudio,0720,B,0,1944-07-29 00:00:00,973.58,-93.92,29.34,1944-07-29 00:00:00,1944-07-26 00:00:00,973.58,-93.92,29.34,1944-07-26 00:00:00,1010.05,-83.24,22.34,1944-08-01 12:00:00,1007.38,-94.15,35.11,1010.05,-83.24,22.34,,,,,,,,
291,TC194404,Daisy,0721,B,0,1944-08-01 12:00:00,944.71,-88.8,24.39,1944-08-01 12:00:00,1944-07-27 18:00:00,944.71,-88.8,24.39,1944-07-27 18:00:00,1008.74,-56.16,13.89,1944-08-03 12:00:00,998.56,-98.46,31.35,1008.74,-56.16,13.89,,,,,,,,
292,TC194405,Ederson,0725,B,2,1944-08-20 12:00:00,959.3,-94.54,28.65,1944-08-20 12:00:00,1944-08-12 06:00:00,959.3,-94.54,28.65,1944-08-12 06:00:00,1006.07,-77.05,15.66,1944-08-26 12:00:00,1007.96,-84.75,38.75,1006.07,-77.05,15.66,1944-08-23 18:00:00,1001.43,-93.03,37.77,1944-08-24 06:00:00,998.79,-87.99,40.32
293,TC194409,Gwyneth,0732,B,2,1944-09-03 12:00:00,987.08,-72.7,30.69,1944-09-03 12:00:00,1944-08-29 12:00:00,987.08,-72.7,30.69,1944-08-29 12:00:00,1009.38,-58.69,19.38,1944-09-11 00:00:00,990.07,-30.13,48.54,1009.38,-58.69,19.38,1944-09-09 00:00:00,995.05,-60.42,35.8,1944-09-09 12:00:00,988.85,-54.69,33.88
294,TC194410,Isaac,0735,B,2,1944-09-21 06:00:00,915.01,-53.45,21.79,1944-09-21 06:00:00,1944-09-17 00:00:00,915.01,-53.45,21.79,1944-09-15 18:00:00,1006.74,-15.17,18.8,1944-09-26 18:00:00,982.89,-59.32,57.02,1002.94,-22.51,17.51,1944-09-24 00:00:00,947.81,-61.05,35.25,1944-09-26 06:00:00,974.7,-61.41,52.62
295,TC194411,Jaime,0736,B,0,1944-09-22 12:00:00,963.45,-97.07,24.14,1944-09-22 12:00:00,1944-09-18 18:00:00,963.45,-97.07,24.14,1944-09-18 18:00:00,1007.12,-78.99,18.0,1944-09-23 12:00:00,998.9,-98.95,25.67,1007.12,-78.99,18.0,,,,,,,,
296,TC194414,Kelechi,0752,B,0,1944-12-30 06:00:00,988.63,-27.78,31.97,1944-12-30 06:00:00,1944-12-29 00:00:00,988.63,-27.78,31.97,1944-12-29 00:00:00,994.83,-23.08,34.78,1945-01-01 18:00:00,1001.42,-21.25,30.75,994.83,-23.08,34.78,,,,,,,,
297,TC194501,Laurel,0768,B,2,1945-05-18 12:00:00,997.13,-79.49,32.61,1945-05-16 12:00:00,1945-05-16 06:00:00,999.67,-86.4,23.99,1945-05-16 06:00:00,1000.55,-87.11,24.71,1945-05-21 00:00:00,1005.23,-66.75,44.75,1000.55,-87.11,24.71,1945-05-18 06:00:00,997.29,-80.61,31.21,1945-05-19 00:00:00,1004.6,-77.19,34.72
298,TC194503,Micah,0775,B,2,1945-07-30 18:00:00,967.64,-62.27,39.92,1945-07-30 18:00:00,1945-07-27 00:00:00,967.64,-62.27,39.92,1945-07-27 00:00:00,1004.48,-68.16,26.01,1945-08-02 06:00:00,992.65,-32.07,57.98,1004.48,-68.16,26.01,1945-08-01 06:00:00,986.45,-45.0,51.07,1945-08-01 18:00:00,991.62,-38.08,55.24
299,TC194504,Peach,0781,B,0,1945-09-14 00:00:00,985.72,-86.43,28.88,1945-09-14 00:00:00,1945-09-09 00:00:00,985.72,-86.43,28.88,1945-09-09 00:00:00,1010.44,-77.02,23.47,1945-09-15 06:00:00,1011.5,-86.62,31.8,1010.44,-77.02,23.47,,,,,,,,
300,TC194506,Ruben,0783,B,1,1945-09-30 00:00:00,971.59,-65.46,27.36,1945-09-30 00:00:00,1945-09-22 12:00:00,971.59,-65.46,27.36,1945-09-19 12:00:00,1011.57,-14.4,8.55,1945-10-04 00:00:00,1005.25,-36.62,33.11,1004.82,-36.51,8.89,1945-10-01 00:00:00,989.59,-61.21,30.8,,,,
301,TC194509,Seldoen,0790,B,2,1945-10-12 06:00:00,985.09,-21.71,40.19,1945-10-12 06:00:00,1945-10-12 06:00:00,985.09,-21.71,40.19,1945-10-12 06:00:00,985.09,-21.71,40.19,1945-10-15 12:00:00,998.53,-10.34,42.07,985.09,-21.71,40.19,1945-10-14 18:00:00,996.44,-16.8,41.04,1945-10-15 00:00:00,997.32,-14.93,41.57
302,TC194511,Vincent,0795,B,2,1945-11-05 00:00:00,969.29,-40.31,53.55,1945-11-03 06:00:00,1945-11-01 06:00:00,992.47,-45.0,39.28,1945-10-31 18:00:00,999.39,-43.25,32.39,1945-11-06 06:00:00,975.66,-25.93,59.71,995.68,-41.21,32.69,1945-11-03 12:00:00,986.2,-45.84,41.92,1945-11-05 18:00:00,971.58,-31.55,58.68
303,TC194601,Zoe,0808,B,2,1946-01-20 18:00:00,990.02,-35.75,41.5,1946-01-19 18:00:00,1946-01-17 12:00:00,997.29,-43.09,33.98,1946-01-17 12:00:00,1008.62,-42.49,29.47,1946-01-20 18:00:00,990.02,-35.75,41.5,1008.62,-42.49,29.47,1946-01-20 00:00:00,995.21,-42.17,35.48,1946-01-20 06:00:00,993.85,-40.79,36.66
304,TC194602,Alice,0811,B,2,1946-02-10 06:00:00,979.99,-46.94,32.05,1946-02-10 06:00:00,1946-02-04 18:00:00,979.99,-46.94,32.05,1946-02-04 18:00:00,1007.92,-43.81,27.83,1946-02-12 18:00:00,1012.71,-20.25,49.5,1007.92,-43.81,27.83,1946-02-12 00:00:00,1006.43,-36.16,47.06,1946-02-12 06:00:00,1008.4,-30.81,48.66
305,TC194603,Bruce,0819,B,0,1946-03-31 00:00:00,997.26,-66.65,26.27,1946-03-31 00:00:00,1946-03-30 12:00:00,997.26,-66.65,26.27,1946-03-30 12:00:00,1002.74,-64.54,24.6,1946-04-02 18:00:00,1003.78,-68.36,31.3,1002.74,-64.54,24.6,,,,,,,,
306,TC194606,Candy,0838,B,2,1946-08-17 12:00:00,914.56,-74.24,28.47,1946-08-17 12:00:00,1946-08-09 06:00:00,914.56,-74.24,28.47,1946-08-09 06:00:00,1005.81,-23.43,13.7,1946-08-24 06:00:00,1010.83,-54.75,46.5,1005.81,-23.43,13.7,1946-08-21 00:00:00,1000.34,-77.13,43.21,1946-08-21 00:00:00,1000.34,-77.13,43.21
307,TC194608,Dylan,0846,B,2,1946-09-22 18:00:00,934.21,-44.97,30.15,1946-09-22 18:00:00,1946-09-14 18:00:00,934.21,-44.97,30.15,1946-09-13 00:00:00,1006.6,-15.34,11.22,1946-09-26 06:00:00,1008.17,-5.75,39.25,1005.18,-25.73,15.78,1946-09-23 12:00:00,962.58,-36.36,31.89,1946-09-25 06:00:00,994.21,-16.25,35.0
308,TC194611,Emmelyn,0851,B,1,1946-10-16 18:00:00,945.18,-24.92,39.14,1946-10-07 12:00:00,1946-09-30 00:00:00,972.41,-67.52,21.95,1946-09-30 00:00:00,1009.86,-40.76,12.1,1946-10-18 12:00:00,968.8,-16.55,46.68,1009.86,-40.76,12.1,1946-10-09 06:00:00,988.34,-66.28,24.71,,,,
309,TC194613,Gianluigi,0862,B,0,1946-11-25 18:00:00,962.65,-48.23,40.63,1946-11-25 18:00:00,1946-11-25 00:00:00,962.65,-48.23,40.63,1946-11-24 12:00:00,989.34,-45.18,41.34,1946-11-27 00:00:00,976.78,-34.26,37.61,975.68,-45.25,44.4,,,,,,,,
310,TC194704,Ivy,0912,B,2,1947-10-30 18:00:00,978.89,-20.22,44.73,1947-10-30 18:00:00,1947-10-30 00:00:00,978.89,-20.22,44.73,1947-10-29 00:00:00,992.28,-38.04,41.39,1947-11-01 12:00:00,982.04,-5.0,54.0,983.19,-28.38,43.84,1947-11-01 00:00:00,985.36,-6.85,49.27,1947-11-01 00:00:00,985.36,-6.85,49.27
311,TC194706,Jeremy,0917,B,0,1947-11-08 18:00:00,994.83,-60.86,29.24,1947-11-08 18:00:00,1947-11-07 06:00:00,994.83,-60.86,29.24,1947-11-07 00:00:00,1007.56,-64.26,25.74,1947-11-09 12:00:00,997.11,-58.42,29.6,1005.57,-62.29,27.63,,,,,,,,
312,TC194707,Katie,0919,B,0,1947-11-12 06:00:00,997.93,-48.69,32.19,1947-11-12 06:00:00,1947-11-11 18:00:00,997.93,-48.69,32.19,1947-11-11 12:00:00,1003.57,-52.44,29.83,1947-11-14 00:00:00,1009.76,-45.5,39.5,1002.66,-50.79,30.3,,,,,,,,
313,TC194801,Luigi,0929,B,2,1948-01-30 18:00:00,997.34,-56.02,27.34,1948-01-30 18:00:00,1948-01-30 06:00:00,997.34,-56.02,27.34,1948-01-30 06:00:00,1001.43,-54.77,26.85,1948-02-04 18:00:00,1007.72,-20.25,48.5,1001.43,-54.77,26.85,1948-02-02 12:00:00,1001.62,-51.82,35.3,1948-02-03 06:00:00,1000.77,-44.25,41.0
314,TC194803,Michelle,0948,B,2,1948-08-07 18:00:00,998.17,-59.77,23.1,1948-08-07 18:00:00,1948-08-05 00:00:00,998.17,-59.77,23.1,1948-07-31 00:00:00,1008.89,-26.27,9.69,1948-08-13 18:00:00,1003.12,-40.5,54.0,1009.09,-46.55,14.77,1948-08-12 00:00:00,1008.0,-61.88,42.09,1948-08-13 00:00:00,1006.79,-52.5,50.0
315,TC194805,Phil,0952,B,2,1948-09-20 12:00:00,941.05,-44.34,20.11,1948-09-20 12:00:00,1948-09-12 00:00:00,941.05,-44.34,20.11,1948-09-11 00:00:00,1006.9,-19.99,11.57,1948-09-28 18:00:00,953.51,-13.94,59.9,1009.52,-25.15,11.71,1948-09-26 06:00:00,970.25,-35.37,41.29,1948-09-28 00:00:00,942.16,-20.47,56.59
316,TC194806,Risa,0956,B,2,1948-10-07 06:00:00,947.16,-31.45,29.39,1948-10-07 06:00:00,1948-10-01 12:00:00,947.16,-31.45,29.39,1948-09-30 18:00:00,1012.63,-40.69,38.97,1948-10-12 18:00:00,1010.65,-11.25,41.75,1011.49,-36.02,37.72,1948-10-11 06:00:00,994.2,-26.52,40.91,1948-10-12 12:00:00,1008.91,-12.75,42.25
317,TC194808,Sergio,0963,B,1,1948-10-31 12:00:00,998.55,-61.93,26.05,1948-10-31 12:00:00,1948-10-31 12:00:00,998.55,-61.93,26.05,1948-10-31 12:00:00,998.55,-61.93,26.05,1948-11-06 00:00:00,1008.87,-81.0,27.25,998.55,-61.93,26.05,1948-11-05 12:00:00,1008.8,-82.5,28.25,,,,
318,TC194902,Vivianne,1002,B,0,1949-08-04 12:00:00,943.97,-49.76,28.48,1949-08-04 12:00:00,1949-07-30 18:00:00,943.97,-49.76,28.48,1949-07-30 06:00:00,1009.39,-27.03,13.0,1949-08-20 00:00:00,1011.93,-7.5,45.25,1006.14,-28.3,14.01,,,,,,,,
319,TC194904,Zack,1015,B,0,1949-10-23 18:00:00,925.96,-82.8,19.27,1949-10-23 18:00:00,1949-10-19 06:00:00,925.96,-82.8,19.27,1949-10-18 18:00:00,1007.43,-76.48,11.79,1949-11-02 06:00:00,1010.36,-90.0,20.25,1004.98,-78.23,11.83,,,,,,,,
320,TC194905,Alex,1018,B,0,1949-10-28 18:00:00,986.64,-60.92,34.68,1949-10-28 18:00:00,1949-10-24 06:00:00,986.64,-60.92,34.68,1949-10-24 06:00:00,998.63,-57.85,31.6,1949-11-02 18:00:00,1002.03,-55.5,40.25,998.63,-57.85,31.6,,,,,,,,
321,TC194906,Beatrice,1021,B,1,1949-11-11 18:00:00,946.88,-33.56,27.82,1949-11-11 18:00:00,1949-11-06 18:00:00,946.88,-33.56,27.82,1949-11-06 18:00:00,1006.72,-36.73,27.77,1949-11-15 12:00:00,967.91,-9.74,37.52,1006.72,-36.73,27.77,1949-11-14 00:00:00,972.55,-27.48,27.41,,,,
322,TC194907,Colin,1022,B,2,1949-11-17 12:00:00,977.22,-75.76,17.44,1949-11-17 12:00:00,1949-11-15 06:00:00,977.22,-75.76,17.44,1949-11-14 18:00:00,1005.46,-79.53,12.18,1949-11-23 06:00:00,1011.65,-51.0,32.0,1004.75,-78.35,12.78,1949-11-20 12:00:00,1005.59,-67.75,26.5,1949-11-21 00:00:00,1006.92,-65.75,27.5
323,TC194908,Dawn,1023,B,1,1949-11-23 18:00:00,976.8,-39.57,31.24,1949-11-23 18:00:00,1949-11-18 12:00:00,976.8,-39.57,31.24,1949-11-18 12:00:00,1005.55,-34.11,30.31,1949-11-26 12:00:00,1005.69,-46.5,30.0,1005.55,-34.11,30.31,1949-11-24 12:00:00,981.67,-40.21,29.48,,,,
324,TC195001,Ernest,1032,B,1,1950-01-08 06:00:00,952.57,-51.47,41.51,1950-01-08 06:00:00,1950-01-07 06:00:00,952.57,-51.47,41.51,1950-01-05 00:00:00,1007.81,-66.82,29.25,1950-01-10 18:00:00,986.39,-41.6,43.04,963.41,-56.58,36.68,1950-01-10 00:00:00,978.48,-46.31,44.33,,,,
325,TC195002,Flavia,1038,B,2,1950-05-14 12:00:00,982.29,-35.89,39.01,1950-05-14 12:00:00,1950-05-13 18:00:00,982.29,-35.89,39.01,1950-05-13 18:00:00,983.97,-39.14,41.4,1950-05-18 00:00:00,1010.65,-30.75,55.25,983.97,-39.14,41.4,1950-05-16 18:00:00,1001.45,-25.0,47.0,1950-05-17 12:00:00,1007.2,-27.75,52.0
326,TC195003,Harrison,1046,B,2,1950-08-17 06:00:00,950.86,-65.97,34.48,1950-08-17 06:00:00,1950-08-12 18:00:00,950.86,-65.97,34.48,1950-08-12 18:00:00,1008.43,-57.93,22.73,1950-08-19 12:00:00,991.67,-51.0,52.0,1008.43,-57.93,22.73,1950-08-17 12:00:00,951.21,-65.89,36.07,1950-08-18 18:00:00,987.36,-62.55,45.92
327,TC195004,Janet,1047,B,2,1950-09-07 06:00:00,960.13,-50.67,37.15,1950-09-06 12:00:00,1950-08-23 06:00:00,962.47,-56.92,35.68,1950-08-23 06:00:00,1002.72,-26.4,9.42,1950-09-10 12:00:00,991.02,-14.25,56.5,1002.72,-26.4,9.42,1950-09-06 18:00:00,960.99,-54.84,36.34,1950-09-10 00:00:00,988.46,-24.57,50.88
328,TC195005,Kinen,1049,B,1,1950-09-07 06:00:00,881.4,-66.17,22.76,1950-09-07 06:00:00,1950-08-30 00:00:00,881.4,-66.17,22.76,1950-08-29 12:00:00,1010.56,-23.76,11.32,1950-09-12 18:00:00,983.95,-72.68,45.32,1009.79,-25.95,11.16,1950-09-12 06:00:00,962.47,-73.86,40.1,,,,
329,TC195006,Lydia,1051,B,2,1950-09-12 06:00:00,940.87,-52.43,28.16,1950-09-12 06:00:00,1950-09-05 06:00:00,940.87,-52.43,28.16,1950-09-05 06:00:00,1006.24,-28.5,17.2,1950-09-21 00:00:00,975.42,-13.25,54.5,1006.24,-28.5,17.2,1950-09-17 12:00:00,969.86,-49.94,40.86,1950-09-20 18:00:00,974.02,-14.0,52.0
330,TC195007,Mario,1053,B,1,1950-09-26 18:00:00,967.38,-19.56,20.31,1950-09-26 18:00:00,1950-09-23 18:00:00,967.38,-19.56,20.31,1950-09-23 18:00:00,1003.66,-7.42,15.16,1950-10-02 18:00:00,1011.12,-32.25,22.25,1003.66,-7.42,15.16,1950-10-02 12:00:00,1012.61,-32.0,22.75,,,,
331,TC195008,Nicole,1054,B,2,1950-10-08 18:00:00,948.26,-57.85,39.06,1950-10-08 18:00:00,1950-10-03 00:00:00,948.26,-57.85,39.06,1950-10-03 00:00:00,1009.37,-60.58,21.81,1950-10-12 00:00:00,999.72,-34.5,43.25,1009.37,-60.58,21.81,1950-10-10 00:00:00,978.26,-54.97,47.07,1950-10-10 06:00:00,989.46,-53.26,47.84
332,TC195009,Quinn,1056,B,2,1950-10-25 06:00:00,975.57,-79.78,23.25,1950-10-25 06:00:00,1950-10-14 12:00:00,975.57,-79.78,23.25,1950-10-14 00:00:00,1006.44,-14.56,12.72,1950-10-29 00:00:00,1006.37,-78.75,24.5,1002.27,-18.3,14.26,1950-10-28 06:00:00,1004.02,-81.21,23.79,1950-10-28 18:00:00,1006.47,-79.47,24.67
333,TC195102,Stephanie,1088,B,0,1951-06-30 18:00:00,962.4,-97.21,26.18,1951-06-30 18:00:00,1951-06-28 12:00:00,962.4,-97.21,26.18,1951-06-28 12:00:00,1005.2,-93.97,20.45,1951-07-01 12:00:00,989.95,-99.37,27.75,1005.2,-93.97,20.45,,,,,,,,
334,TC195104,Tony,1090,B,2,1951-07-29 00:00:00,984.22,-64.52,39.97,1951-07-29 00:00:00,1951-07-25 18:00:00,984.22,-64.52,39.97,1951-07-25 18:00:00,1009.84,-78.45,31.43,1951-08-04 12:00:00,1001.68,-2.75,49.25,1009.84,-78.45,31.43,1951-08-04 00:00:00,998.57,-8.5,49.25,1951-08-04 12:00:00,1001.68,-2.75,49.25
335,TC195105,Winnie,1094,B,1,1951-09-04 06:00:00,950.0,-59.16,29.24,1951-09-04 06:00:00,1951-08-27 00:00:00,950.0,-59.16,29.24,1951-08-27 00:00:00,1009.76,-38.1,10.39,1951-09-11 00:00:00,990.53,-32.0,54.25,1009.76,-38.1,10.39,1951-09-10 00:00:00,996.24,-38.8,47.03,,,,
336,TC195107,Audrey,1096,B,0,1951-09-06 18:00:00,998.29,-24.0,20.27,1951-09-06 18:00:00,1951-09-05 12:00:00,998.29,-24.0,20.27,1951-09-04 18:00:00,1001.4,-15.56,17.52,1951-09-08 18:00:00,1005.17,-26.61,26.62,999.88,-19.79,17.75,,,,,,,,
337,TC195109,Brandon,1101,B,0,1951-10-01 18:00:00,984.26,-50.61,39.83,1951-10-01 18:00:00,1951-09-25 06:00:00,984.26,-50.61,39.83,1951-09-25 06:00:00,1005.83,-62.87,26.42,1951-10-02 18:00:00,997.37,-49.06,45.9,1005.83,-62.87,26.42,,,,,,,,
338,TC195202,Christine,1128,B,0,1952-04-13 12:00:00,979.09,-42.68,44.83,1952-04-13 12:00:00,1952-04-10 00:00:00,979.09,-42.68,44.83,1952-04-10 00:00:00,997.94,-35.2,38.11,1952-04-14 00:00:00,989.36,-46.0,42.5,997.94,-35.2,38.11,,,,,,,,
339,TC195203,David,1132,B,2,1952-05-27 06:00:00,985.43,-57.25,43.75,1952-05-22 00:00:00,1952-05-19 06:00:00,992.7,-83.4,28.23,1952-05-19 06:00:00,1003.9,-80.28,21.94,1952-05-27 06:00:00,985.43,-57.25,43.75,1003.9,-80.28,21.94,1952-05-25 18:00:00,1002.11,-74.5,38.47,1952-05-26 06:00:00,1000.09,-69.99,39.56
340,TC195205,Elyse,1135,B,0,1952-06-14 18:00:00,969.26,-97.07,23.84,1952-06-14 18:00:00,1952-06-10 06:00:00,969.26,-97.07,23.84,1952-06-10 06:00:00,1003.19,-93.42,24.07,1952-06-15 06:00:00,984.81,-98.01,23.02,1003.19,-93.42,24.07,,,,,,,,
341,TC195206,Frederick,1145,B,2,1952-09-05 00:00:00,990.55,-24.0,48.0,1952-09-03 00:00:00,1952-08-30 18:00:00,992.44,-57.08,44.07,1952-08-30 18:00:00,1012.66,-65.31,29.92,1952-09-05 00:00:00,990.55,-24.0,48.0,1012.66,-65.31,29.92,1952-09-03 12:00:00,997.81,-51.89,47.23,1952-09-04 00:00:00,997.93,-44.12,48.25
342,TC195208,Hope,1147,B,2,1952-09-14 18:00:00,908.07,-69.17,28.75,1952-09-14 18:00:00,1952-09-05 00:00:00,908.07,-69.17,28.75,1952-09-04 06:00:00,1005.38,-26.33,11.77,1952-09-19 12:00:00,994.35,-64.11,48.14,1006.12,-32.03,11.9,1952-09-17 00:00:00,923.77,-66.69,37.05,1952-09-19 00:00:00,980.45,-67.8,47.8
343,TC195209,Jacob,1152,B,2,1952-10-09 06:00:00,960.4,-41.57,57.47,1952-10-07 18:00:00,1952-09-29 00:00:00,970.01,-44.82,41.23,1952-09-29 00:00:00,993.34,-58.32,37.62,1952-10-10 00:00:00,965.51,-45.88,59.04,993.34,-58.32,37.62,1952-10-08 00:00:00,967.34,-43.24,43.94,1952-10-09 12:00:00,961.75,-43.55,58.12
344,TC195210,Katrina,1153,B,1,1952-10-20 06:00:00,971.04,-80.25,24.75,1952-10-20 06:00:00,1952-10-08 06:00:00,971.04,-80.25,24.75,1952-10-06 06:00:00,1008.08,-77.2,8.82,1952-10-21 00:00:00,985.05,-72.13,30.55,1007.71,-81.69,11.66,1952-10-20 12:00:00,984.39,-78.36,26.45,,,,
345,TC195211,Luke,1155,B,0,1952-10-12 12:00:00,992.88,-95.72,22.57,1952-10-12 12:00:00,1952-10-09 18:00:00,992.88,-95.72,22.57,1952-10-09 18:00:00,1004.04,-91.21,23.77,1952-10-14 12:00:00,1009.33,-97.25,20.75,1004.04,-91.21,23.77,,,,,,,,
346,TC195212,Maho,1156,B,1,1952-10-19 12:00:00,988.49,-64.97,25.23,1952-10-19 12:00:00,1952-10-17 06:00:00,988.49,-64.97,25.23,1952-10-17 06:00:00,1003.89,-78.54,19.62,1952-10-23 12:00:00,1007.22,-56.0,25.0,1003.89,-78.54,19.62,1952-10-23 12:00:00,1007.22,-56.0,25.0,,,,
347,TC195214,Nicholas,1160,B,2,1952-11-04 12:00:00,948.63,-78.39,23.63,1952-11-04 12:00:00,1952-10-30 00:00:00,948.63,-78.39,23.63,1952-10-29 00:00:00,1006.59,-75.33,12.8,1952-11-09 00:00:00,991.13,-52.56,49.43,1005.48,-75.09,13.81,1952-11-05 12:00:00,975.0,-76.54,28.47,1952-11-08 00:00:00,987.07,-68.46,40.65
348,TC195217,Queenie,1167,B,1,1952-11-28 06:00:00,959.29,-30.99,47.96,1952-11-27 06:00:00,1952-11-23 18:00:00,976.61,-41.54,33.36,1952-11-23 00:00:00,1000.04,-53.75,26.94,1952-11-28 18:00:00,967.89,-22.0,59.0,994.93,-50.27,26.61,1952-11-27 12:00:00,974.34,-39.26,35.58,,,,
349,TC195302,Samson,1186,B,0,1953-04-03 06:00:00,966.75,-46.03,39.74,1953-04-03 06:00:00,1953-04-02 18:00:00,966.75,-46.03,39.74,1953-04-02 18:00:00,972.23,-50.37,39.47,1953-04-10 00:00:00,991.12,-30.25,52.0,972.23,-50.37,39.47,,,,,,,,
350,TC195303,Tiffany,1195,B,0,1953-07-17 18:00:00,941.62,-96.61,26.59,1953-07-17 18:00:00,1953-07-12 00:00:00,941.62,-96.61,26.59,1953-07-12 00:00:00,1011.85,-69.85,22.92,1953-07-18 12:00:00,991.86,-99.32,26.66,1011.85,-69.85,22.92,,,,,,,,
351,TC195305,William,1197,B,2,1953-08-21 06:00:00,938.04,-54.74,36.61,1953-08-21 06:00:00,1953-08-08 12:00:00,938.04,-54.74,36.61,1953-08-08 12:00:00,1008.79,-28.75,12.29,1953-08-26 06:00:00,965.06,-5.52,59.89,1008.79,-28.75,12.29,1953-08-23 00:00:00,963.02,-53.12,44.42,1953-08-23 18:00:00,983.61,-45.87,49.03
352,TC195306,Andy,1199,B,2,1953-09-05 00:00:00,945.45,-70.88,36.91,1953-09-05 00:00:00,1953-08-21 00:00:00,945.45,-70.88,36.91,1953-08-21 00:00:00,1006.78,-34.73,10.27,1953-09-07 18:00:00,978.82,-57.98,55.95,1006.78,-34.73,10.27,1953-09-07 00:00:00,979.33,-64.6,47.44,1953-09-07 00:00:00,979.33,-64.6,47.44
353,TC195307,Bonnie,1203,B,1,1953-09-06 18:00:00,904.24,-65.82,21.21,1953-09-06 18:00:00,1953-08-30 06:00:00,904.24,-65.82,21.21,1953-08-29 18:00:00,1007.82,-29.18,13.65,1953-09-14 18:00:00,997.31,-60.48,43.09,1006.36,-29.86,14.71,1953-09-13 12:00:00,984.52,-66.65,42.01,,,,
354,TC195310,Charlie,1215,B,0,1953-12-01 18:00:00,984.61,-29.82,44.02,1953-12-01 18:00:00,1953-11-29 00:00:00,984.61,-29.82,44.02,1953-11-29 00:00:00,988.7,-43.23,37.48,1953-12-03 06:00:00,999.1,-31.52,38.19,988.7,-43.23,37.48,,,,,,,,
355,TC195401,Demi,1229,B,2,1954-03-17 06:00:00,977.2,-50.18,39.17,1954-03-17 06:00:00,1954-03-16 12:00:00,977.2,-50.18,39.17,1954-03-16 12:00:00,988.14,-56.15,38.74,1954-03-21 18:00:00,1001.51,-8.0,45.75,988.14,-56.15,38.74,1954-03-20 12:00:00,985.82,-19.18,43.72,1954-03-21 12:00:00,999.37,-10.5,44.5
