,Code,Name,Ensemble,Trans Type,Peak Time,Peak SLP,Peak Lon,Peak Lat,Trop Peak Time,Trop Peak SLP,Trop Peak Lon,Trop Peak Lat,ET Begin Time,ET Begin SLP,ET Begin Lon,ET Begin Lat,ET Complete Time,ET Complete SLP,ET Complete Lon,ET Complete Lat,Genesis Time,Genesis SLP,Genesis Lon,Genesis Lat,Trop Begin Time,Final Time,Final SLP,Final Lon,Final Lat
0,TC200009,Flavia,A,2,2000-09-03 18:00:00,916.62,-59.07,23.47,2000-09-03 18:00:00,916.62,-59.07,23.47,2000-09-07 06:00:00,943.24,-65.14,39.41,2000-09-08 06:00:00,983.0,-57.64,52.78,2000-08-29 12:00:00,1013.21,-37.33,14.41,2000-08-31 00:00:00,2000-09-08 18:00:00,990.45,-49.09,56.68
1,TC200010,Harrison,A,2,2000-09-12 00:00:00,924.42,-67.65,29.01,2000-09-12 00:00:00,924.42,-67.65,29.01,2000-09-17 06:00:00,952.37,-66.94,36.41,2000-09-20 12:00:00,959.76,-32.08,51.73,2000-09-04 18:00:00,1007.38,-36.72,16.05,2000-09-04 18:00:00,2000-09-21 00:00:00,970.52,-22.81,54.57
2,TC200403,Frederick,A,2,2004-05-07 18:00:00,978.81,-48.82,33.18,2004-05-07 18:00:00,978.81,-48.82,33.18,2004-05-08 18:00:00,979.32,-42.93,35.03,2004-05-10 12:00:00,986.81,-32.03,47.16,2004-05-04 18:00:00,999.74,-57.73,23.93,2004-05-04 18:00:00,2004-05-10 18:00:00,988.32,-30.97,49.62
3,TC200407,Katrina,A,2,2004-10-01 18:00:00,927.61,-49.63,26.06,2004-10-01 18:00:00,927.61,-49.63,26.06,2004-10-05 00:00:00,956.55,-32.96,46.15,2004-10-05 18:00:00,958.97,-22.16,59.63,2004-09-24 18:00:00,1004.88,-21.55,13.51,2004-09-24 18:00:00,2004-10-05 18:00:00,958.97,-22.16,59.63
4,TC200503,Maho,A,2,2005-06-09 18:00:00,973.25,-74.52,35.84,2005-06-09 06:00:00,988.91,-79.97,31.97,2005-06-09 12:00:00,979.25,-77.06,33.41,2005-06-11 00:00:00,1000.72,-61.75,44.25,2005-06-06 00:00:00,1009.9,-88.83,19.31,2005-06-06 00:00:00,2005-06-11 00:00:00,1000.72,-61.75,44.25
5,TC200510,Samson,A,2,2005-09-07 00:00:00,897.7,-60.07,23.57,2005-09-07 00:00:00,897.7,-60.07,23.57,2005-09-09 12:00:00,933.51,-60.82,37.35,2005-09-11 06:00:00,959.0,-43.52,47.85,2005-08-31 18:00:00,1008.05,-26.53,13.2,2005-09-01 12:00:00,2005-09-12 06:00:00,961.14,-33.94,58.18
6,TC200512,Tiffany,A,2,2005-10-05 12:00:00,948.05,-33.25,43.5,2005-09-29 06:00:00,949.54,-50.0,22.57,2005-10-03 12:00:00,968.88,-49.04,29.38,2005-10-07 00:00:00,974.6,-27.76,55.14,2005-09-19 06:00:00,1010.55,-14.06,9.07,2005-09-20 06:00:00,2005-10-07 00:00:00,974.6,-27.76,55.14
7,TC200704,Demi,A,2,2007-09-08 18:00:00,941.57,-69.98,32.41,2007-09-08 18:00:00,941.57,-69.98,32.41,2007-09-20 00:00:00,989.06,-36.24,48.66,2007-09-20 06:00:00,994.07,-32.55,51.01,2007-08-31 00:00:00,1009.9,-30.92,11.93,2007-08-31 00:00:00,2007-09-20 12:00:00,998.07,-27.99,53.17
8,TC200706,Frances,A,2,2007-11-24 06:00:00,967.62,-46.96,29.03,2007-11-24 06:00:00,967.62,-46.96,29.03,2007-11-27 00:00:00,1002.21,-35.0,36.0,2007-11-27 00:00:00,1002.21,-35.0,36.0,2007-11-21 00:00:00,996.42,-65.74,31.41,2007-11-21 18:00:00,2007-11-28 06:00:00,1006.61,-18.75,39.0
9,TC200805,Julie,A,2,2008-05-12 06:00:00,986.1,-36.31,50.76,2008-05-10 18:00:00,992.56,-60.3,40.19,2008-05-11 00:00:00,991.64,-58.81,42.07,2008-05-12 00:00:00,996.14,-42.2,48.86,2008-05-07 00:00:00,1008.31,-62.8,23.82,2008-05-07 00:00:00,2008-05-12 06:00:00,986.1,-36.31,50.76
10,TC200811,Noelle,A,2,2008-10-01 06:00:00,914.43,-56.81,24.39,2008-10-01 06:00:00,914.43,-56.81,24.39,2008-10-02 12:00:00,926.67,-51.94,27.77,2008-10-05 06:00:00,964.49,-21.75,52.5,2008-09-25 00:00:00,1007.26,-40.79,14.65,2008-09-25 00:00:00,2008-10-05 12:00:00,967.41,-16.25,56.75
11,TC200812,Rocco,A,2,2008-10-06 00:00:00,929.93,-20.52,13.19,2008-10-06 00:00:00,929.93,-20.52,13.19,2008-10-16 06:00:00,949.35,-47.27,38.34,2008-10-18 18:00:00,976.0,-30.48,53.88,2008-10-03 06:00:00,1004.35,-12.55,8.88,2008-10-03 06:00:00,2008-10-19 06:00:00,983.5,-23.08,55.2
12,TC200816,Wendy,A,2,2008-11-18 06:00:00,897.75,-82.11,14.5,2008-11-18 06:00:00,897.75,-82.11,14.5,2008-11-20 12:00:00,995.41,-91.09,17.68,2008-11-25 18:00:00,951.02,-41.93,53.1,2008-11-11 00:00:00,1004.37,-77.24,9.84,2008-11-12 06:00:00,2008-11-26 06:00:00,955.69,-39.44,55.79
13,TC200903,Bryan,A,2,2009-08-26 18:00:00,938.74,-66.95,29.43,2009-08-26 18:00:00,938.74,-66.95,29.43,2009-08-30 00:00:00,948.16,-61.86,40.75,2009-08-31 12:00:00,975.3,-45.84,50.14,2009-08-21 00:00:00,1009.94,-40.86,11.82,2009-08-21 00:00:00,2009-09-01 00:00:00,979.3,-38.14,52.24
14,TC201003,Dominic,A,2,2010-10-24 18:00:00,979.96,-54.46,39.23,2010-10-24 12:00:00,986.73,-57.49,37.13,2010-10-24 18:00:00,979.96,-54.46,39.23,2010-10-25 12:00:00,1006.41,-42.5,44.54,2010-10-21 12:00:00,1008.03,-63.07,29.58,2010-10-21 12:00:00,2010-10-26 00:00:00,1020.34,-32.56,44.31
15,TC201204,Rosalina,A,2,2012-09-05 06:00:00,940.07,-59.66,25.52,2012-09-05 06:00:00,940.07,-59.66,25.52,2012-09-08 00:00:00,956.22,-54.48,38.16,2012-09-09 18:00:00,976.76,-30.75,54.34,2012-08-28 06:00:00,1008.9,-25.04,10.56,2012-08-29 06:00:00,2012-09-09 18:00:00,976.76,-30.75,54.34
16,TC201305,Bella,A,2,2013-08-29 06:00:00,959.79,-63.59,34.86,2013-08-29 06:00:00,959.79,-63.59,34.86,2013-08-31 12:00:00,1001.65,-55.68,48.25,2013-08-31 18:00:00,1001.43,-51.43,50.32,2013-08-19 18:00:00,1007.27,-16.52,12.63,2013-08-20 18:00:00,2013-09-02 12:00:00,989.89,-7.25,54.5
17,TC201307,Dorcas,A,2,2013-10-08 00:00:00,966.02,-63.06,39.55,2013-10-08 00:00:00,966.02,-63.06,39.55,2013-10-08 06:00:00,966.43,-60.61,41.54,2013-10-09 06:00:00,999.22,-50.09,52.64,2013-10-04 12:00:00,1006.17,-69.35,31.62,2013-10-04 12:00:00,2013-10-09 12:00:00,1001.43,-49.89,54.21
18,TC201308,Erling,A,2,2013-10-10 12:00:00,963.94,-58.85,27.67,2013-10-10 12:00:00,963.94,-58.85,27.67,2013-10-13 18:00:00,997.88,-53.55,32.09,2013-10-18 00:00:00,990.17,-15.63,37.21,2013-10-07 18:00:00,1008.33,-56.34,28.28,2013-10-07 18:00:00,2013-10-20 06:00:00,1004.97,2.57,39.0
19,TC201404,Hendrik,A,2,2014-09-07 18:00:00,946.7,-47.28,39.13,2014-09-07 18:00:00,946.7,-47.28,39.13,2014-09-09 06:00:00,960.91,-35.49,45.24,2014-09-10 06:00:00,983.3,-23.24,50.47,2014-08-28 06:00:00,1005.14,-24.56,10.77,2014-08-28 06:00:00,2014-09-10 06:00:00,983.3,-23.24,50.47
20,TC201406,Jana,A,2,2014-11-01 00:00:00,943.49,-57.57,40.5,2014-11-01 00:00:00,943.49,-57.57,40.5,2014-11-02 00:00:00,960.51,-44.02,50.93,2014-11-02 00:00:00,960.51,-44.02,50.93,2014-10-28 18:00:00,998.23,-74.27,33.15,2014-10-28 18:00:00,2014-11-02 06:00:00,963.06,-41.29,54.83
21,TC201506,Rayan,A,2,2015-07-19 18:00:00,987.83,-62.18,41.71,2015-07-19 12:00:00,988.15,-64.94,39.76,2015-07-19 18:00:00,987.83,-62.18,41.71,2015-07-21 00:00:00,1000.1,-44.75,47.02,2015-07-15 18:00:00,1018.93,-80.75,31.37,2015-07-15 18:00:00,2015-07-23 18:00:00,1011.93,1.75,54.0
22,TC201702,Geoffrey,A,2,2017-09-17 18:00:00,917.74,-54.48,29.99,2017-09-17 18:00:00,917.74,-54.48,29.99,2017-09-18 12:00:00,930.43,-50.78,31.96,2017-09-23 18:00:00,970.07,-15.37,54.18,2017-09-12 00:00:00,1007.94,-30.72,16.68,2017-09-12 00:00:00,2017-09-24 00:00:00,975.01,-15.57,56.09
23,TC201802,Luca,A,2,2018-06-23 06:00:00,990.73,-82.27,27.22,2018-06-23 06:00:00,990.73,-82.27,27.22,2018-06-25 06:00:00,1000.98,-69.08,33.87,2018-06-27 18:00:00,1006.76,-46.73,44.22,2018-06-19 18:00:00,1012.02,-81.02,30.18,2018-06-21 18:00:00,2018-06-30 18:00:00,1001.22,-9.5,55.75
24,TC201803,Mary,A,2,2018-11-16 18:00:00,978.25,-50.26,45.55,2018-11-16 00:00:00,985.15,-54.1,39.14,2018-11-16 06:00:00,982.86,-52.82,41.04,2018-11-17 06:00:00,979.76,-44.78,49.61,2018-11-13 06:00:00,997.81,-56.84,29.51,2018-11-13 06:00:00,2018-11-18 06:00:00,985.07,-21.5,54.25
25,TC202006,Blaise,A,2,2020-08-18 18:00:00,947.9,-75.55,36.12,2020-08-18 18:00:00,947.9,-75.55,36.12,2020-08-19 18:00:00,988.26,-72.59,43.04,2020-08-20 06:00:00,998.72,-67.32,47.37,2020-08-10 18:00:00,1007.71,-33.72,16.7,2020-08-12 00:00:00,2020-08-23 00:00:00,1007.08,-15.25,54.25
26,TC202009,Emiliano,A,2,2020-09-24 00:00:00,924.21,-77.74,26.92,2020-09-24 00:00:00,924.21,-77.74,26.92,2020-09-28 00:00:00,961.75,-65.08,41.88,2020-09-28 18:00:00,974.92,-57.37,44.79,2020-09-18 00:00:00,1005.14,-44.17,11.96,2020-09-18 00:00:00,2020-09-29 18:00:00,960.29,-37.37,56.02
27,TC202010,Gloria,A,2,2020-10-13 06:00:00,948.1,-48.11,32.42,2020-10-13 06:00:00,948.1,-48.11,32.42,2020-10-14 18:00:00,983.57,-43.09,43.22,2020-10-15 06:00:00,995.22,-35.84,48.52,2020-10-03 12:00:00,1008.35,-15.6,10.39,2020-10-04 00:00:00,2020-10-15 12:00:00,994.39,-30.75,52.0
28,TC202107,Oxlip,A,2,2021-09-13 06:00:00,991.55,-41.77,40.95,2021-09-12 00:00:00,996.72,-55.63,38.3,2021-09-12 06:00:00,993.31,-53.26,39.46,2021-09-14 18:00:00,1002.56,-29.5,48.0,2021-09-09 00:00:00,1011.37,-63.91,35.58,2021-09-09 00:00:00,2021-09-15 12:00:00,1002.77,-19.25,56.0
29,TC202308,Bernardo,A,2,2023-09-04 06:00:00,948.26,-67.14,36.3,2023-09-04 06:00:00,948.26,-67.14,36.3,2023-09-04 12:00:00,956.99,-64.75,36.93,2023-09-06 00:00:00,989.02,-42.66,44.29,2023-08-25 06:00:00,1009.14,-47.57,17.32,2023-08-25 06:00:00,2023-09-07 00:00:00,985.13,-18.5,55.75
30,TC202704,Brenda,A,2,2027-09-03 06:00:00,953.29,-41.68,41.31,2027-09-02 00:00:00,972.83,-55.88,34.82,2027-09-02 06:00:00,957.54,-54.18,35.78,2027-09-04 12:00:00,965.2,-16.19,52.29,2027-08-24 06:00:00,1002.02,-17.77,17.06,2027-08-24 06:00:00,2027-09-04 18:00:00,965.23,-12.63,54.92
31,TC202806,Laurel,A,2,2028-09-09 18:00:00,909.04,-55.22,30.03,2028-09-09 18:00:00,909.04,-55.22,30.03,2028-09-12 00:00:00,914.66,-51.47,41.51,2028-09-13 00:00:00,936.01,-40.59,52.99,2028-08-31 00:00:00,1010.0,-19.15,9.36,2028-09-02 06:00:00,2028-09-13 18:00:00,935.81,-27.97,60.73
32,TC202808,Peach,A,2,2028-10-20 06:00:00,933.77,-63.49,36.68,2028-10-20 06:00:00,933.77,-63.49,36.68,2028-10-21 00:00:00,940.62,-65.29,39.58,2028-10-22 00:00:00,976.37,-58.44,48.6,2028-10-17 18:00:00,1001.26,-61.99,31.28,2028-10-18 00:00:00,2028-10-22 06:00:00,976.72,-54.19,51.94
33,TC203001,Bruce,A,2,2030-09-11 18:00:00,935.37,-82.34,25.24,2030-09-11 18:00:00,935.37,-82.34,25.24,2030-09-13 00:00:00,941.1,-79.18,28.69,2030-09-16 00:00:00,986.45,-52.17,49.76,2030-09-04 06:00:00,1009.78,-24.86,7.99,2030-09-06 06:00:00,2030-09-17 12:00:00,993.66,-28.5,54.0
34,TC203104,Gianluigi,B,2,2031-09-09 06:00:00,955.48,-37.85,41.49,2031-09-09 06:00:00,955.48,-37.85,41.49,2031-09-09 12:00:00,958.29,-35.01,43.7,2031-09-10 12:00:00,973.56,-21.05,58.85,2031-08-31 00:00:00,1005.17,-17.48,11.28,2031-08-31 18:00:00,2031-09-10 12:00:00,973.56,-21.05,58.85
35,TC203202,Phil,B,2,2032-10-05 12:00:00,952.76,-54.29,41.55,2032-09-28 18:00:00,983.7,-53.23,17.67,2032-10-05 00:00:00,979.59,-61.46,36.8,2032-10-06 06:00:00,970.78,-44.22,51.63,2032-09-25 12:00:00,1009.83,-36.95,10.54,2032-09-25 12:00:00,2032-10-06 18:00:00,978.1,-36.67,54.03
36,TC203301,Sergio,B,2,2033-09-05 06:00:00,928.05,-57.21,25.05,2033-09-05 06:00:00,928.05,-57.21,25.05,2033-09-07 00:00:00,951.72,-53.58,33.29,2033-09-09 06:00:00,976.59,-44.23,46.73,2033-08-29 18:00:00,1006.14,-27.63,11.77,2033-08-30 18:00:00,2033-09-10 06:00:00,984.66,-34.03,50.34
37,TC203302,Vivianne,B,2,2033-10-14 18:00:00,918.5,-52.98,34.37,2033-10-13 12:00:00,951.25,-65.43,31.84,2033-10-13 18:00:00,941.8,-63.91,31.78,2033-10-19 18:00:00,965.22,-32.45,53.92,2033-10-10 00:00:00,998.51,-70.78,30.49,2033-10-10 00:00:00,2033-10-20 06:00:00,972.32,-27.03,56.82
38,TC203404,Alex,B,2,2034-11-20 18:00:00,954.08,-64.84,32.41,2034-11-20 18:00:00,954.08,-64.84,32.41,2034-11-23 18:00:00,976.65,-48.14,43.03,2034-11-24 00:00:00,977.51,-42.91,45.19,2034-11-17 12:00:00,989.92,-67.17,26.61,2034-11-17 12:00:00,2034-11-24 18:00:00,985.6,-28.75,47.25
39,TC203506,Dawn,B,2,2035-10-23 18:00:00,955.14,-44.23,37.95,2035-10-23 06:00:00,957.59,-46.22,36.09,2035-10-23 12:00:00,956.61,-44.96,36.94,2035-10-25 12:00:00,998.19,-28.73,42.82,2035-10-18 12:00:00,1003.97,-55.19,31.13,2035-10-19 18:00:00,2035-10-26 06:00:00,998.33,-14.25,44.75
40,TC203508,Flavia,B,2,2035-12-09 06:00:00,967.87,-56.81,34.03,2035-12-09 06:00:00,967.87,-56.81,34.03,2035-12-10 18:00:00,976.36,-51.5,36.84,2035-12-13 12:00:00,994.99,-42.15,58.11,2035-12-04 00:00:00,993.01,-60.84,34.9,2035-12-04 18:00:00,2035-12-13 18:00:00,991.21,-37.39,59.98
41,TC203601,Harrison,B,2,2036-07-05 18:00:00,974.97,-69.23,39.06,2036-07-05 18:00:00,974.97,-69.23,39.06,2036-07-06 00:00:00,975.58,-66.44,40.55,2036-07-06 18:00:00,982.74,-58.64,44.92,2036-06-27 18:00:00,1010.52,-76.0,35.11,2036-06-27 18:00:00,2036-07-10 18:00:00,1000.17,-9.25,55.25
42,TC203603,Janet,B,2,2036-08-19 06:00:00,933.93,-50.67,33.88,2036-08-19 06:00:00,933.93,-50.67,33.88,2036-08-19 12:00:00,935.91,-50.6,34.95,2036-08-23 00:00:00,972.35,-30.48,50.33,2036-08-14 00:00:00,1004.51,-25.86,16.27,2036-08-15 12:00:00,2036-08-25 00:00:00,994.03,-6.75,55.5
43,TC203608,Nicole,B,2,2036-09-22 06:00:00,995.66,-35.73,13.49,2036-09-22 06:00:00,995.66,-35.73,13.49,2036-09-27 18:00:00,1005.36,-31.25,27.5,2036-09-27 18:00:00,1005.36,-31.25,27.5,2036-09-20 00:00:00,1009.32,-26.23,14.08,2036-09-20 00:00:00,2036-09-30 06:00:00,1013.17,-15.75,37.0
44,TC203613,Audrey,B,2,2036-11-21 18:00:00,965.93,-52.43,38.95,2036-11-21 00:00:00,981.32,-59.84,32.12,2036-11-21 06:00:00,979.37,-58.0,33.87,2036-11-22 00:00:00,973.01,-48.93,42.57,2036-11-18 06:00:00,1000.21,-62.49,24.0,2036-11-18 06:00:00,2036-11-22 12:00:00,988.09,-39.5,51.5
45,TC203704,Brandon,B,2,2037-10-21 06:00:00,936.9,-52.37,40.83,2037-10-20 06:00:00,953.37,-64.46,38.61,2037-10-20 12:00:00,949.08,-62.68,39.09,2037-10-23 18:00:00,971.24,-16.07,54.21,2037-10-14 18:00:00,1012.36,-66.25,27.47,2037-10-14 18:00:00,2037-10-24 06:00:00,983.65,-13.5,55.96
46,TC203810,Hope,B,2,2038-11-16 00:00:00,993.92,-44.52,41.52,2038-11-10 18:00:00,994.73,-37.01,28.45,2038-11-16 00:00:00,993.92,-44.52,41.52,2038-11-16 06:00:00,995.17,-40.17,44.32,2038-11-09 12:00:00,1005.3,-37.32,28.72,2038-11-09 12:00:00,2038-11-16 12:00:00,1001.45,-35.03,47.05
47,TC203903,Jacob,B,2,2039-08-19 12:00:00,955.12,-50.71,41.99,2039-08-16 18:00:00,987.99,-63.84,39.17,2039-08-17 06:00:00,991.93,-62.12,39.36,2039-08-20 18:00:00,991.26,-38.5,50.44,2039-08-13 18:00:00,1015.58,-71.38,37.13,2039-08-13 18:00:00,2039-08-21 06:00:00,988.3,-27.95,54.84
48,TC204103,Demi,B,2,2041-10-19 18:00:00,975.73,-68.59,44.01,2041-10-17 06:00:00,992.73,-77.12,29.53,2041-10-19 00:00:00,986.98,-70.31,34.68,2041-10-19 12:00:00,978.33,-68.28,41.67,2041-10-15 12:00:00,1008.7,-72.93,28.43,2041-10-15 12:00:00,2041-10-20 00:00:00,980.5,-67.02,45.95
49,TC204305,Noelle,B,2,2043-06-18 12:00:00,989.9,-80.84,26.71,2043-06-18 12:00:00,989.9,-80.84,26.71,2043-06-22 06:00:00,997.62,-67.78,42.34,2043-06-23 06:00:00,999.13,-59.9,45.04,2043-06-13 18:00:00,1012.29,-87.38,17.44,2043-06-13 18:00:00,2043-06-24 18:00:00,1007.24,-39.75,41.25
50,TC204307,Shannon,B,2,2043-08-27 12:00:00,933.64,-58.85,31.74,2043-08-27 12:00:00,933.64,-58.85,31.74,2043-08-30 18:00:00,949.08,-52.81,41.86,2043-08-31 18:00:00,957.76,-40.66,54.01,2043-08-16 12:00:00,1012.0,-26.89,9.98,2043-08-17 06:00:00,2043-08-31 18:00:00,957.76,-40.66,54.01
51,TC204309,Wendy,B,2,2043-10-06 06:00:00,989.66,-36.83,46.24,2043-10-05 12:00:00,998.45,-40.29,39.62,2043-10-05 18:00:00,994.08,-38.72,41.7,2043-10-06 06:00:00,989.66,-36.83,46.24,2043-09-30 18:00:00,1013.0,-38.81,33.88,2043-09-30 18:00:00,2043-10-07 00:00:00,998.32,-29.75,56.5
52,TC204501,Helena,B,2,2045-04-27 18:00:00,991.96,-62.76,33.76,2045-04-25 00:00:00,995.37,-86.61,28.45,2045-04-26 18:00:00,997.61,-80.14,27.95,2045-04-26 18:00:00,997.61,-80.14,27.95,2045-04-23 18:00:00,1007.68,-79.97,31.97,2045-04-23 18:00:00,2045-04-27 18:00:00,991.96,-62.76,33.76
53,TC204505,Lomy,B,2,2045-10-07 18:00:00,926.76,-55.03,33.97,2045-10-07 18:00:00,926.76,-55.03,33.97,2045-10-09 00:00:00,949.91,-52.65,42.73,2045-10-09 18:00:00,986.37,-42.7,51.71,2045-10-03 12:00:00,1007.98,-39.01,19.39,2045-10-03 18:00:00,2045-10-09 18:00:00,986.37,-42.7,51.71
54,TC204702,Aidan,B,2,2047-08-27 18:00:00,909.95,-74.71,28.14,2047-08-27 18:00:00,909.95,-74.71,28.14,2047-08-29 18:00:00,925.62,-73.31,34.47,2047-09-01 12:00:00,999.27,-69.75,47.75,2047-08-16 18:00:00,1007.74,-19.12,9.99,2047-08-18 12:00:00,2047-09-03 06:00:00,991.08,-54.75,54.5
55,TC204802,Carson,B,2,2048-09-08 18:00:00,934.13,-38.71,47.54,2048-09-06 06:00:00,946.57,-59.92,29.72,2048-09-07 00:00:00,947.85,-57.89,33.3,2048-09-09 12:00:00,956.47,-30.48,57.02,2048-08-29 12:00:00,1008.09,-20.48,13.94,2048-08-29 12:00:00,2048-09-09 12:00:00,956.47,-30.48,57.02
56,TC205002,Olivia,B,2,2050-09-13 12:00:00,945.43,-43.63,38.69,2050-09-12 00:00:00,948.71,-56.13,34.1,2050-09-12 18:00:00,952.02,-52.21,36.34,2050-09-15 12:00:00,1002.48,-14.53,39.93,2050-09-03 12:00:00,1005.94,-16.78,12.92,2050-09-04 18:00:00,2050-09-16 12:00:00,1015.32,-9.5,36.5
57,TC205115,Joshua,B,2,2051-11-09 12:00:00,926.01,-15.01,58.52,2051-11-03 00:00:00,948.75,-77.42,27.42,2051-11-03 06:00:00,942.88,-75.71,28.13,2051-11-08 06:00:00,968.88,-32.14,45.07,2051-10-24 12:00:00,1009.12,-77.59,10.91,2051-10-24 18:00:00,2051-11-10 06:00:00,935.66,-16.36,58.6
58,TC205605,Ian,B,2,2056-08-19 00:00:00,922.71,-80.75,31.37,2056-08-19 00:00:00,922.71,-80.75,31.37,2056-08-24 12:00:00,999.13,-72.69,42.02,2056-08-24 18:00:00,997.93,-69.59,44.16,2056-08-05 06:00:00,1011.19,-20.6,12.45,2056-08-07 12:00:00,2056-08-26 12:00:00,988.17,-37.0,54.75
59,TC205802,Manfred,B,2,2058-08-24 06:00:00,931.9,-61.5,40.91,2058-08-23 18:00:00,938.15,-63.57,37.53,2058-08-24 00:00:00,933.86,-62.33,39.26,2058-08-25 06:00:00,955.14,-50.87,49.68,2058-08-10 18:00:00,1004.12,-21.37,11.36,2058-08-11 06:00:00,2058-08-25 12:00:00,960.57,-46.73,53.17
60,TC205803,Oxlip,B,2,2058-09-15 18:00:00,947.75,-50.9,37.06,2058-09-15 18:00:00,947.75,-50.9,37.06,2058-09-17 00:00:00,972.27,-41.6,48.45,2058-09-17 06:00:00,979.2,-36.71,51.41,2058-09-10 18:00:00,1011.02,-46.07,18.58,2058-09-10 18:00:00,2058-09-17 12:00:00,986.4,-30.39,53.7
61,TC205906,Bernardo,B,2,2059-09-08 06:00:00,960.17,-51.65,23.48,2059-09-08 06:00:00,960.17,-51.65,23.48,2059-09-12 12:00:00,975.38,-48.52,36.53,2059-09-14 06:00:00,1002.57,-30.25,54.5,2059-08-30 00:00:00,1007.28,-25.52,10.36,2059-08-30 00:00:00,2059-09-14 06:00:00,1002.57,-30.25,54.5
62,TC206206,Brenda,C,2,2062-09-06 06:00:00,954.9,-57.6,36.23,2062-09-06 06:00:00,954.9,-57.6,36.23,2062-09-07 00:00:00,966.73,-54.97,37.36,2062-09-10 06:00:00,986.78,-21.61,52.4,2062-08-25 00:00:00,1004.72,-15.35,11.9,2062-08-26 18:00:00,2062-09-10 18:00:00,998.72,-12.27,55.25
63,TC206207,Claudio,C,2,2062-09-09 12:00:00,933.84,-60.18,26.74,2062-09-09 12:00:00,933.84,-60.18,26.74,2062-09-12 00:00:00,950.43,-59.45,33.42,2062-09-16 18:00:00,987.65,-26.03,50.82,2062-09-01 12:00:00,1007.05,-24.11,14.71,2062-09-03 18:00:00,2062-09-17 06:00:00,997.21,-18.39,56.67
64,TC206211,Gwyneth,C,2,2062-11-15 18:00:00,963.91,-79.08,12.5,2062-11-15 18:00:00,963.91,-79.08,12.5,2062-11-18 06:00:00,984.38,-74.46,14.24,2062-11-22 00:00:00,1006.54,-65.75,21.75,2062-11-12 18:00:00,1008.12,-80.18,10.98,2062-11-12 18:00:00,2062-11-24 06:00:00,1013.06,-63.0,25.25
65,TC206302,Isaac,C,2,2063-08-29 06:00:00,992.67,-15.25,54.25,2063-08-24 18:00:00,995.12,-53.11,37.27,2063-08-26 18:00:00,999.1,-45.81,44.04,2063-08-27 18:00:00,1003.28,-32.8,48.05,2063-08-19 00:00:00,1011.24,-51.38,19.64,2063-08-19 00:00:00,2063-08-29 06:00:00,992.67,-15.25,54.25
66,TC206402,Kelechi,C,2,2064-10-02 00:00:00,955.26,-46.28,39.67,2064-10-01 06:00:00,963.93,-48.64,36.27,2064-10-01 18:00:00,962.01,-47.17,38.94,2064-10-04 06:00:00,994.48,-14.41,47.59,2064-09-27 06:00:00,1003.47,-49.27,34.42,2064-09-27 06:00:00,2064-10-05 12:00:00,1017.28,1.75,46.0
67,TC206607,Seldoen,C,2,2066-09-12 12:00:00,928.01,-65.08,29.6,2066-09-12 12:00:00,928.01,-65.08,29.6,2066-09-15 12:00:00,938.36,-56.21,39.75,2066-09-17 12:00:00,978.32,-34.16,49.64,2066-09-01 18:00:00,1008.25,-25.6,11.86,2066-09-02 00:00:00,2066-09-18 18:00:00,984.97,-22.12,57.73
68,TC206706,Dylan,C,2,2067-08-26 12:00:00,907.48,-74.72,22.63,2067-08-26 12:00:00,907.48,-74.72,22.63,2067-08-30 06:00:00,983.43,-78.4,31.9,2067-09-01 18:00:00,1003.28,-75.88,35.63,2067-08-18 00:00:00,1009.3,-29.44,11.0,2067-08-18 00:00:00,2067-09-02 06:00:00,993.57,-70.72,37.94
69,TC206707,Emmelyn,C,2,2067-09-02 00:00:00,950.33,-51.71,41.43,2067-09-02 00:00:00,950.33,-51.71,41.43,2067-09-03 06:00:00,980.19,-44.66,48.55,2067-09-03 18:00:00,987.66,-39.84,52.9,2067-08-22 06:00:00,1008.36,-29.94,12.56,2067-08-23 00:00:00,2067-09-04 00:00:00,987.42,-35.5,56.0
70,TC206709,Gianluigi,C,2,2067-09-16 18:00:00,942.0,-33.53,39.52,2067-09-14 00:00:00,947.68,-52.05,29.16,2067-09-14 12:00:00,952.72,-50.22,30.99,2067-09-19 06:00:00,967.91,-18.58,57.81,2067-09-06 18:00:00,1007.34,-28.96,12.97,2067-09-07 12:00:00,2067-09-19 12:00:00,972.76,-18.69,58.39
71,TC206711,Ivy,C,2,2067-11-12 00:00:00,940.73,-35.1,56.04,2067-11-08 06:00:00,957.25,-55.31,26.6,2067-11-09 12:00:00,952.34,-53.05,30.4,2067-11-12 06:00:00,944.89,-29.49,58.74,2067-11-02 12:00:00,1011.9,-48.97,26.57,2067-11-03 00:00:00,2067-11-12 06:00:00,944.89,-29.49,58.74
72,TC206802,Katie,C,2,2068-09-16 12:00:00,914.37,-68.28,32.51,2068-09-16 12:00:00,914.37,-68.28,32.51,2068-09-17 06:00:00,921.74,-65.46,37.21,2068-09-18 18:00:00,955.68,-47.46,49.98,2068-09-04 06:00:00,1005.7,-33.41,10.28,2068-09-04 06:00:00,2068-09-19 12:00:00,965.25,-38.71,56.07
73,TC207002,Beatrice,C,2,2070-05-31 06:00:00,976.92,-48.57,39.5,2070-05-31 00:00:00,979.35,-49.22,37.67,2070-05-31 06:00:00,976.92,-48.57,39.5,2070-06-01 06:00:00,990.56,-45.73,46.79,2070-05-26 18:00:00,1004.6,-71.25,23.16,2070-05-26 18:00:00,2070-06-01 06:00:00,990.56,-45.73,46.79
74,TC207003,Colin,C,2,2070-06-07 00:00:00,988.12,-81.12,31.79,2070-06-07 00:00:00,988.12,-81.12,31.79,2070-06-10 00:00:00,1003.8,-67.7,46.28,2070-06-11 00:00:00,1002.81,-62.27,49.26,2070-06-02 12:00:00,1004.44,-76.81,29.49,2070-06-02 12:00:00,2070-06-11 00:00:00,1002.81,-62.27,49.26
75,TC207008,Flavia,C,2,2070-11-01 18:00:00,944.71,-48.96,39.37,2070-11-01 18:00:00,944.71,-48.96,39.37,2070-11-02 12:00:00,963.08,-47.67,43.95,2070-11-03 06:00:00,975.92,-39.69,52.21,2070-10-26 18:00:00,1014.32,-42.53,33.94,2070-10-26 18:00:00,2070-11-03 06:00:00,975.92,-39.69,52.21
76,TC207510,Tiffany,C,2,2075-09-30 06:00:00,941.03,-34.96,51.94,2075-09-30 06:00:00,941.03,-34.96,51.94,2075-10-01 12:00:00,960.22,-33.15,57.06,2075-10-02 00:00:00,965.22,-32.8,57.08,2075-09-11 06:00:00,1009.85,-12.14,10.57,2075-09-13 12:00:00,2075-10-02 12:00:00,970.39,-29.99,57.41
77,TC207513,Bonnie,C,2,2075-11-22 12:00:00,971.56,-37.34,36.85,2075-11-22 12:00:00,971.56,-37.34,36.85,2075-11-24 18:00:00,994.32,-31.04,49.12,2075-11-25 00:00:00,1000.08,-27.68,50.73,2075-11-20 06:00:00,995.63,-34.88,28.92,2075-11-20 06:00:00,2075-11-25 18:00:00,1007.05,-18.5,55.25
78,TC207606,Frances,C,2,2076-10-18 00:00:00,965.18,-15.0,56.5,2076-10-15 18:00:00,991.5,-36.53,36.65,2076-10-16 18:00:00,992.26,-32.65,43.22,2076-10-17 12:00:00,978.1,-24.25,50.25,2076-10-11 12:00:00,1006.56,-37.6,26.15,2076-10-11 12:00:00,2076-10-18 00:00:00,965.18,-15.0,56.5
79,TC207607,Hubert,C,2,2076-10-18 12:00:00,933.05,-66.8,38.8,2076-10-17 06:00:00,966.05,-70.67,31.99,2076-10-17 12:00:00,957.96,-70.2,32.69,2076-10-21 18:00:00,949.99,-19.87,59.41,2076-10-13 00:00:00,1009.72,-76.79,29.27,2076-10-13 00:00:00,2076-10-21 18:00:00,949.99,-19.87,59.41
80,TC207805,Shannon,C,2,2078-10-10 12:00:00,986.56,-66.85,34.65,2078-10-08 12:00:00,995.61,-70.59,26.29,2078-10-09 00:00:00,993.78,-70.29,28.55,2078-10-11 18:00:00,996.17,-59.51,38.81,2078-10-05 06:00:00,1007.66,-68.14,20.57,2078-10-05 06:00:00,2078-10-12 18:00:00,1001.13,-51.0,48.0
81,TC207902,Wendy,C,2,2079-09-01 00:00:00,899.1,-53.18,27.82,2079-09-01 00:00:00,899.1,-53.18,27.82,2079-09-02 12:00:00,916.81,-53.54,34.37,2079-09-04 12:00:00,956.7,-38.07,52.95,2079-08-27 12:00:00,1000.17,-30.24,14.55,2079-08-27 12:00:00,2079-09-04 18:00:00,959.6,-37.63,55.1
82,TC207904,Bryan,C,2,2079-10-06 18:00:00,930.7,-52.25,40.65,2079-10-05 18:00:00,966.05,-62.65,35.98,2079-10-06 00:00:00,960.48,-60.68,36.54,2079-10-08 06:00:00,980.62,-52.34,41.21,2079-10-01 00:00:00,1012.9,-73.0,31.44,2079-10-01 00:00:00,2079-10-25 00:00:00,975.47,-47.75,53.92
83,TC208006,Helena,C,2,2080-09-27 18:00:00,919.42,-51.79,40.0,2080-09-26 12:00:00,929.73,-66.28,31.61,2080-09-26 18:00:00,933.81,-65.18,32.87,2080-09-29 06:00:00,942.66,-26.45,56.78,2080-09-16 12:00:00,1009.25,-14.95,11.87,2080-09-17 06:00:00,2080-09-29 06:00:00,942.66,-26.45,56.78
84,TC208007,John,C,2,2080-10-18 12:00:00,941.09,-52.22,57.36,2080-10-16 00:00:00,965.95,-68.73,38.16,2080-10-16 06:00:00,958.11,-67.94,38.85,2080-10-18 06:00:00,948.82,-48.03,54.62,2080-10-09 06:00:00,1007.24,-62.04,32.76,2080-10-09 06:00:00,2080-10-18 18:00:00,943.77,-54.14,56.93
85,TC208010,Lomy,C,2,2080-11-23 06:00:00,990.58,-36.15,36.42,2080-11-23 06:00:00,990.58,-36.15,36.42,2080-11-25 18:00:00,994.93,-41.65,48.03,2080-11-26 00:00:00,999.18,-37.82,51.26,2080-11-20 12:00:00,1007.56,-40.0,27.35,2080-11-20 12:00:00,2080-11-26 06:00:00,999.49,-32.98,53.88
86,TC208105,Nathan,C,2,2081-09-28 12:00:00,988.31,-39.44,39.09,2081-09-26 12:00:00,989.27,-59.08,31.01,2081-09-27 06:00:00,994.39,-54.38,33.41,2081-09-29 12:00:00,1007.67,-27.75,43.25,2081-09-21 00:00:00,1000.22,-51.54,18.27,2081-09-21 00:00:00,2081-09-30 00:00:00,1013.56,-22.25,47.25
87,TC208209,Grace,C,2,2082-08-28 00:00:00,908.31,-76.32,28.89,2082-08-28 00:00:00,908.31,-76.32,28.89,2082-08-29 00:00:00,912.98,-73.21,32.23,2082-09-01 00:00:00,978.65,-51.49,47.13,2082-08-22 18:00:00,1006.9,-51.19,13.86,2082-08-23 18:00:00,2082-09-02 00:00:00,991.38,-35.75,50.0
88,TC208211,Jana,C,2,2082-09-19 12:00:00,994.99,-77.36,32.23,2082-09-19 12:00:00,994.99,-77.36,32.23,2082-09-21 12:00:00,1000.53,-76.99,39.06,2082-09-22 00:00:00,1001.89,-72.8,40.48,2082-09-17 12:00:00,1011.17,-77.62,30.12,2082-09-17 12:00:00,2082-09-22 12:00:00,998.11,-68.25,43.75
89,TC208303,Manuel,C,2,2083-09-19 18:00:00,938.39,-63.38,33.2,2083-09-19 18:00:00,938.39,-63.38,33.2,2083-09-23 00:00:00,971.84,-44.62,46.84,2083-09-23 12:00:00,985.97,-35.07,51.23,2083-09-17 18:00:00,1000.96,-61.99,24.03,2083-09-17 18:00:00,2083-09-24 00:00:00,995.37,-22.75,54.25
90,TC208304,Olivia,C,2,2083-10-09 12:00:00,925.58,-34.93,40.35,2083-10-04 06:00:00,948.4,-55.69,20.92,2083-10-05 12:00:00,949.31,-52.54,22.23,2083-10-10 18:00:00,937.72,-38.89,56.76,2083-09-25 12:00:00,1008.08,-24.85,12.59,2083-09-26 00:00:00,2083-10-11 06:00:00,952.32,-38.29,58.91
91,TC208503,Benjamin,C,2,2085-08-17 00:00:00,931.17,-66.8,38.8,2085-08-17 00:00:00,931.17,-66.8,38.8,2085-08-18 06:00:00,975.75,-62.92,46.64,2085-08-19 06:00:00,990.69,-59.29,50.35,2085-08-08 00:00:00,1009.8,-38.44,13.71,2085-08-08 00:00:00,2085-08-19 06:00:00,990.69,-59.29,50.35
92,TC208504,Carmen,C,2,2085-08-28 12:00:00,934.12,-39.61,53.84,2085-08-24 18:00:00,993.99,-59.82,30.64,2085-08-25 00:00:00,989.41,-59.87,33.22,2085-08-29 12:00:00,958.33,-39.24,58.82,2085-08-17 12:00:00,1006.2,-32.31,13.53,2085-08-18 00:00:00,2085-08-29 18:00:00,966.21,-38.29,58.91
93,TC208507,Geoffrey,C,2,2085-09-29 06:00:00,931.18,-50.51,29.82,2085-09-29 06:00:00,931.18,-50.51,29.82,2085-09-30 18:00:00,963.87,-43.65,39.25,2085-10-01 18:00:00,991.71,-30.51,46.28,2085-09-19 00:00:00,1006.32,-21.58,12.23,2085-09-19 00:00:00,2085-10-02 06:00:00,1003.71,-20.5,49.0
94,TC208705,Mary,C,2,2087-09-20 18:00:00,928.18,-70.49,24.8,2087-09-20 18:00:00,928.18,-70.49,24.8,2087-09-23 12:00:00,948.48,-73.9,38.16,2087-09-24 18:00:00,981.42,-63.0,44.61,2087-09-15 06:00:00,1007.85,-55.41,16.82,2087-09-15 06:00:00,2087-09-28 00:00:00,997.69,-0.5,54.0
95,TC208708,Stefan,C,2,2087-09-29 00:00:00,931.19,-52.84,30.49,2087-09-29 00:00:00,931.19,-52.84,30.49,2087-10-03 00:00:00,959.25,-55.33,36.37,2087-10-05 18:00:00,961.06,-30.26,50.54,2087-09-22 06:00:00,1006.07,-30.13,12.48,2087-09-22 06:00:00,2087-10-07 18:00:00,993.23,-3.0,53.25
96,TC209011,Oxlip,C,2,2090-11-08 18:00:00,962.96,-30.03,50.08,2090-11-05 18:00:00,997.26,-57.01,36.87,2090-11-06 00:00:00,994.31,-55.4,37.56,2090-11-09 12:00:00,970.2,-20.27,49.55,2090-11-02 06:00:00,1009.26,-46.39,23.33,2090-11-02 06:00:00,2090-11-10 06:00:00,982.09,-6.25,52.5
97,TC209104,Sofiee,C,2,2091-08-25 00:00:00,924.05,-62.11,24.21,2091-08-25 00:00:00,924.05,-62.11,24.21,2091-08-28 06:00:00,936.79,-61.82,38.62,2091-08-30 00:00:00,968.57,-52.28,51.88,2091-08-16 18:00:00,1011.57,-23.42,9.95,2091-08-18 12:00:00,2091-08-30 12:00:00,976.27,-50.66,54.62
98,TC209105,Victor,C,2,2091-09-02 06:00:00,943.51,-48.25,37.79,2091-09-02 06:00:00,943.51,-48.25,37.79,2091-09-06 00:00:00,996.84,-27.22,48.98,2091-09-06 12:00:00,1005.89,-24.44,51.36,2091-08-20 18:00:00,1005.46,-12.02,9.12,2091-08-22 12:00:00,2091-09-06 12:00:00,1005.89,-24.44,51.36
99,TC209111,Angela,C,2,2091-11-29 18:00:00,969.67,-51.73,49.88,2091-11-28 00:00:00,989.15,-51.36,44.42,2091-11-28 06:00:00,987.61,-49.98,47.78,2091-11-29 00:00:00,988.95,-45.15,54.75,2091-11-21 06:00:00,1005.47,-49.85,29.27,2091-11-22 12:00:00,2091-11-30 00:00:00,974.51,-49.48,52.36
100,TC209201,Bernardo,C,2,2092-09-29 00:00:00,972.61,-47.05,57.79,2092-09-26 12:00:00,979.84,-49.07,35.3,2092-09-27 06:00:00,989.38,-47.11,40.54,2092-09-28 18:00:00,976.48,-46.42,55.68,2092-09-17 00:00:00,1005.59,-10.33,10.93,2092-09-18 00:00:00,2092-09-29 12:00:00,978.81,-46.82,58.57
