,Code,Name,Orig Code,Ensemble,Trans Type,Peak Time,Peak SLP,Peak Lon,Peak Lat,Trop Peak Time,Trop Begin Time,Trop Peak SLP,Trop Peak Lon,Trop Peak Lat,Genesis Time,Genesis SLP,Genesis Lon,Genesis Lat,Final Time,Final SLP,Final Lon,Final Lat,Trop Begin SLP,Trop Begin Lon,Trop Begin Lat,ET Begin Time,ET Begin SLP,ET Begin Lon,ET Begin Lat,ET Complete Time,ET Complete SLP,ET Complete Lon,ET Complete Lat
0,TC200209,Flavia,0093,A,2,2002-09-03 18:00:00,916.62,-59.07,23.47,2002-09-03 18:00:00,2002-08-31 00:00:00,916.62,-59.07,23.47,2002-08-29 18:00:00,1012.31,-39.04,14.75,2002-09-08 18:00:00,990.45,-49.09,56.68,1009.6,-45.8,17.23,2002-09-07 06:00:00,943.24,-65.14,39.41,2002-09-08 06:00:00,983.0,-57.64,52.78
1,TC200210,Harrison,0094,A,2,2002-09-12 00:00:00,924.42,-67.65,29.01,2002-09-12 00:00:00,2002-09-04 18:00:00,924.42,-67.65,29.01,2002-09-04 18:00:00,1007.38,-36.72,16.05,2002-09-21 18:00:00,983.74,-7.15,58.7,1007.38,-36.72,16.05,2002-09-17 06:00:00,952.37,-66.94,36.41,2002-09-20 12:00:00,959.76,-32.08,51.73
2,TC200603,Frederick,0252,A,2,2006-05-07 18:00:00,978.81,-48.82,33.18,2006-05-07 18:00:00,2006-05-04 18:00:00,978.81,-48.82,33.18,2006-05-04 18:00:00,999.74,-57.73,23.93,2006-05-12 00:00:00,992.19,-25.99,56.66,999.74,-57.73,23.93,2006-05-08 18:00:00,979.32,-42.93,35.03,2006-05-10 12:00:00,986.81,-32.03,47.16
3,TC200607,Jacob,0268,A,2,2006-10-01 18:00:00,927.61,-49.63,26.06,2006-10-01 18:00:00,2006-09-24 18:00:00,927.61,-49.63,26.06,2006-09-24 18:00:00,1004.88,-21.55,13.51,2006-10-05 18:00:00,958.97,-22.16,59.63,1004.88,-21.55,13.51,2006-10-05 00:00:00,956.55,-32.96,46.15,2006-10-05 18:00:00,958.97,-22.16,59.63
4,TC200710,Samson,0314,A,2,2007-09-07 00:00:00,897.7,-60.07,23.57,2007-09-07 00:00:00,2007-09-01 12:00:00,897.7,-60.07,23.57,2007-08-31 18:00:00,1008.05,-26.53,13.2,2007-09-12 06:00:00,961.14,-33.94,58.18,1004.92,-30.93,14.27,2007-09-09 12:00:00,933.51,-60.82,37.35,2007-09-11 06:00:00,959.0,-43.52,47.85
5,TC200712,Tiffany,0317,A,2,2007-10-05 12:00:00,948.05,-33.25,43.5,2007-09-29 06:00:00,2007-09-20 06:00:00,949.54,-50.0,22.57,2007-09-19 06:00:00,1010.55,-14.06,9.07,2007-10-07 12:00:00,978.63,-29.68,59.03,1005.21,-17.66,10.01,2007-10-03 12:00:00,968.88,-49.04,29.38,2007-10-07 00:00:00,974.6,-27.76,55.14
6,TC200904,Charlie,0404,A,2,2009-09-08 18:00:00,941.57,-69.98,32.41,2009-09-08 18:00:00,2009-08-31 00:00:00,941.57,-69.98,32.41,2009-08-31 00:00:00,1009.9,-30.92,11.93,2009-09-20 12:00:00,998.07,-27.99,53.17,1009.9,-30.92,11.93,2009-09-20 00:00:00,989.06,-36.24,48.66,2009-09-20 06:00:00,994.07,-32.55,51.01
7,TC200906,Erik,0418,A,2,2009-11-24 06:00:00,967.62,-46.96,29.03,2009-11-24 06:00:00,2009-11-21 18:00:00,967.62,-46.96,29.03,2009-11-21 00:00:00,996.42,-65.74,31.41,2009-11-28 06:00:00,1006.61,-18.75,39.0,985.45,-60.71,35.18,2009-11-27 00:00:00,1002.21,-35.0,36.0,2009-11-27 00:00:00,1002.21,-35.0,36.0
8,TC201005,Hubert,0441,A,2,2010-05-12 06:00:00,986.1,-36.31,50.76,2010-05-10 18:00:00,2010-05-07 00:00:00,992.56,-60.3,40.19,2010-05-07 00:00:00,1008.31,-62.8,23.82,2010-05-12 06:00:00,986.1,-36.31,50.76,1008.31,-62.8,23.82,2010-05-11 00:00:00,991.64,-58.81,42.07,2010-05-12 00:00:00,996.14,-42.2,48.86
9,TC201011,Marc,0462,A,2,2010-10-01 06:00:00,914.43,-56.81,24.39,2010-10-01 06:00:00,2010-09-25 00:00:00,914.43,-56.81,24.39,2010-09-25 00:00:00,1007.26,-40.79,14.65,2010-10-05 12:00:00,967.41,-16.25,56.75,1007.26,-40.79,14.65,2010-10-02 12:00:00,926.67,-51.94,27.77,2010-10-05 06:00:00,964.49,-21.75,52.5
10,TC201012,Noelle,0464,A,2,2010-10-06 00:00:00,929.93,-20.52,13.19,2010-10-06 00:00:00,2010-10-03 06:00:00,929.93,-20.52,13.19,2010-10-03 06:00:00,1004.35,-12.55,8.88,2010-10-20 06:00:00,993.23,-12.08,56.8,1004.35,-12.55,8.88,2010-10-16 06:00:00,949.35,-47.27,38.34,2010-10-18 18:00:00,976.0,-30.48,53.88
11,TC201016,Thomas,0471,A,2,2010-11-18 06:00:00,897.75,-82.11,14.5,2010-11-18 06:00:00,2010-11-12 06:00:00,897.75,-82.11,14.5,2010-11-11 00:00:00,1004.37,-77.24,9.84,2010-11-27 06:00:00,980.73,-31.28,57.35,1004.78,-82.06,14.79,2010-11-22 06:00:00,980.45,-87.09,25.01,2010-11-25 18:00:00,951.02,-41.93,53.1
12,TC201103,Anna,0492,A,2,2011-08-26 18:00:00,938.74,-66.95,29.43,2011-08-26 18:00:00,2011-08-21 00:00:00,938.74,-66.95,29.43,2011-08-21 00:00:00,1009.94,-40.86,11.82,2011-09-03 00:00:00,981.8,-23.51,54.11,1009.94,-40.86,11.82,2011-08-30 00:00:00,948.16,-61.86,40.75,2011-08-31 12:00:00,975.3,-45.84,50.14
13,TC201202,Bryan,0525,A,2,2012-08-13 12:00:00,975.07,-58.65,43.22,2012-08-13 12:00:00,2012-08-03 00:00:00,975.07,-58.65,43.22,2012-07-31 18:00:00,1006.89,-27.42,11.09,2012-08-15 00:00:00,1002.92,-29.95,56.74,1008.5,-35.11,14.91,2012-08-14 00:00:00,1000.11,-51.37,47.39,2012-08-14 06:00:00,1003.85,-46.87,49.91
14,TC201204,Dominic,0537,A,2,2012-11-02 00:00:00,953.3,-68.93,34.62,2012-11-02 00:00:00,2012-10-28 06:00:00,953.3,-68.93,34.62,2012-10-26 18:00:00,1008.56,-65.84,24.08,2012-11-07 00:00:00,1011.58,-34.52,37.99,984.01,-67.36,35.27,2012-11-05 12:00:00,991.23,-49.05,44.33,2012-11-06 06:00:00,1004.45,-39.59,42.77
15,TC201404,Nathan,0614,A,2,2014-09-05 06:00:00,940.07,-59.66,25.52,2014-09-05 06:00:00,2014-08-29 06:00:00,940.07,-59.66,25.52,2014-08-28 06:00:00,1008.9,-25.04,10.56,2014-09-10 06:00:00,980.54,-19.1,57.44,1009.61,-33.72,12.32,2014-09-08 00:00:00,956.22,-54.48,38.16,2014-09-09 18:00:00,976.76,-30.75,54.34
16,TC201505,Aidan,0649,A,2,2015-08-29 06:00:00,959.79,-63.59,34.86,2015-08-29 06:00:00,2015-08-20 18:00:00,959.79,-63.59,34.86,2015-08-19 18:00:00,1007.27,-16.52,12.63,2015-09-02 12:00:00,989.89,-7.25,54.5,1002.64,-19.37,14.76,2015-08-31 12:00:00,1001.65,-55.68,48.25,2015-08-31 18:00:00,1001.43,-51.43,50.32
17,TC201507,Bella,0656,A,2,2015-10-08 00:00:00,966.02,-63.06,39.55,2015-10-08 00:00:00,2015-10-04 12:00:00,966.02,-63.06,39.55,2015-10-04 12:00:00,1006.17,-69.35,31.62,2015-10-09 12:00:00,1001.43,-49.89,54.21,1006.17,-69.35,31.62,2015-10-08 06:00:00,966.43,-60.61,41.54,2015-10-09 06:00:00,999.22,-50.09,52.64
18,TC201508,Carson,0657,A,2,2015-10-10 12:00:00,963.94,-58.85,27.67,2015-10-10 12:00:00,2015-10-07 18:00:00,963.94,-58.85,27.67,2015-10-07 18:00:00,1008.33,-56.34,28.28,2015-10-20 06:00:00,1004.97,2.57,39.0,1008.33,-56.34,28.28,2015-10-13 18:00:00,997.88,-53.55,32.09,2015-10-18 00:00:00,990.17,-15.63,37.21
19,TC201509,Dorcas,0658,A,2,2015-10-29 12:00:00,981.73,-50.71,33.04,2015-10-25 18:00:00,2015-10-23 06:00:00,989.46,-79.09,20.36,2015-10-22 18:00:00,1009.28,-82.47,11.45,2015-10-30 18:00:00,993.94,-31.77,37.04,1008.45,-82.81,11.2,2015-10-26 18:00:00,994.38,-75.76,24.38,2015-10-30 06:00:00,988.93,-40.03,35.15
20,TC201511,Erling,0665,A,2,2015-12-01 06:00:00,976.37,-60.6,37.45,2015-12-01 06:00:00,2015-11-30 12:00:00,976.37,-60.6,37.45,2015-11-30 12:00:00,991.83,-58.77,33.51,2015-12-04 18:00:00,992.86,-37.25,54.5,991.83,-58.77,33.51,2015-12-03 00:00:00,985.87,-50.31,44.52,2015-12-04 12:00:00,992.52,-41.0,51.5
21,TC201604,Grace,0696,A,2,2016-09-07 18:00:00,946.7,-47.28,39.13,2016-09-07 18:00:00,2016-08-28 06:00:00,946.7,-47.28,39.13,2016-08-28 06:00:00,1005.14,-24.56,10.77,2016-09-11 00:00:00,993.59,-14.19,56.54,1005.14,-24.56,10.77,2016-09-09 06:00:00,960.91,-35.49,45.24,2016-09-10 06:00:00,983.3,-23.24,50.47
22,TC201606,Hendrik,0705,A,2,2016-11-01 00:00:00,943.49,-57.57,40.5,2016-11-01 00:00:00,2016-10-28 18:00:00,943.49,-57.57,40.5,2016-10-28 18:00:00,998.23,-74.27,33.15,2016-11-03 00:00:00,973.73,-45.72,59.26,998.23,-74.27,33.15,2016-11-02 00:00:00,960.51,-44.02,50.93,2016-11-02 00:00:00,960.51,-44.02,50.93
23,TC201706,Olivia,0735,A,2,2017-07-19 18:00:00,987.83,-62.18,41.71,2017-07-19 12:00:00,2017-07-17 00:00:00,988.15,-64.94,39.76,2017-07-17 00:00:00,1011.96,-77.91,32.53,2017-07-23 18:00:00,1011.93,1.75,54.0,1011.96,-77.91,32.53,2017-07-19 18:00:00,987.83,-62.18,41.71,2017-07-21 00:00:00,1000.1,-44.75,47.02
24,TC201902,Daniel,0822,A,2,2019-09-17 18:00:00,917.74,-54.48,29.99,2019-09-17 18:00:00,2019-09-12 00:00:00,917.74,-54.48,29.99,2019-09-12 00:00:00,1007.94,-30.72,16.68,2019-09-25 00:00:00,970.31,-24.49,59.7,1007.94,-30.72,16.68,2019-09-18 12:00:00,930.43,-50.78,31.96,2019-09-23 18:00:00,970.07,-15.37,54.18
25,TC201905,Emily,0830,A,2,2019-11-21 00:00:00,974.44,-17.95,52.17,2019-11-20 12:00:00,2019-11-12 06:00:00,982.25,-24.49,43.97,2019-11-11 12:00:00,994.63,-49.84,35.83,2019-11-21 06:00:00,977.03,-15.37,55.4,995.85,-43.79,37.66,2019-11-20 18:00:00,975.16,-20.92,48.01,2019-11-20 18:00:00,975.16,-20.92,48.01
26,TC201906,Geoffrey,0834,A,2,2019-12-04 06:00:00,973.16,-53.54,34.37,2019-12-04 06:00:00,2019-12-02 06:00:00,973.16,-53.54,34.37,2019-12-02 06:00:00,991.43,-65.43,31.84,2019-12-09 06:00:00,988.45,6.5,42.25,991.43,-65.43,31.84,2019-12-07 00:00:00,993.85,-36.7,48.9,2019-12-07 12:00:00,996.89,-26.94,50.96
27,TC202003,Kelly,0876,A,2,2020-11-16 18:00:00,978.25,-50.26,45.55,2020-11-16 00:00:00,2020-11-13 06:00:00,985.15,-54.1,39.14,2020-11-13 06:00:00,997.81,-56.84,29.51,2020-11-18 06:00:00,985.07,-21.5,54.25,997.81,-56.84,29.51,2020-11-16 06:00:00,982.86,-52.82,41.04,2020-11-17 06:00:00,979.76,-44.78,49.61
28,TC202103,Luca,0915,A,2,2021-10-02 18:00:00,946.6,-29.32,33.02,2021-10-01 06:00:00,2021-09-29 00:00:00,960.17,-39.2,31.36,2021-09-28 12:00:00,1010.97,-38.72,18.42,2021-10-06 00:00:00,1007.93,-11.0,43.5,1009.51,-38.77,20.57,2021-10-01 18:00:00,973.07,-38.15,30.16,2021-10-05 18:00:00,1004.48,-14.5,43.75
29,TC202206,Yves,0956,A,2,2022-08-18 18:00:00,947.9,-75.55,36.12,2022-08-18 18:00:00,2022-08-12 00:00:00,947.9,-75.55,36.12,2022-08-10 18:00:00,1007.71,-33.72,16.7,2022-08-23 00:00:00,1007.08,-15.25,54.25,1011.0,-42.7,19.77,2022-08-19 18:00:00,988.26,-72.59,43.04,2022-08-20 06:00:00,998.72,-67.32,47.37
30,TC202209,Carlos,0963,A,2,2022-09-24 00:00:00,924.21,-77.74,26.92,2022-09-24 00:00:00,2022-09-18 00:00:00,924.21,-77.74,26.92,2022-09-18 00:00:00,1005.14,-44.17,11.96,2022-09-30 00:00:00,952.33,-33.37,57.91,1005.14,-44.17,11.96,2022-09-28 00:00:00,961.75,-65.08,41.88,2022-09-28 18:00:00,974.92,-57.37,44.79
31,TC202210,Doreen,0966,A,2,2022-10-13 06:00:00,948.1,-48.11,32.42,2022-10-13 06:00:00,2022-10-04 00:00:00,948.1,-48.11,32.42,2022-10-03 12:00:00,1008.35,-15.6,10.39,2022-10-15 12:00:00,994.39,-30.75,52.0,1004.02,-17.16,11.14,2022-10-14 18:00:00,983.57,-43.09,43.22,2022-10-15 06:00:00,995.22,-35.84,48.52
32,TC202306,Kyle,0997,A,2,2023-09-19 00:00:00,928.09,-48.57,37.1,2023-09-19 00:00:00,2023-09-06 12:00:00,928.09,-48.57,37.1,2023-09-05 12:00:00,1011.76,-15.86,11.88,2023-09-22 12:00:00,986.45,-17.77,55.85,1007.34,-19.73,12.98,2023-09-21 00:00:00,944.84,-42.8,45.01,2023-09-22 00:00:00,977.76,-32.4,54.41
33,TC202307,Lorraine,0998,A,2,2023-09-13 06:00:00,991.55,-41.77,40.95,2023-09-12 00:00:00,2023-09-09 00:00:00,996.72,-55.63,38.3,2023-09-09 00:00:00,1011.37,-63.91,35.58,2023-09-15 12:00:00,1002.77,-19.25,56.0,1011.37,-63.91,35.58,2023-09-12 06:00:00,993.31,-53.26,39.46,2023-09-14 18:00:00,1002.56,-29.5,48.0
34,TC202708,Ivanka,1169,A,2,2027-12-13 06:00:00,975.23,-62.73,42.34,2027-12-13 06:00:00,2027-12-12 12:00:00,975.23,-62.73,42.34,2027-12-10 18:00:00,1006.26,-63.12,34.85,2027-12-17 06:00:00,989.11,-25.0,52.0,986.14,-67.01,39.6,2027-12-15 00:00:00,982.2,-47.5,40.99,2027-12-15 00:00:00,982.2,-47.5,40.99
35,TC202904,Oscar,1239,A,2,2029-09-03 06:00:00,953.29,-41.68,41.31,2029-09-02 00:00:00,2029-08-24 06:00:00,972.83,-55.88,34.82,2029-08-24 06:00:00,1002.02,-17.77,17.06,2029-09-05 06:00:00,967.47,-7.29,58.02,1002.02,-17.77,17.06,2029-09-02 06:00:00,957.54,-54.18,35.78,2029-09-04 12:00:00,965.2,-16.19,52.29
36,TC202905,Rachel,1250,A,2,2029-10-28 06:00:00,907.77,-64.0,34.64,2029-10-26 18:00:00,2029-10-25 00:00:00,957.26,-68.97,33.02,2029-10-23 00:00:00,1002.35,-71.03,27.83,2029-10-30 18:00:00,959.23,-50.51,59.27,978.78,-69.6,36.33,2029-10-27 00:00:00,949.0,-68.5,32.79,2029-10-29 18:00:00,976.26,-62.68,48.48
37,TC203001,Yoshi,1268,A,2,2030-02-14 18:00:00,972.56,-42.5,32.83,2030-02-14 18:00:00,2030-02-13 12:00:00,972.56,-42.5,32.83,2030-02-13 12:00:00,983.1,-52.64,37.0,2030-02-16 18:00:00,981.13,-29.34,40.3,983.1,-52.64,37.0,2030-02-15 12:00:00,980.01,-32.91,35.03,2030-02-15 12:00:00,980.01,-32.91,35.03
38,TC203005,Claudio,1287,A,2,2030-08-26 18:00:00,925.69,-79.11,30.67,2030-08-26 18:00:00,2030-08-19 06:00:00,925.69,-79.11,30.67,2030-08-17 06:00:00,1009.64,-37.21,13.21,2030-09-04 12:00:00,999.63,-66.5,44.25,1009.64,-50.13,15.58,2030-09-04 06:00:00,997.84,-68.59,44.01,2030-09-04 06:00:00,997.84,-68.59,44.01
39,TC203006,Daisy,1289,A,2,2030-09-09 18:00:00,909.04,-55.22,30.03,2030-09-09 18:00:00,2030-09-03 00:00:00,909.04,-55.22,30.03,2030-09-03 00:00:00,1002.63,-37.61,16.25,2030-09-13 18:00:00,935.81,-27.97,60.73,1002.63,-37.61,16.25,2030-09-12 00:00:00,914.66,-51.47,41.51,2030-09-13 00:00:00,936.01,-40.59,52.99
40,TC203008,Gwyneth,1295,A,2,2030-10-20 06:00:00,933.77,-63.49,36.68,2030-10-20 06:00:00,2030-10-18 00:00:00,933.77,-63.49,36.68,2030-10-17 18:00:00,1001.26,-61.99,31.28,2030-10-23 00:00:00,979.19,-36.17,59.77,998.07,-60.92,31.83,2030-10-21 00:00:00,940.62,-65.29,39.58,2030-10-22 00:00:00,976.37,-58.44,48.6
41,TC203106,Laurel,1328,A,2,2031-10-13 06:00:00,967.13,-60.45,39.01,2031-10-12 00:00:00,2031-09-26 00:00:00,980.21,-67.73,33.49,2031-09-24 18:00:00,1010.45,-14.41,8.27,2031-10-14 12:00:00,985.36,-39.46,54.88,1008.28,-16.35,10.58,2031-10-12 18:00:00,978.83,-64.44,35.95,2031-10-14 06:00:00,981.16,-44.99,51.48
42,TC203201,Peach,1367,A,2,2032-09-11 18:00:00,935.37,-82.34,25.24,2032-09-11 18:00:00,2032-09-06 06:00:00,935.37,-82.34,25.24,2032-09-04 06:00:00,1009.78,-24.86,7.99,2032-09-17 12:00:00,993.66,-28.5,54.0,1007.46,-39.2,13.6,2032-09-13 00:00:00,941.1,-79.18,28.69,2032-09-16 00:00:00,986.45,-52.17,49.76
43,TC203404,Zoe,0079,B,2,2034-09-09 06:00:00,955.48,-37.85,41.49,2034-09-09 06:00:00,2034-08-31 18:00:00,955.48,-37.85,41.49,2034-08-31 00:00:00,1005.17,-17.48,11.28,2034-09-10 12:00:00,973.56,-21.05,58.85,1002.29,-19.98,14.13,2034-09-09 12:00:00,958.29,-35.01,43.7,2034-09-10 12:00:00,973.56,-21.05,58.85
44,TC203502,Gianluigi,0124,B,2,2035-10-05 12:00:00,952.76,-54.29,41.55,2035-09-28 18:00:00,2035-09-25 12:00:00,983.7,-53.23,17.67,2035-09-25 12:00:00,1009.83,-36.95,10.54,2035-10-07 00:00:00,981.76,-32.9,55.23,1009.83,-36.95,10.54,2035-10-05 00:00:00,979.59,-61.46,36.8,2035-10-06 06:00:00,970.78,-44.22,51.63
45,TC203601,Jeremy,0162,B,2,2036-09-05 06:00:00,928.05,-57.21,25.05,2036-09-05 06:00:00,2036-08-30 18:00:00,928.05,-57.21,25.05,2036-08-29 18:00:00,1006.14,-27.63,11.77,2036-09-11 06:00:00,980.9,-26.23,57.13,1008.51,-33.42,12.44,2036-09-07 00:00:00,951.72,-53.58,33.29,2036-09-09 06:00:00,976.59,-44.23,46.73
46,TC203602,Katie,0168,B,2,2036-10-14 18:00:00,918.5,-52.98,34.37,2036-10-13 12:00:00,2036-10-10 00:00:00,951.25,-65.43,31.84,2036-10-10 00:00:00,998.51,-70.78,30.49,2036-10-21 00:00:00,987.35,-19.01,58.58,998.51,-70.78,30.49,2036-10-13 18:00:00,941.8,-63.91,31.78,2036-10-19 18:00:00,965.22,-32.45,53.92
47,TC203701,Luigi,0183,B,2,2037-02-02 18:00:00,985.33,-27.54,35.31,2037-02-02 18:00:00,2037-01-29 12:00:00,985.33,-27.54,35.31,2037-01-27 18:00:00,1010.36,-44.16,31.01,2037-02-05 18:00:00,1010.6,-25.25,24.75,1004.93,-38.31,29.34,2037-02-04 00:00:00,999.97,-30.5,29.5,2037-02-04 00:00:00,999.97,-30.5,29.5
48,TC203704,Michelle,0211,B,2,2037-11-20 18:00:00,954.08,-64.84,32.41,2037-11-20 18:00:00,2037-11-17 06:00:00,954.08,-64.84,32.41,2037-11-17 06:00:00,995.92,-66.97,26.72,2037-11-24 18:00:00,985.6,-28.75,47.25,995.92,-66.97,26.72,2037-11-23 18:00:00,976.65,-48.14,43.03,2037-11-24 00:00:00,977.51,-42.91,45.19
49,TC203806,Sergio,0244,B,2,2038-10-23 18:00:00,955.14,-44.23,37.95,2038-10-23 06:00:00,2038-10-19 18:00:00,957.59,-46.22,36.09,2038-10-18 12:00:00,1003.97,-55.19,31.13,2038-10-26 06:00:00,998.33,-14.25,44.75,997.1,-51.57,32.09,2038-10-23 12:00:00,956.61,-44.96,36.94,2038-10-25 12:00:00,998.19,-28.73,42.82
50,TC203808,Zack,0248,B,2,2038-12-09 06:00:00,967.87,-56.81,34.03,2038-12-09 06:00:00,2038-12-04 18:00:00,967.87,-56.81,34.03,2038-12-04 00:00:00,993.01,-60.84,34.9,2038-12-13 18:00:00,991.21,-37.39,59.98,993.5,-58.54,32.76,2038-12-10 18:00:00,976.36,-51.5,36.84,2038-12-13 12:00:00,994.99,-42.15,58.11
51,TC203901,Alex,0272,B,2,2039-07-05 18:00:00,974.97,-69.23,39.06,2039-07-05 18:00:00,2039-06-29 06:00:00,974.97,-69.23,39.06,2039-06-29 06:00:00,1012.51,-79.9,32.74,2039-07-10 18:00:00,1000.17,-9.25,55.25,1012.51,-79.9,32.74,2039-07-06 00:00:00,975.58,-66.44,40.55,2039-07-06 18:00:00,982.74,-58.64,44.92
52,TC203903,Beatrice,0275,B,2,2039-08-19 06:00:00,933.93,-50.67,33.88,2039-08-19 06:00:00,2039-08-15 12:00:00,933.93,-50.67,33.88,2039-08-14 00:00:00,1004.51,-25.86,16.27,2039-08-25 00:00:00,994.03,-6.75,55.5,998.8,-35.24,16.44,2039-08-19 12:00:00,935.91,-50.6,34.95,2039-08-23 00:00:00,972.35,-30.48,50.33
53,TC203913,Janet,0290,B,2,2039-11-21 18:00:00,965.93,-52.43,38.95,2039-11-21 00:00:00,2039-11-18 06:00:00,981.32,-59.84,32.12,2039-11-18 06:00:00,1000.21,-62.49,24.0,2039-11-22 12:00:00,988.09,-39.5,51.5,1000.21,-62.49,24.0,2039-11-21 06:00:00,979.37,-58.0,33.87,2039-11-22 00:00:00,973.01,-48.93,42.57
54,TC204004,Kinen,0325,B,2,2040-10-21 06:00:00,936.9,-52.37,40.83,2040-10-20 06:00:00,2040-10-14 18:00:00,953.37,-64.46,38.61,2040-10-14 18:00:00,1012.36,-66.25,27.47,2040-10-24 18:00:00,982.09,-18.21,59.13,1012.36,-66.25,27.47,2040-10-20 12:00:00,949.08,-62.68,39.09,2040-10-23 18:00:00,971.24,-16.07,54.21
55,TC204103,Mario,0351,B,2,2041-03-27 18:00:00,966.26,-56.55,38.76,2041-03-27 18:00:00,2041-03-27 00:00:00,966.26,-56.55,38.76,2041-03-27 00:00:00,983.69,-57.7,37.42,2041-04-01 18:00:00,988.19,-14.7,52.93,983.69,-57.7,37.42,2041-04-01 06:00:00,993.5,-20.19,47.23,2041-04-01 06:00:00,993.5,-20.19,47.23
56,TC204110,Stephanie,0389,B,2,2041-11-16 00:00:00,993.92,-44.52,41.52,2041-11-10 18:00:00,2041-11-09 12:00:00,994.73,-37.01,28.45,2041-11-09 12:00:00,1005.3,-37.32,28.72,2041-11-16 12:00:00,1001.45,-35.03,47.05,1005.3,-37.32,28.72,2041-11-16 00:00:00,993.92,-44.52,41.52,2041-11-16 06:00:00,995.17,-40.17,44.32
57,TC204203,Tony,0416,B,2,2042-08-19 12:00:00,955.12,-50.71,41.99,2042-08-16 18:00:00,2042-08-14 12:00:00,987.99,-63.84,39.17,2042-08-14 12:00:00,1012.87,-68.53,36.69,2042-08-21 18:00:00,979.01,-21.28,59.42,1012.87,-68.53,36.69,2042-08-17 06:00:00,991.93,-62.12,39.36,2042-08-20 18:00:00,991.26,-38.5,50.44
58,TC204303,David,0436,B,2,2043-03-03 18:00:00,966.41,-56.23,39.13,2043-03-03 18:00:00,2043-03-01 12:00:00,966.41,-56.23,39.13,2043-03-01 12:00:00,979.25,-70.15,38.53,2043-03-06 00:00:00,973.81,-55.49,59.38,979.25,-70.15,38.53,2043-03-04 00:00:00,970.12,-52.25,40.65,2043-03-05 00:00:00,982.11,-38.81,51.43
59,TC204306,Frederick,0448,B,2,2043-09-09 12:00:00,917.35,-87.11,29.01,2043-09-09 12:00:00,2043-09-01 18:00:00,917.35,-87.11,29.01,2043-09-01 18:00:00,1010.24,-49.38,15.34,2043-09-21 06:00:00,957.97,-36.25,59.39,1010.24,-49.38,15.34,2043-09-17 18:00:00,987.11,-82.57,31.91,2043-09-21 00:00:00,958.69,-39.82,56.26
60,TC204403,Maho,0501,B,2,2044-10-19 18:00:00,975.73,-68.59,44.01,2044-10-17 06:00:00,2044-10-15 12:00:00,992.73,-77.12,29.53,2044-10-15 12:00:00,1008.7,-72.93,28.43,2044-10-20 00:00:00,980.5,-67.02,45.95,1008.7,-72.93,28.43,2044-10-19 00:00:00,986.98,-70.31,34.68,2044-10-19 12:00:00,978.33,-68.28,41.67
61,TC204604,Bonnie,0578,B,2,2046-03-25 12:00:00,958.66,-40.54,40.1,2046-03-25 12:00:00,2046-03-23 00:00:00,958.66,-40.54,40.1,2046-03-21 18:00:00,995.49,-58.17,37.35,2046-03-27 12:00:00,984.45,-35.5,55.75,972.33,-50.37,39.47,2046-03-26 06:00:00,963.88,-35.1,43.88,2046-03-26 12:00:00,967.5,-33.75,45.5
62,TC204605,Charlie,0589,B,2,2046-06-18 12:00:00,989.9,-80.84,26.71,2046-06-18 12:00:00,2046-06-13 18:00:00,989.9,-80.84,26.71,2046-06-13 18:00:00,1012.29,-87.38,17.44,2046-06-24 18:00:00,1007.24,-39.75,41.25,1012.29,-87.38,17.44,2046-06-22 06:00:00,997.62,-67.78,42.34,2046-06-23 06:00:00,999.13,-59.9,45.04
63,TC204607,Erik,0593,B,2,2046-08-27 12:00:00,933.64,-58.85,31.74,2046-08-27 12:00:00,2046-08-17 06:00:00,933.64,-58.85,31.74,2046-08-16 12:00:00,1012.0,-26.89,9.98,2046-09-01 06:00:00,945.57,-36.38,58.74,1007.37,-33.79,14.67,2046-08-30 18:00:00,949.08,-52.81,41.86,2046-08-31 18:00:00,957.76,-40.66,54.01
64,TC204608,Frances,0596,B,2,2046-09-08 18:00:00,918.48,-57.76,39.34,2046-09-07 18:00:00,2046-08-30 00:00:00,936.14,-61.68,34.31,2046-08-27 12:00:00,1007.99,-13.1,7.92,2046-09-11 00:00:00,986.77,-45.5,58.04,1007.61,-21.6,11.47,2046-09-08 00:00:00,924.79,-60.92,35.07,2046-09-10 18:00:00,985.97,-48.64,55.26
65,TC204609,Hubert,0599,B,2,2046-10-06 06:00:00,989.66,-36.83,46.24,2046-10-05 12:00:00,2046-09-30 18:00:00,998.45,-40.29,39.62,2046-09-30 18:00:00,1013.0,-38.81,33.88,2046-10-07 00:00:00,998.32,-29.75,56.5,1013.0,-38.81,33.88,2046-10-05 18:00:00,994.08,-38.72,41.7,2046-10-06 06:00:00,989.66,-36.83,46.24
66,TC204704,Marc,0643,B,2,2047-10-27 18:00:00,931.42,-34.66,56.46,2047-10-25 18:00:00,2047-10-20 00:00:00,964.34,-48.34,34.54,2047-10-20 00:00:00,1007.4,-63.48,18.22,2047-10-29 12:00:00,970.43,-32.34,53.75,1007.4,-63.48,18.22,2047-10-26 00:00:00,957.4,-45.95,35.61,2047-10-28 18:00:00,961.81,-40.62,52.27
67,TC204801,Rocco,0667,B,2,2048-04-27 18:00:00,991.96,-62.76,33.76,2048-04-25 00:00:00,2048-04-23 18:00:00,995.37,-86.61,28.45,2048-04-23 18:00:00,1007.68,-79.97,31.97,2048-04-27 18:00:00,991.96,-62.76,33.76,1007.68,-79.97,31.97,2048-04-26 18:00:00,997.61,-80.14,27.95,2048-04-26 18:00:00,997.61,-80.14,27.95
68,TC204805,Shannon,0689,B,2,2048-10-07 18:00:00,926.76,-55.03,33.97,2048-10-07 18:00:00,2048-10-03 18:00:00,926.76,-55.03,33.97,2048-10-03 12:00:00,1007.98,-39.01,19.39,2048-10-10 06:00:00,1000.15,-33.51,56.17,1009.04,-39.5,20.28,2048-10-09 00:00:00,949.91,-52.65,42.73,2048-10-09 18:00:00,986.37,-42.7,51.71
69,TC204807,Thomas,0693,B,2,2048-10-28 06:00:00,970.19,-48.82,40.79,2048-10-28 06:00:00,2048-10-27 12:00:00,970.19,-48.82,40.79,2048-10-27 12:00:00,994.7,-48.01,35.69,2048-11-04 00:00:00,1009.02,-35.5,45.25,994.7,-48.01,35.69,2048-11-02 18:00:00,988.83,-33.75,52.25,2048-11-03 06:00:00,998.42,-34.0,48.75
70,TC204810,Wendy,0697,B,2,2048-12-25 06:00:00,974.13,-55.27,39.28,2048-12-25 06:00:00,2048-12-21 12:00:00,974.13,-55.27,39.28,2048-12-21 12:00:00,992.24,-58.53,28.69,2048-12-28 06:00:00,989.82,-24.13,57.48,992.24,-58.53,28.69,2048-12-27 12:00:00,989.69,-38.89,52.84,2048-12-27 18:00:00,990.83,-34.89,54.88
71,TC204903,Anna,0718,B,2,2049-05-29 12:00:00,970.04,-40.03,47.82,2049-05-29 12:00:00,2049-05-26 18:00:00,970.04,-40.03,47.82,2049-05-26 18:00:00,991.34,-57.95,38.17,2049-06-02 12:00:00,996.88,-22.0,54.25,991.34,-57.95,38.17,2049-05-30 06:00:00,976.2,-45.91,51.09,2049-05-30 12:00:00,979.48,-46.58,49.97
72,TC205002,Esther,0768,B,2,2050-08-27 18:00:00,909.95,-74.71,28.14,2050-08-27 18:00:00,2050-08-21 00:00:00,909.95,-74.71,28.14,2050-08-20 06:00:00,1005.26,-34.29,17.04,2050-09-03 06:00:00,991.08,-54.75,54.5,1004.82,-39.3,16.35,2050-08-29 18:00:00,925.62,-73.31,34.47,2050-09-01 12:00:00,999.27,-69.75,47.75
73,TC205102,Helena,0813,B,2,2051-09-08 18:00:00,934.13,-38.71,47.54,2051-09-06 06:00:00,2051-08-29 12:00:00,946.57,-59.92,29.72,2051-08-29 12:00:00,1008.09,-20.48,13.94,2051-09-09 12:00:00,956.47,-30.48,57.02,1008.09,-20.48,13.94,2051-09-07 00:00:00,947.85,-57.89,33.3,2051-09-09 12:00:00,956.47,-30.48,57.02
74,TC205205,Mandy,0871,B,2,2052-10-26 12:00:00,924.74,-57.89,39.9,2052-10-25 06:00:00,2052-10-23 12:00:00,946.77,-67.6,37.21,2052-10-22 06:00:00,993.06,-71.77,32.64,2052-10-28 06:00:00,936.62,-37.14,59.7,972.56,-71.56,35.57,2052-10-25 12:00:00,943.83,-65.81,37.27,2052-10-27 12:00:00,957.9,-44.66,48.55
75,TC205208,Samuel,0880,B,2,2052-12-08 18:00:00,967.43,-53.74,52.06,2052-12-08 00:00:00,2052-12-06 06:00:00,974.43,-42.09,46.46,2052-12-04 06:00:00,1003.66,-29.83,33.82,2052-12-10 06:00:00,985.03,-56.0,51.0,985.12,-38.67,36.94,2052-12-08 06:00:00,971.3,-44.3,48.96,2052-12-08 12:00:00,970.25,-48.42,50.73
76,TC205302,Tatiana,0913,B,2,2053-09-13 12:00:00,945.43,-43.63,38.69,2053-09-12 00:00:00,2053-09-04 18:00:00,948.71,-56.13,34.1,2053-09-03 12:00:00,1005.94,-16.78,12.92,2053-09-16 06:00:00,1012.49,-10.17,37.19,996.46,-25.99,13.97,2053-09-12 18:00:00,952.02,-52.21,36.34,2053-09-15 12:00:00,1002.48,-14.53,39.93
77,TC205415,Laura,0971,B,2,2054-11-09 12:00:00,926.01,-15.01,58.52,2054-11-03 00:00:00,2054-10-24 18:00:00,948.75,-77.42,27.42,2054-10-24 12:00:00,1009.12,-77.59,10.91,2054-11-10 12:00:00,940.69,-14.55,59.37,1008.97,-77.39,11.77,2054-11-03 06:00:00,942.88,-75.71,28.13,2054-11-09 00:00:00,935.85,-15.81,53.32
78,TC205705,Alissa,1095,B,2,2057-06-17 18:00:00,985.69,-69.36,43.61,2057-06-17 12:00:00,2057-06-14 06:00:00,986.56,-68.92,42.0,2057-06-14 06:00:00,998.49,-78.12,33.08,2057-06-19 00:00:00,998.69,-74.5,46.75,998.49,-78.12,33.08,2057-06-17 18:00:00,985.69,-69.36,43.61,2057-06-18 00:00:00,991.97,-71.64,45.46
79,TC205905,Hazel,1183,B,2,2059-08-19 00:00:00,922.71,-80.75,31.37,2059-08-19 00:00:00,2059-08-07 12:00:00,922.71,-80.75,31.37,2059-08-05 06:00:00,1011.19,-20.6,12.45,2059-08-26 12:00:00,988.17,-37.0,54.75,1010.67,-32.74,13.96,2059-08-24 12:00:00,999.13,-72.69,42.02,2059-08-24 18:00:00,997.93,-69.59,44.16
80,TC206102,Luca,1281,B,2,2061-08-24 06:00:00,931.9,-61.5,40.91,2061-08-23 18:00:00,2061-08-11 06:00:00,938.15,-63.57,37.53,2061-08-10 18:00:00,1004.12,-21.37,11.36,2061-08-25 18:00:00,961.27,-43.55,58.12,1006.66,-24.38,11.61,2061-08-24 00:00:00,933.86,-62.33,39.26,2061-08-25 06:00:00,955.14,-50.87,49.68
81,TC206103,Mary,1287,B,2,2061-09-15 18:00:00,947.75,-50.9,37.06,2061-09-15 18:00:00,2061-09-10 18:00:00,947.75,-50.9,37.06,2061-09-10 18:00:00,1011.02,-46.07,18.58,2061-09-17 12:00:00,986.4,-30.39,53.7,1011.02,-46.07,18.58,2061-09-17 00:00:00,972.27,-41.6,48.45,2061-09-17 06:00:00,979.2,-36.71,51.41
82,TC206106,Stefan,1299,B,2,2061-10-31 06:00:00,970.4,-45.0,50.5,2061-10-28 18:00:00,2061-10-27 12:00:00,993.79,-48.82,40.79,2061-10-27 12:00:00,1008.67,-52.9,36.52,2061-10-31 06:00:00,970.4,-45.0,50.5,1008.67,-52.9,36.52,2061-10-30 00:00:00,999.96,-41.51,37.97,2061-10-31 00:00:00,976.22,-43.95,46.79
83,TC206206,Alberto,1337,B,2,2062-09-08 06:00:00,960.17,-51.65,23.48,2062-09-08 06:00:00,2062-08-30 00:00:00,960.17,-51.65,23.48,2062-08-30 00:00:00,1007.28,-25.52,10.36,2062-09-14 06:00:00,1002.57,-30.25,54.5,1007.28,-25.52,10.36,2062-09-12 12:00:00,975.38,-48.52,36.53,2062-09-14 06:00:00,1002.57,-30.25,54.5
84,TC206606,Angela,0090,C,2,2066-09-06 06:00:00,954.9,-57.6,36.23,2066-09-06 06:00:00,2066-08-26 18:00:00,954.9,-57.6,36.23,2066-08-25 00:00:00,1004.72,-15.35,11.9,2066-09-10 18:00:00,998.72,-12.27,55.25,1004.61,-22.17,14.73,2066-09-07 00:00:00,966.73,-54.97,37.36,2066-09-10 06:00:00,986.78,-21.61,52.4
85,TC206607,Bernardo,0091,C,2,2066-09-09 12:00:00,933.84,-60.18,26.74,2066-09-09 12:00:00,2066-09-03 18:00:00,933.84,-60.18,26.74,2066-09-01 12:00:00,1007.05,-24.11,14.71,2066-09-17 06:00:00,997.21,-18.39,56.67,1005.75,-36.19,14.68,2066-09-12 00:00:00,950.43,-59.45,33.42,2066-09-16 18:00:00,987.65,-26.03,50.82
86,TC206702,Evelyn,0122,C,2,2067-08-29 06:00:00,992.67,-15.25,54.25,2067-08-24 18:00:00,2067-08-19 00:00:00,995.12,-53.11,37.27,2067-08-19 00:00:00,1011.24,-51.38,19.64,2067-08-29 06:00:00,992.67,-15.25,54.25,1011.24,-51.38,19.64,2067-08-26 18:00:00,999.1,-45.81,44.04,2067-08-27 18:00:00,1003.28,-32.8,48.05
87,TC206802,Ivanka,0159,C,2,2068-10-02 00:00:00,955.26,-46.28,39.67,2068-10-01 06:00:00,2068-09-27 06:00:00,963.93,-48.64,36.27,2068-09-27 06:00:00,1003.47,-49.27,34.42,2068-10-05 06:00:00,1012.26,-0.5,47.0,1003.47,-49.27,34.42,2068-10-01 18:00:00,962.01,-47.17,38.94,2068-10-04 06:00:00,994.48,-14.41,47.59
88,TC206901,Kyan,0175,C,2,2069-01-30 18:00:00,955.04,-37.93,45.11,2069-01-30 18:00:00,2069-01-28 18:00:00,955.04,-37.93,45.11,2069-01-28 00:00:00,997.22,-51.41,36.16,2069-01-31 18:00:00,967.44,-27.04,56.17,981.39,-51.96,39.12,2069-01-31 00:00:00,959.14,-34.87,46.76,2069-01-31 12:00:00,964.05,-29.51,53.09
89,TC207007,Rachel,0239,C,2,2070-09-12 12:00:00,928.01,-65.08,29.6,2070-09-12 12:00:00,2070-09-02 00:00:00,928.01,-65.08,29.6,2070-09-01 18:00:00,1008.25,-25.6,11.86,2070-09-19 00:00:00,984.65,-20.06,59.97,1009.89,-26.68,11.83,2070-09-15 12:00:00,938.36,-56.21,39.75,2070-09-17 12:00:00,978.32,-34.16,49.64
90,TC207010,Victoria,0247,C,2,2070-10-11 18:00:00,985.73,-66.52,30.58,2070-10-10 18:00:00,2070-10-07 00:00:00,991.77,-71.97,29.06,2070-10-07 00:00:00,1012.94,-73.27,28.87,2070-10-14 18:00:00,1001.63,-46.81,43.42,1012.94,-73.27,28.87,2070-10-11 00:00:00,991.04,-70.27,29.48,2070-10-14 18:00:00,1001.63,-46.81,43.42
91,TC207106,Claudio,0284,C,2,2071-08-26 12:00:00,907.48,-74.72,22.63,2071-08-26 12:00:00,2071-08-18 00:00:00,907.48,-74.72,22.63,2071-08-18 00:00:00,1009.3,-29.44,11.0,2071-09-02 06:00:00,993.57,-70.72,37.94,1009.3,-29.44,11.0,2071-09-01 00:00:00,1003.24,-79.12,33.87,2071-09-02 00:00:00,998.42,-73.3,36.79
92,TC207107,Daisy,0285,C,2,2071-09-02 00:00:00,950.33,-51.71,41.43,2071-09-02 00:00:00,2071-08-23 00:00:00,950.33,-51.71,41.43,2071-08-22 06:00:00,1008.36,-29.94,12.56,2071-09-04 00:00:00,987.42,-35.5,56.0,1009.47,-30.93,14.27,2071-09-03 06:00:00,980.19,-44.66,48.55,2071-09-03 18:00:00,987.66,-39.84,52.9
93,TC207109,Ederson,0287,C,2,2071-09-16 18:00:00,942.0,-33.53,39.52,2071-09-14 00:00:00,2071-09-07 12:00:00,947.68,-52.05,29.16,2071-09-06 18:00:00,1007.34,-28.96,12.97,2071-09-20 06:00:00,966.59,-22.21,57.27,1007.48,-32.13,13.21,2071-09-14 12:00:00,952.72,-50.22,30.99,2071-09-19 06:00:00,967.91,-18.58,57.81
94,TC207111,Gwyneth,0293,C,2,2071-11-12 00:00:00,940.73,-35.1,56.04,2071-11-08 06:00:00,2071-11-03 00:00:00,957.25,-55.31,26.6,2071-11-02 12:00:00,1011.9,-48.97,26.57,2071-11-12 06:00:00,944.89,-29.49,58.74,1011.17,-45.57,27.15,2071-11-09 12:00:00,952.34,-53.05,30.4,2071-11-12 06:00:00,944.89,-29.49,58.74
95,TC207202,Jaime,0327,C,2,2072-09-16 12:00:00,914.37,-68.28,32.51,2072-09-16 12:00:00,2072-09-04 06:00:00,914.37,-68.28,32.51,2072-09-04 06:00:00,1005.7,-33.41,10.28,2072-09-20 00:00:00,965.31,-36.98,59.02,1005.7,-33.41,10.28,2072-09-17 06:00:00,921.74,-65.46,37.21,2072-09-18 18:00:00,955.68,-47.46,49.98
96,TC207402,Zoe,0411,C,2,2074-05-31 06:00:00,976.92,-48.57,39.5,2074-05-31 00:00:00,2074-05-26 18:00:00,979.35,-49.22,37.67,2074-05-26 18:00:00,1004.6,-71.25,23.16,2074-06-02 00:00:00,1002.12,-47.38,57.74,1004.6,-71.25,23.16,2074-05-31 06:00:00,976.92,-48.57,39.5,2074-06-01 06:00:00,990.56,-45.73,46.79
97,TC207403,Alice,0412,C,2,2074-06-07 00:00:00,988.12,-81.12,31.79,2074-06-07 00:00:00,2074-06-02 12:00:00,988.12,-81.12,31.79,2074-06-02 12:00:00,1004.44,-76.81,29.49,2074-06-11 00:00:00,1002.81,-62.27,49.26,1004.44,-76.81,29.49,2074-06-10 00:00:00,1003.8,-67.7,46.28,2074-06-11 00:00:00,1002.81,-62.27,49.26
98,TC207408,Dylan,0429,C,2,2074-11-01 18:00:00,944.71,-48.96,39.37,2074-11-01 18:00:00,2074-10-27 00:00:00,944.71,-48.96,39.37,2074-10-27 00:00:00,1012.95,-43.38,34.77,2074-11-03 12:00:00,978.41,-33.98,56.32,1012.95,-43.38,34.77,2074-11-02 12:00:00,963.08,-47.67,43.95,2074-11-03 06:00:00,975.92,-39.69,52.21
99,TC207409,Emmelyn,0430,C,2,2074-11-05 06:00:00,906.21,-64.42,24.42,2074-11-05 06:00:00,2074-10-27 12:00:00,906.21,-64.42,24.42,2074-10-27 12:00:00,999.13,-76.08,15.24,2074-11-08 18:00:00,991.73,-45.64,32.75,999.13,-76.08,15.24,2074-11-08 12:00:00,991.9,-47.27,30.9,2074-11-08 18:00:00,991.73,-45.64,32.75
100,TC207502,Ivy,0448,C,2,2075-04-13 12:00:00,969.37,-42.87,23.96,2075-04-10 06:00:00,2075-04-09 00:00:00,972.38,-49.65,31.22,2075-04-06 18:00:00,1002.46,-59.25,24.87,2075-04-18 00:00:00,1011.78,-20.75,34.25,983.11,-52.19,32.2,2075-04-11 06:00:00,981.73,-47.81,27.88,2075-04-14 18:00:00,1002.58,-34.5,25.0
101,TC207505,Katie,0463,C,2,2075-10-01 18:00:00,962.06,-46.8,39.28,2075-10-01 18:00:00,2075-09-28 12:00:00,962.06,-46.8,39.28,2075-09-28 12:00:00,1011.69,-43.3,34.91,2075-10-03 06:00:00,972.8,-32.21,59.61,1011.69,-43.3,34.91,2075-10-02 12:00:00,963.48,-40.44,44.27,2075-10-03 06:00:00,972.8,-32.21,59.61
102,TC207910,Mario,0649,C,2,2079-09-30 06:00:00,941.03,-34.96,51.94,2079-09-25 00:00:00,2079-09-13 12:00:00,949.98,-65.42,31.44,2079-09-11 06:00:00,1009.85,-12.14,10.57,2079-10-04 12:00:00,989.19,-11.71,55.56,1009.01,-23.39,15.72,2079-09-28 06:00:00,957.35,-55.78,37.02,2079-10-02 00:00:00,965.22,-32.8,57.08
103,TC207913,Stephanie,0658,C,2,2079-11-22 12:00:00,971.56,-37.34,36.85,2079-11-22 12:00:00,2079-11-20 06:00:00,971.56,-37.34,36.85,2079-11-20 06:00:00,995.63,-34.88,28.92,2079-11-25 18:00:00,1007.05,-18.5,55.25,995.63,-34.88,28.92,2079-11-24 18:00:00,994.32,-31.04,49.12,2079-11-25 00:00:00,1000.08,-27.68,50.73
104,TC208006,Brandon,0700,C,2,2080-10-18 00:00:00,965.18,-15.0,56.5,2080-10-15 18:00:00,2080-10-11 12:00:00,991.5,-36.53,36.65,2080-10-11 12:00:00,1006.56,-37.6,26.15,2080-10-18 00:00:00,965.18,-15.0,56.5,1006.56,-37.6,26.15,2080-10-16 18:00:00,992.26,-32.65,43.22,2080-10-17 12:00:00,978.1,-24.25,50.25
105,TC208007,Christine,0701,C,2,2080-10-18 12:00:00,933.05,-66.8,38.8,2080-10-17 06:00:00,2080-10-13 00:00:00,966.05,-70.67,31.99,2080-10-13 00:00:00,1009.72,-76.79,29.27,2080-10-21 18:00:00,949.99,-19.87,59.41,1009.72,-76.79,29.27,2080-10-17 12:00:00,957.96,-70.2,32.69,2080-10-21 18:00:00,949.99,-19.87,59.41
106,TC208205,Luke,0777,C,2,2082-10-10 12:00:00,986.56,-66.85,34.65,2082-10-08 12:00:00,2082-10-05 06:00:00,995.61,-70.59,26.29,2082-10-05 06:00:00,1007.66,-68.14,20.57,2082-10-12 18:00:00,1001.13,-51.0,48.0,1007.66,-68.14,20.57,2082-10-09 00:00:00,993.78,-70.29,28.55,2082-10-11 18:00:00,996.17,-59.51,38.81
107,TC208302,Maho,0821,C,2,2083-09-01 00:00:00,899.1,-53.18,27.82,2083-09-01 00:00:00,2083-08-27 12:00:00,899.1,-53.18,27.82,2083-08-27 12:00:00,1000.17,-30.24,14.55,2083-09-06 00:00:00,982.85,-23.36,55.83,1000.17,-30.24,14.55,2083-09-02 12:00:00,916.81,-53.54,34.37,2083-09-04 12:00:00,956.7,-38.07,52.95
108,TC208305,Samson,0835,C,2,2083-11-03 18:00:00,978.77,-64.15,47.0,2083-11-02 18:00:00,2083-10-31 12:00:00,989.31,-69.97,34.26,2083-10-31 12:00:00,1002.78,-69.83,25.62,2083-11-04 18:00:00,1003.67,-52.0,53.75,1002.78,-69.83,25.62,2083-11-03 00:00:00,987.25,-69.45,36.16,2083-11-03 18:00:00,978.77,-64.15,47.0
109,TC208406,Bonnie,0875,C,2,2084-09-27 18:00:00,919.42,-51.79,40.0,2084-09-26 12:00:00,2084-09-17 06:00:00,929.73,-66.28,31.61,2084-09-16 12:00:00,1009.25,-14.95,11.87,2084-09-29 12:00:00,945.86,-22.33,58.55,1006.72,-21.76,12.15,2084-09-26 18:00:00,933.81,-65.18,32.87,2084-09-29 06:00:00,942.66,-26.45,56.78
110,TC208407,Charlie,0879,C,2,2084-10-18 12:00:00,941.09,-52.22,57.36,2084-10-16 00:00:00,2084-10-09 06:00:00,965.95,-68.73,38.16,2084-10-09 06:00:00,1007.24,-62.04,32.76,2084-10-19 06:00:00,965.98,-52.1,58.15,1007.24,-62.04,32.76,2084-10-16 06:00:00,958.11,-67.94,38.85,2084-10-18 06:00:00,948.82,-48.03,54.62
111,TC208410,Erik,0888,C,2,2084-11-26 18:00:00,989.97,-24.35,59.41,2084-11-23 06:00:00,2084-11-20 12:00:00,990.58,-36.15,36.42,2084-11-20 12:00:00,1007.56,-40.0,27.35,2084-11-26 18:00:00,989.97,-24.35,59.41,1007.56,-40.0,27.35,2084-11-25 18:00:00,994.93,-41.65,48.03,2084-11-26 00:00:00,999.18,-37.82,51.26
112,TC208609,Bryan,0960,C,2,2086-08-28 00:00:00,908.31,-76.32,28.89,2086-08-28 00:00:00,2086-08-23 18:00:00,908.31,-76.32,28.89,2086-08-22 18:00:00,1006.9,-51.19,13.86,2086-09-02 00:00:00,991.38,-35.75,50.0,1004.41,-54.9,17.92,2086-08-29 00:00:00,912.98,-73.21,32.23,2086-09-01 00:00:00,978.65,-51.49,47.13
113,TC208611,Dominic,0966,C,2,2086-09-19 12:00:00,994.99,-77.36,32.23,2086-09-19 12:00:00,2086-09-17 12:00:00,994.99,-77.36,32.23,2086-09-17 12:00:00,1011.17,-77.62,30.12,2086-09-22 12:00:00,998.11,-68.25,43.75,1011.17,-77.62,30.12,2086-09-21 12:00:00,1000.53,-76.99,39.06,2086-09-22 00:00:00,1001.89,-72.8,40.48
114,TC208703,Helena,1013,C,2,2087-09-19 18:00:00,938.39,-63.38,33.2,2087-09-19 18:00:00,2087-09-17 18:00:00,938.39,-63.38,33.2,2087-09-17 18:00:00,1000.96,-61.99,24.03,2087-09-24 00:00:00,995.37,-22.75,54.25,1000.96,-61.99,24.03,2087-09-23 00:00:00,971.84,-44.62,46.84,2087-09-23 12:00:00,985.97,-35.07,51.23
115,TC208704,John,1016,C,2,2087-10-09 12:00:00,925.58,-34.93,40.35,2087-10-04 06:00:00,2087-09-26 00:00:00,948.4,-55.69,20.92,2087-09-25 12:00:00,1008.08,-24.85,12.59,2087-10-11 06:00:00,952.32,-38.29,58.91,1007.45,-26.86,13.62,2087-10-05 12:00:00,949.31,-52.54,22.23,2087-10-10 18:00:00,937.72,-38.89,56.76
116,TC208903,Nathan,1095,C,2,2089-08-17 00:00:00,931.17,-66.8,38.8,2089-08-17 00:00:00,2089-08-08 00:00:00,931.17,-66.8,38.8,2089-08-08 00:00:00,1009.8,-38.44,13.71,2089-08-19 18:00:00,1002.71,-57.52,51.99,1009.8,-38.44,13.71,2089-08-18 06:00:00,975.75,-62.92,46.64,2089-08-19 06:00:00,990.69,-59.29,50.35
117,TC208904,Rosalina,1096,C,2,2089-08-28 12:00:00,934.12,-39.61,53.84,2089-08-24 18:00:00,2089-08-18 00:00:00,993.99,-59.82,30.64,2089-08-17 12:00:00,1006.2,-32.31,13.53,2089-08-30 00:00:00,973.39,-37.36,59.49,1007.01,-32.29,14.93,2089-08-25 00:00:00,989.41,-59.87,33.22,2089-08-29 12:00:00,958.33,-39.24,58.82
118,TC208907,Wilson,1103,C,2,2089-09-29 06:00:00,931.18,-50.51,29.82,2089-09-29 06:00:00,2089-09-19 00:00:00,931.18,-50.51,29.82,2089-09-19 00:00:00,1006.32,-21.58,12.23,2089-10-02 06:00:00,1003.71,-20.5,49.0,1006.32,-21.58,12.23,2089-09-30 18:00:00,963.87,-43.65,39.25,2089-10-01 18:00:00,991.71,-30.51,46.28
119,TC209105,Erling,1189,C,2,2091-09-20 18:00:00,928.18,-70.49,24.8,2091-09-20 18:00:00,2091-09-15 06:00:00,928.18,-70.49,24.8,2091-09-15 06:00:00,1007.85,-55.41,16.82,2091-09-28 00:00:00,997.69,-0.5,54.0,1007.85,-55.41,16.82,2091-09-23 12:00:00,948.48,-73.9,38.16,2091-09-24 18:00:00,981.42,-63.0,44.61
120,TC209108,Jana,1193,C,2,2091-09-29 00:00:00,931.19,-52.84,30.49,2091-09-29 00:00:00,2091-09-22 06:00:00,931.19,-52.84,30.49,2091-09-22 06:00:00,1006.07,-30.13,12.48,2091-10-07 18:00:00,993.23,-3.0,53.25,1006.07,-30.13,12.48,2091-10-03 00:00:00,959.25,-55.33,36.37,2091-10-05 18:00:00,961.06,-30.26,50.54
121,TC209411,Geoffrey,1357,C,2,2094-11-08 18:00:00,962.96,-30.03,50.08,2094-11-05 18:00:00,2094-11-02 06:00:00,997.26,-57.01,36.87,2094-11-02 06:00:00,1009.26,-46.39,23.33,2094-11-10 06:00:00,982.09,-6.25,52.5,1009.26,-46.39,23.33,2094-11-06 00:00:00,994.31,-55.4,37.56,2094-11-09 12:00:00,970.2,-20.27,49.55
122,TC209501,Hazel,1364,C,2,2095-01-15 06:00:00,963.38,-43.48,47.31,2095-01-13 18:00:00,2095-01-12 00:00:00,980.73,-58.54,29.78,2095-01-12 00:00:00,1006.46,-58.86,22.72,2095-01-16 00:00:00,982.44,-33.25,55.5,1006.46,-58.86,22.72,2095-01-14 00:00:00,978.54,-56.81,31.0,2095-01-15 12:00:00,968.11,-41.18,49.59
123,TC209504,Joshua,1381,C,2,2095-08-25 00:00:00,924.05,-62.11,24.21,2095-08-25 00:00:00,2095-08-18 12:00:00,924.05,-62.11,24.21,2095-08-16 18:00:00,1011.57,-23.42,9.95,2095-08-31 06:00:00,985.53,-42.22,59.01,1008.24,-25.85,13.48,2095-08-28 06:00:00,936.79,-61.82,38.62,2095-08-30 00:00:00,968.57,-52.28,51.88
124,TC209511,Mary,1395,C,2,2095-11-29 18:00:00,969.67,-51.73,49.88,2095-11-28 00:00:00,2095-11-22 12:00:00,989.15,-51.36,44.42,2095-11-21 06:00:00,1005.47,-49.85,29.27,2095-11-30 00:00:00,974.51,-49.48,52.36,999.71,-46.08,34.55,2095-11-28 06:00:00,987.61,-49.98,47.78,2095-11-29 00:00:00,988.95,-45.15,54.75
125,TC209601,Ollie,1429,C,2,2096-09-29 00:00:00,972.61,-47.05,57.79,2096-09-26 12:00:00,2096-09-18 00:00:00,979.84,-49.07,35.3,2096-09-17 00:00:00,1005.59,-10.33,10.93,2096-09-29 12:00:00,978.81,-46.82,58.57,1000.17,-17.57,12.21,2096-09-27 06:00:00,989.38,-47.11,40.54,2096-09-28 18:00:00,976.48,-46.42,55.68
