,Code,Name,Ensemble,Trans Type,Peak Time,Peak SLP,Peak Lon,Peak Lat,Trop Peak Time,Trop Peak SLP,Trop Peak Lon,Trop Peak Lat,ET Begin Time,ET Begin SLP,ET Begin Lon,ET Begin Lat,ET Complete Time,ET Complete SLP,ET Complete Lon,ET Complete Lat,Genesis Time,Genesis SLP,Genesis Lon,Genesis Lat,Trop Begin Time,Final Time,Final SLP,Final Lon,Final Lat
0,TC210003,Beatrice,A,2,2100-03-01 12:00:00,943.01,-45.04,45.78,2100-03-01 18:00:00,944.13,-44.74,46.27,2100-03-03 18:00:00,970.11,-32.3,41.93,2100-03-04 00:00:00,971.02,-29.14,42.38,2100-03-01 06:00:00,944.96,-45.1,44.65,2100-03-01 18:00:00,2100-03-08 06:00:00,1000.96,-13.5,54.0
1,TC210005,Dawn,A,2,2100-08-28 12:00:00,968.16,-79.09,29.45,2100-08-28 12:00:00,968.16,-79.09,29.45,2100-09-01 06:00:00,1003.3,-76.85,39.42,2100-09-01 12:00:00,1001.84,-74.73,41.55,2100-08-21 06:00:00,1009.56,-29.92,13.56,2100-08-23 18:00:00,2100-09-02 18:00:00,995.53,-61.0,55.0
2,TC210103,Harrison,A,2,2101-07-26 18:00:00,971.18,-50.38,41.08,2101-07-26 06:00:00,972.98,-56.11,37.49,2101-07-26 12:00:00,971.89,-53.14,39.28,2101-07-28 00:00:00,992.45,-37.66,46.61,2101-07-21 00:00:00,1006.8,-78.09,26.66,2101-07-21 00:00:00,2101-07-29 06:00:00,1006.24,-19.5,54.0
3,TC210105,Janet,A,2,2101-09-08 18:00:00,902.97,-57.85,23.01,2101-09-08 18:00:00,902.97,-57.85,23.01,2101-09-12 18:00:00,934.13,-60.07,35.72,2101-09-14 18:00:00,962.56,-47.38,49.02,2101-08-31 18:00:00,1007.41,-16.98,11.22,2101-09-01 06:00:00,2101-09-16 06:00:00,951.28,-39.41,57.41
4,TC210106,Kinen,A,2,2101-09-21 00:00:00,987.95,-57.9,27.28,2101-09-21 00:00:00,987.95,-57.9,27.28,2101-09-22 18:00:00,997.21,-55.88,36.75,2101-09-23 18:00:00,1001.49,-44.6,45.12,2101-09-14 18:00:00,1008.55,-33.91,12.24,2101-09-14 18:00:00,2101-09-24 06:00:00,1007.81,-34.25,47.25
5,TC210107,Lydia,A,2,2101-10-15 18:00:00,972.53,-44.38,34.56,2101-10-15 18:00:00,972.53,-44.38,34.56,2101-10-21 00:00:00,1000.6,-31.27,43.82,2101-10-22 12:00:00,1009.88,-14.6,43.7,2101-10-09 12:00:00,1012.97,-41.84,19.77,2101-10-09 12:00:00,2101-10-23 00:00:00,1012.93,-12.4,41.72
6,TC210108,Mario,A,2,2101-11-03 06:00:00,958.33,-57.25,45.25,2101-10-31 00:00:00,993.43,-83.39,18.79,2101-10-31 12:00:00,991.45,-82.16,20.04,2101-11-03 00:00:00,966.28,-60.25,42.5,2101-10-29 12:00:00,1004.12,-80.42,12.14,2101-10-29 12:00:00,2101-11-04 00:00:00,961.7,-44.5,53.5
7,TC210303,Tony,A,2,2103-09-30 06:00:00,973.1,-65.86,41.49,2103-09-23 18:00:00,986.2,-65.04,24.31,2103-09-28 12:00:00,996.27,-72.1,34.29,2103-10-01 12:00:00,990.47,-48.82,48.66,2103-09-13 18:00:00,1007.88,-30.37,10.25,2103-09-15 06:00:00,2103-10-04 06:00:00,1005.28,-6.5,43.5
8,TC210406,Brandon,A,2,2104-11-03 00:00:00,983.4,-80.23,30.79,2104-11-03 00:00:00,983.4,-80.23,30.79,2104-11-04 06:00:00,1002.87,-78.57,33.49,2104-11-04 12:00:00,1003.32,-77.3,34.64,2104-11-01 00:00:00,1001.5,-64.44,31.49,2104-11-01 00:00:00,2104-11-06 18:00:00,995.77,-50.5,56.75
9,TC210502,David,A,2,2105-02-19 06:00:00,963.17,-42.91,37.92,2105-02-20 12:00:00,971.34,-30.18,39.84,2105-02-22 12:00:00,1005.2,-15.75,37.5,2105-02-22 12:00:00,1005.2,-15.75,37.5,2105-02-18 06:00:00,982.06,-55.81,36.86,2105-02-20 12:00:00,2105-02-23 06:00:00,1011.07,-11.0,40.0
10,TC210503,Elyse,A,2,2105-02-27 00:00:00,956.81,-35.38,35.67,2105-02-27 00:00:00,956.81,-35.38,35.67,2105-02-27 18:00:00,961.68,-29.59,39.76,2105-02-28 12:00:00,972.7,-27.47,51.4,2105-02-24 12:00:00,981.25,-50.94,30.39,2105-02-25 06:00:00,2105-02-28 12:00:00,972.7,-27.47,51.4
11,TC210507,Hope,A,2,2105-09-27 18:00:00,925.26,-48.56,34.91,2105-09-27 18:00:00,925.26,-48.56,34.91,2105-10-04 18:00:00,977.52,-38.56,44.26,2105-10-05 06:00:00,980.7,-30.64,48.3,2105-09-19 12:00:00,1008.38,-32.11,13.79,2105-09-19 12:00:00,2105-10-05 12:00:00,983.83,-25.92,51.3
12,TC210803,Nicholas,A,2,2108-10-05 18:00:00,946.47,-31.96,35.06,2108-10-05 18:00:00,946.47,-31.96,35.06,2108-10-11 06:00:00,1000.82,-36.27,46.14,2108-10-11 06:00:00,1000.82,-36.27,46.14,2108-09-30 12:00:00,1009.31,-54.49,27.62,2108-09-30 12:00:00,2108-10-12 06:00:00,987.11,-14.75,53.5
13,TC210805,Queenie,A,2,2108-10-23 00:00:00,977.04,-29.75,56.0,2108-10-20 06:00:00,996.03,-37.01,37.68,2108-10-21 12:00:00,995.99,-31.45,42.91,2108-10-23 00:00:00,977.04,-29.75,56.0,2108-10-15 18:00:00,997.71,-48.08,37.89,2108-10-16 12:00:00,2108-10-23 00:00:00,977.04,-29.75,56.0
14,TC210806,Samson,A,2,2108-11-10 18:00:00,957.55,-34.21,38.14,2108-11-10 18:00:00,957.55,-34.21,38.14,2108-11-11 06:00:00,966.57,-31.84,44.42,2108-11-12 00:00:00,978.85,-22.88,49.5,2108-11-02 18:00:00,1007.77,-49.67,30.88,2108-11-05 00:00:00,2108-11-13 00:00:00,998.03,1.75,47.25
15,TC210908,Bonnie,A,2,2109-11-13 12:00:00,983.91,-15.5,41.75,2109-11-08 06:00:00,990.32,-26.46,40.73,2109-11-11 06:00:00,991.37,-35.0,37.03,2109-11-11 12:00:00,991.73,-33.07,37.15,2109-11-06 12:00:00,1004.59,-22.32,39.52,2109-11-08 00:00:00,2109-11-13 12:00:00,983.91,-15.5,41.75
16,TC211001,Charlie,A,2,2110-08-27 00:00:00,920.65,-67.41,30.05,2110-08-27 00:00:00,920.65,-67.41,30.05,2110-08-30 12:00:00,938.26,-56.41,43.25,2110-08-31 12:00:00,977.4,-38.13,47.96,2110-08-18 06:00:00,1007.4,-31.22,15.15,2110-08-18 06:00:00,2110-09-02 00:00:00,995.8,-7.25,54.0
17,TC211003,Demi,A,2,2110-09-26 18:00:00,987.95,-66.53,37.79,2110-09-26 18:00:00,987.95,-66.53,37.79,2110-09-27 00:00:00,989.1,-64.44,38.22,2110-09-28 12:00:00,1012.07,-51.5,42.0,2110-09-23 12:00:00,1011.55,-77.17,31.14,2110-09-23 12:00:00,2110-09-28 12:00:00,1012.07,-51.5,42.0
18,TC211205,Keith,A,2,2112-09-05 00:00:00,916.5,-61.04,32.4,2112-09-05 00:00:00,916.5,-61.04,32.4,2112-09-06 00:00:00,942.37,-56.1,36.65,2112-09-09 12:00:00,943.61,-33.98,56.32,2112-08-28 18:00:00,1009.5,-28.42,13.97,2112-08-29 18:00:00,2112-09-09 18:00:00,949.38,-32.68,56.9
19,TC211207,Marc,A,2,2112-11-03 18:00:00,947.91,-38.89,41.46,2112-11-03 18:00:00,947.91,-38.89,41.46,2112-11-06 12:00:00,987.15,-24.87,48.77,2112-11-06 12:00:00,987.15,-24.87,48.77,2112-10-30 12:00:00,1008.96,-48.58,30.53,2112-10-30 12:00:00,2112-11-09 00:00:00,1012.65,-27.0,38.25
20,TC211208,Noelle,A,2,2112-11-07 00:00:00,953.16,-58.56,43.49,2112-11-03 06:00:00,997.6,-71.21,32.31,2112-11-03 18:00:00,1002.08,-70.14,33.9,2112-11-07 12:00:00,962.48,-61.3,46.97,2112-11-01 06:00:00,1010.88,-78.24,27.63,2112-11-01 06:00:00,2112-11-07 18:00:00,968.78,-63.71,47.43
21,TC211301,Shannon,A,2,2113-01-14 12:00:00,937.29,-42.81,41.44,2113-01-14 12:00:00,937.29,-42.81,41.44,2113-01-15 06:00:00,940.9,-36.61,39.57,2113-01-18 00:00:00,951.48,-32.18,57.61,2113-01-11 06:00:00,964.69,-71.7,35.74,2113-01-12 00:00:00,2113-01-18 06:00:00,951.17,-31.72,60.0
22,TC211305,Thomas,A,2,2113-06-18 00:00:00,959.56,-71.9,33.49,2113-06-18 00:00:00,959.56,-71.9,33.49,2113-06-19 00:00:00,968.89,-67.21,38.58,2113-06-19 18:00:00,980.91,-60.91,44.87,2113-06-10 12:00:00,1003.72,-78.75,13.35,2113-06-10 12:00:00,2113-06-20 12:00:00,987.87,-49.7,54.61
23,TC211307,Wendy,A,2,2113-09-22 12:00:00,963.15,-92.17,28.24,2113-09-22 12:00:00,963.15,-92.17,28.24,2113-09-24 12:00:00,1002.15,-91.41,34.53,2113-09-24 12:00:00,1002.15,-91.41,34.53,2113-09-11 18:00:00,1009.79,-95.66,18.36,2113-09-11 18:00:00,2113-09-28 18:00:00,1007.54,-53.75,44.0
24,TC211308,Anna,A,2,2113-09-18 00:00:00,911.77,-43.93,21.91,2113-09-18 00:00:00,911.77,-43.93,21.91,2113-09-21 00:00:00,956.55,-44.48,31.57,2113-09-25 06:00:00,977.74,-48.83,53.69,2113-09-12 18:00:00,1006.52,-29.2,14.42,2113-09-12 18:00:00,2113-09-26 18:00:00,995.67,-39.25,55.0
25,TC211309,Bryan,A,2,2113-11-10 00:00:00,943.59,-66.64,44.07,2113-11-04 06:00:00,951.74,-93.41,21.77,2113-11-07 12:00:00,950.39,-89.47,25.49,2113-11-11 00:00:00,966.07,-71.38,53.74,2113-10-31 00:00:00,1002.14,-89.7,26.27,2113-10-31 00:00:00,2113-11-11 00:00:00,966.07,-71.38,53.74
26,TC211403,Esther,A,2,2114-02-22 18:00:00,999.96,-33.9,36.77,2114-02-22 18:00:00,999.96,-33.9,36.77,2114-02-25 00:00:00,1011.72,-37.25,36.67,2114-02-25 06:00:00,1011.03,-35.89,36.81,2114-02-21 00:00:00,1007.97,-38.22,35.46,2114-02-22 00:00:00,2114-02-25 06:00:00,1011.03,-35.89,36.81
27,TC211405,Frank,A,2,2114-08-25 00:00:00,915.17,-63.64,32.17,2114-08-25 00:00:00,915.17,-63.64,32.17,2114-08-26 00:00:00,928.16,-60.6,37.45,2114-08-28 00:00:00,973.34,-46.87,49.91,2114-08-13 12:00:00,1005.95,-20.82,14.53,2114-08-13 18:00:00,2114-08-29 18:00:00,988.63,-24.75,54.25
28,TC211407,John,A,2,2114-09-08 00:00:00,906.75,-63.69,23.32,2114-09-08 00:00:00,906.75,-63.69,23.32,2114-09-09 18:00:00,956.56,-65.8,33.67,2114-09-11 00:00:00,970.43,-56.68,50.61,2114-09-02 06:00:00,1006.93,-29.24,9.73,2114-09-03 00:00:00,2114-09-11 00:00:00,970.43,-56.68,50.61
29,TC211410,Mandy,A,2,2114-10-19 06:00:00,984.05,-59.43,40.09,2114-10-18 18:00:00,997.38,-59.77,37.36,2114-10-19 00:00:00,991.13,-59.51,38.81,2114-10-20 12:00:00,1001.32,-49.25,48.25,2114-10-16 18:00:00,1009.46,-58.96,30.83,2114-10-16 18:00:00,2114-10-20 12:00:00,1001.32,-49.25,48.25
30,TC211501,Nathan,A,2,2115-10-25 18:00:00,972.5,-59.47,34.9,2115-10-25 18:00:00,972.5,-59.47,34.9,2115-10-27 00:00:00,988.68,-47.67,43.95,2115-10-27 06:00:00,989.62,-43.51,46.89,2115-10-24 00:00:00,997.17,-61.9,29.32,2115-10-24 00:00:00,2115-10-27 12:00:00,990.01,-39.17,50.14
31,TC211503,Rosalina,A,2,2115-12-08 06:00:00,962.97,-56.8,35.5,2115-12-08 06:00:00,962.97,-56.8,35.5,2115-12-12 06:00:00,990.05,-46.73,44.22,2115-12-12 12:00:00,990.27,-41.24,46.11,2115-12-03 06:00:00,1002.28,-58.25,25.62,2115-12-03 06:00:00,2115-12-13 00:00:00,994.57,-29.25,48.0
32,TC211605,Wilson,A,2,2116-11-25 06:00:00,978.89,-59.9,37.53,2116-11-25 06:00:00,978.89,-59.9,37.53,2116-11-27 06:00:00,990.06,-59.01,32.97,2116-11-28 00:00:00,994.9,-53.74,31.62,2116-11-21 18:00:00,992.69,-61.82,38.62,2116-11-23 00:00:00,2116-11-29 06:00:00,998.36,-43.71,30.04
33,TC211606,Aidan,A,2,2116-11-30 18:00:00,944.73,-31.01,37.59,2116-11-30 18:00:00,944.73,-31.01,37.59,2116-12-04 18:00:00,976.27,-20.89,39.81,2116-12-06 00:00:00,977.52,-2.56,46.87,2116-11-26 18:00:00,979.74,-40.6,39.33,2116-11-26 18:00:00,2116-12-06 18:00:00,978.24,11.5,53.75
34,TC211706,Carson,A,2,2117-02-19 06:00:00,953.71,-39.12,39.92,2117-02-19 06:00:00,953.71,-39.12,39.92,2117-02-21 06:00:00,972.15,-39.24,34.62,2117-02-22 12:00:00,990.34,-29.0,32.25,2117-02-18 18:00:00,954.85,-40.25,38.12,2117-02-18 18:00:00,2117-02-25 06:00:00,986.88,11.0,44.0
35,TC211802,Erling,A,2,2118-05-18 18:00:00,967.3,-69.07,38.89,2118-05-18 00:00:00,991.42,-80.53,34.25,2118-05-18 06:00:00,985.92,-77.02,35.38,2118-05-19 06:00:00,978.78,-60.84,46.62,2118-05-13 00:00:00,1012.86,-89.06,28.39,2118-05-13 00:00:00,2118-05-19 12:00:00,981.55,-57.66,50.9
36,TC211804,Hendrik,A,2,2118-08-14 12:00:00,872.72,-93.81,27.86,2118-08-14 12:00:00,872.72,-93.81,27.86,2118-08-16 18:00:00,996.93,-95.87,41.87,2118-08-17 00:00:00,997.64,-94.51,42.59,2118-08-09 12:00:00,1009.71,-56.74,18.45,2118-08-10 18:00:00,2118-08-20 06:00:00,986.11,-70.0,54.5
37,TC212004,Shirley,A,2,2120-09-04 18:00:00,974.96,-91.02,28.07,2120-09-04 18:00:00,974.96,-91.02,28.07,2120-09-08 06:00:00,993.08,-77.4,41.04,2120-09-09 00:00:00,993.69,-70.75,46.0,2120-08-31 00:00:00,1005.09,-94.12,22.3,2120-08-31 00:00:00,2120-09-09 18:00:00,1007.68,-67.0,44.75
38,TC212201,Carmen,A,2,2122-02-12 06:00:00,981.6,-29.66,39.24,2122-02-12 06:00:00,981.6,-29.66,39.24,2122-02-13 00:00:00,992.51,-24.99,37.98,2122-02-13 12:00:00,988.93,-18.77,38.14,2122-02-03 00:00:00,1009.29,-39.79,33.67,2122-02-04 06:00:00,2122-02-14 06:00:00,984.49,-6.75,42.0
39,TC212207,Geoffrey,A,2,2122-09-21 06:00:00,947.43,-52.12,40.47,2122-09-18 18:00:00,982.65,-72.43,30.35,2122-09-19 06:00:00,987.46,-70.58,31.53,2122-09-22 06:00:00,991.09,-41.63,50.24,2122-09-15 18:00:00,1000.27,-67.39,24.93,2122-09-15 18:00:00,2122-09-22 12:00:00,996.84,-37.88,53.17
40,TC212209,Joshua,A,2,2122-12-14 06:00:00,985.93,-43.05,34.43,2122-12-14 06:00:00,985.93,-43.05,34.43,2122-12-17 12:00:00,1005.11,-20.57,43.29,2122-12-17 18:00:00,1007.99,-17.5,44.0,2122-12-12 18:00:00,1002.82,-51.77,28.68,2122-12-14 06:00:00,2122-12-18 06:00:00,1013.0,-10.5,45.75
41,TC212307,Ollie,A,2,2123-10-03 18:00:00,945.6,-55.76,39.55,2123-10-03 18:00:00,945.6,-55.76,39.55,2123-10-06 00:00:00,1002.7,-44.3,42.14,2123-10-06 06:00:00,1002.04,-41.99,43.7,2123-09-18 18:00:00,1012.2,-24.76,7.5,2123-09-19 18:00:00,2123-10-07 12:00:00,967.68,-23.5,56.25
42,TC212402,Rosita,A,2,2124-09-30 06:00:00,923.72,-55.92,22.89,2124-09-30 06:00:00,923.72,-55.92,22.89,2124-10-02 00:00:00,924.02,-53.05,25.97,2124-10-07 00:00:00,988.26,-27.32,49.92,2124-09-19 18:00:00,1012.25,-13.08,8.38,2124-09-23 00:00:00,2124-10-07 00:00:00,988.26,-27.32,49.92
43,TC212502,Stefan,A,2,2125-09-05 18:00:00,993.58,-36.55,19.86,2125-09-05 18:00:00,993.58,-36.55,19.86,2125-09-13 06:00:00,1006.63,-55.77,42.05,2125-09-13 12:00:00,1000.11,-53.47,40.43,2125-09-01 12:00:00,1005.83,-20.45,11.95,2125-09-03 12:00:00,2125-09-17 06:00:00,1003.34,-23.5,55.25
44,TC212601,Yves,A,2,2126-01-03 12:00:00,980.5,-60.53,40.47,2126-01-03 18:00:00,980.85,-59.51,39.2,2126-01-07 18:00:00,992.71,-26.29,43.12,2126-01-08 00:00:00,993.52,-24.59,45.9,2126-01-02 12:00:00,1008.16,-74.29,35.04,2126-01-03 18:00:00,2126-01-08 00:00:00,993.52,-24.59,45.9
45,TC212604,Alberto,A,2,2126-05-12 00:00:00,973.58,-64.29,35.38,2126-05-12 00:00:00,973.58,-64.29,35.38,2126-05-16 00:00:00,1002.2,-28.33,36.35,2126-05-16 06:00:00,1003.64,-25.6,36.84,2126-05-07 18:00:00,1003.14,-87.48,26.63,2126-05-08 18:00:00,2126-05-17 18:00:00,1012.81,-17.25,39.5
46,TC212702,Carlos,A,2,2127-04-16 06:00:00,965.12,-72.63,37.31,2127-04-16 06:00:00,965.12,-72.63,37.31,2127-04-21 06:00:00,986.63,-62.16,36.71,2127-04-22 18:00:00,988.94,-64.29,42.26,2127-04-12 12:00:00,1004.72,-78.68,24.34,2127-04-14 18:00:00,2127-04-25 12:00:00,1012.64,-45.25,50.75
47,TC212704,Doreen,A,2,2127-06-16 18:00:00,972.72,-31.57,51.63,2127-06-14 12:00:00,992.25,-57.07,39.86,2127-06-14 18:00:00,990.71,-53.68,40.72,2127-06-15 18:00:00,988.96,-38.11,44.55,2127-06-11 00:00:00,1008.62,-73.94,34.32,2127-06-11 00:00:00,2127-06-16 18:00:00,972.72,-31.57,51.63
48,TC212707,Gloria,A,2,2127-10-20 18:00:00,944.64,-29.42,31.38,2127-10-20 18:00:00,944.64,-29.42,31.38,2127-10-22 12:00:00,968.67,-28.42,31.12,2127-10-27 00:00:00,999.95,-2.43,39.45,2127-10-17 12:00:00,1006.7,-35.87,30.53,2127-10-18 18:00:00,2127-10-28 00:00:00,1011.06,2.5,39.0
49,TC212802,Kyle,A,2,2128-01-19 18:00:00,960.57,-40.76,43.45,2128-01-19 18:00:00,960.57,-40.76,43.45,2128-01-22 06:00:00,995.26,-27.0,33.75,2128-01-22 06:00:00,995.26,-27.0,33.75,2128-01-19 06:00:00,965.24,-40.85,41.73,2128-01-19 18:00:00,2128-01-24 00:00:00,1005.47,-15.0,40.25
50,TC212806,Manfred,A,2,2128-10-25 18:00:00,945.16,-33.2,55.7,2128-10-19 00:00:00,985.11,-83.13,18.1,2128-10-19 12:00:00,985.79,-81.64,18.65,2128-10-25 12:00:00,950.22,-34.1,53.1,2128-10-12 06:00:00,1008.21,-84.62,16.64,2128-10-12 06:00:00,2128-10-25 18:00:00,945.16,-33.2,55.7
51,TC212807,Oxlip,A,2,2128-11-23 00:00:00,994.85,-62.45,21.4,2128-11-23 00:00:00,994.85,-62.45,21.4,2128-11-24 12:00:00,1006.88,-53.76,24.41,2128-11-25 12:00:00,1012.06,-49.25,26.5,2128-11-19 18:00:00,1003.57,-76.27,16.84,2128-11-19 18:00:00,2128-11-26 00:00:00,1011.09,-46.75,28.75
52,TC212905,Victor,A,2,2129-10-28 12:00:00,963.18,-58.26,42.76,2129-10-28 00:00:00,967.11,-62.06,40.26,2129-10-28 06:00:00,963.38,-60.53,41.82,2129-10-29 06:00:00,984.38,-48.02,46.75,2129-10-22 00:00:00,1002.98,-57.37,38.42,2129-10-22 00:00:00,2129-10-30 06:00:00,1011.99,-32.68,48.45
53,TC213003,Corliss,A,2,2130-09-26 06:00:00,971.08,-74.07,29.52,2130-09-26 06:00:00,971.08,-74.07,29.52,2130-09-28 18:00:00,1001.79,-73.39,41.08,2130-09-29 00:00:00,998.55,-70.49,43.27,2130-09-17 12:00:00,1008.28,-38.15,13.68,2130-09-17 18:00:00,2130-09-29 18:00:00,986.44,-65.43,49.35
54,TC213103,Gabriel,B,2,2131-03-10 18:00:00,969.97,-32.56,47.59,2131-03-10 18:00:00,969.97,-32.56,47.59,2131-03-12 00:00:00,980.63,-20.25,50.75,2131-03-12 00:00:00,980.63,-20.25,50.75,2131-03-07 12:00:00,975.99,-55.22,34.26,2131-03-07 12:00:00,2131-03-12 12:00:00,988.89,-10.0,51.75
55,TC213105,Jack,B,2,2131-07-05 06:00:00,981.88,-61.69,42.81,2131-07-05 06:00:00,981.88,-61.69,42.81,2131-07-05 12:00:00,986.35,-58.24,44.46,2131-07-06 06:00:00,996.17,-45.0,50.75,2131-07-02 00:00:00,1012.93,-78.95,34.0,2131-07-02 00:00:00,2131-07-07 06:00:00,997.48,-29.25,54.25
56,TC213202,Melody,B,2,2132-05-30 00:00:00,987.89,-89.73,29.65,2132-05-30 00:00:00,987.89,-89.73,29.65,2132-05-31 12:00:00,1000.36,-90.84,36.54,2132-06-03 06:00:00,1007.38,-74.36,39.79,2132-05-27 06:00:00,1008.35,-90.53,24.12,2132-05-27 06:00:00,2132-06-04 18:00:00,1012.39,-65.25,35.75
57,TC213205,Oscar,B,2,2132-12-07 18:00:00,959.03,-40.32,50.87,2132-12-07 18:00:00,959.03,-40.32,50.87,2132-12-09 12:00:00,978.72,-37.01,52.39,2132-12-10 00:00:00,985.74,-36.44,54.23,2132-12-05 18:00:00,966.55,-48.75,40.24,2132-12-06 06:00:00,2132-12-10 06:00:00,986.68,-36.43,55.23
58,TC213303,Sunny,B,2,2133-02-03 06:00:00,989.58,-49.52,32.69,2133-02-03 06:00:00,989.58,-49.52,32.69,2133-02-05 00:00:00,1002.51,-47.0,30.75,2133-02-05 18:00:00,1006.88,-46.25,30.0,2133-02-02 00:00:00,996.13,-49.94,27.58,2133-02-02 00:00:00,2133-02-08 00:00:00,1012.28,-34.5,28.0
59,TC213306,Victoria,B,2,2133-03-25 06:00:00,992.54,-38.96,22.52,2133-03-25 06:00:00,992.54,-38.96,22.52,2133-03-29 00:00:00,1000.99,-40.89,34.89,2133-03-30 00:00:00,1003.47,-37.96,41.14,2133-03-24 18:00:00,997.05,-40.88,22.93,2133-03-24 18:00:00,2133-03-31 06:00:00,1011.68,-26.75,44.5
60,TC213409,Ederson,B,2,2134-09-18 06:00:00,923.37,-79.63,26.44,2134-09-18 06:00:00,923.37,-79.63,26.44,2134-09-20 06:00:00,956.11,-77.99,34.43,2134-09-22 00:00:00,991.81,-70.49,42.75,2134-09-13 12:00:00,1009.42,-48.95,14.94,2134-09-14 00:00:00,2134-09-22 12:00:00,997.93,-64.05,44.14
61,TC213410,Gwyneth,B,2,2134-10-18 12:00:00,986.77,-46.11,56.22,2134-10-15 12:00:00,999.09,-66.68,36.54,2134-10-15 18:00:00,997.8,-65.98,37.83,2134-10-17 12:00:00,992.23,-55.21,50.03,2134-10-13 12:00:00,1007.03,-68.2,32.05,2134-10-13 12:00:00,2134-10-18 12:00:00,986.77,-46.11,56.22
62,TC213506,Isaac,B,2,2135-10-21 06:00:00,970.22,-18.25,51.25,2135-10-18 18:00:00,988.03,-48.48,38.15,2135-10-19 00:00:00,985.47,-46.44,40.4,2135-10-20 00:00:00,982.4,-26.92,49.0,2135-10-14 06:00:00,1012.5,-38.59,32.46,2135-10-14 06:00:00,2135-10-21 06:00:00,970.22,-18.25,51.25
63,TC213507,Jaime,B,2,2135-11-01 00:00:00,993.42,-65.03,38.57,2135-10-30 12:00:00,997.58,-68.8,29.22,2135-10-30 18:00:00,997.89,-68.16,30.05,2135-11-02 12:00:00,1007.12,-54.3,43.43,2135-10-28 06:00:00,1007.88,-74.26,22.95,2135-10-28 06:00:00,2135-11-02 18:00:00,1009.02,-52.25,43.75
64,TC213508,Kelechi,B,2,2135-11-16 18:00:00,973.88,-56.39,41.82,2135-11-17 06:00:00,979.23,-53.67,42.6,2135-11-19 18:00:00,1006.66,-47.06,42.13,2135-11-20 12:00:00,983.62,-52.71,41.3,2135-11-15 18:00:00,982.36,-62.44,37.45,2135-11-17 06:00:00,2135-11-20 18:00:00,995.44,-51.25,45.0
65,TC213603,Peach,B,2,2136-06-22 18:00:00,930.27,-63.58,33.09,2136-06-22 18:00:00,930.27,-63.58,33.09,2136-06-24 00:00:00,972.58,-46.73,40.88,2136-06-24 06:00:00,982.56,-42.37,43.82,2136-06-19 12:00:00,1000.39,-68.74,41.87,2136-06-20 12:00:00,2136-06-24 18:00:00,996.82,-36.01,50.8
66,TC213604,Ruben,B,2,2136-09-22 12:00:00,904.63,-86.25,20.03,2136-09-22 12:00:00,904.63,-86.25,20.03,2136-10-01 12:00:00,996.7,-97.45,37.34,2136-10-02 00:00:00,992.45,-93.17,41.08,2136-09-14 12:00:00,1010.82,-38.65,12.81,2136-09-15 06:00:00,2136-10-04 06:00:00,998.39,-76.25,54.25
67,TC213606,Seldoen,B,2,2136-09-30 00:00:00,942.75,-53.9,25.8,2136-09-30 00:00:00,942.75,-53.9,25.8,2136-10-01 12:00:00,957.06,-48.11,32.42,2136-10-03 18:00:00,984.42,-29.69,53.45,2136-09-23 06:00:00,1006.42,-29.23,15.18,2136-09-23 06:00:00,2136-10-04 00:00:00,992.91,-29.25,57.25
68,TC213607,Vincent,B,2,2136-10-14 00:00:00,920.08,-76.35,29.82,2136-10-11 18:00:00,932.41,-81.61,19.32,2136-10-13 06:00:00,930.46,-77.57,26.36,2136-10-21 18:00:00,987.64,-31.04,49.12,2136-10-03 18:00:00,1008.38,-82.05,13.98,2136-10-03 18:00:00,2136-10-23 18:00:00,1013.0,-22.65,48.87
69,TC213608,Zoe,B,2,2136-10-28 12:00:00,964.41,-18.26,44.37,2136-10-28 12:00:00,964.41,-18.26,44.37,2136-10-30 06:00:00,1000.27,-11.96,42.88,2136-10-30 18:00:00,1008.54,-10.75,41.75,2136-10-12 06:00:00,1001.96,-69.37,24.61,2136-10-12 06:00:00,2136-10-30 18:00:00,1008.54,-10.75,41.75
70,TC213609,Alice,B,2,2136-11-26 06:00:00,982.59,-32.26,39.97,2136-11-26 06:00:00,982.59,-32.26,39.97,2136-11-28 06:00:00,996.28,-25.98,45.13,2136-11-28 12:00:00,998.54,-26.39,47.73,2136-11-24 00:00:00,998.6,-34.87,31.17,2136-11-24 00:00:00,2136-11-28 18:00:00,998.87,-27.5,51.0
71,TC213702,Bruce,B,2,2137-08-04 06:00:00,986.3,-60.92,42.27,2137-08-03 06:00:00,995.27,-71.94,37.21,2137-08-03 18:00:00,994.57,-67.74,39.87,2137-08-05 00:00:00,999.18,-52.48,43.51,2137-08-01 00:00:00,1011.11,-80.68,30.44,2137-08-01 00:00:00,2137-08-05 06:00:00,1009.11,-52.09,41.48
72,TC213703,Candy,B,2,2137-08-15 18:00:00,976.65,-88.19,25.98,2137-08-15 18:00:00,976.65,-88.19,25.98,2137-08-19 00:00:00,1006.66,-96.11,30.57,2137-08-19 00:00:00,1006.66,-96.11,30.57,2137-08-06 18:00:00,1004.77,-32.62,13.0,2137-08-06 18:00:00,2137-08-21 06:00:00,1010.07,-95.75,33.75
73,TC213705,Emmelyn,B,2,2137-12-12 12:00:00,990.57,-39.97,36.14,2137-12-11 06:00:00,994.96,-54.24,34.31,2137-12-12 00:00:00,997.31,-45.67,31.5,2137-12-13 06:00:00,992.41,-35.06,35.55,2137-12-07 18:00:00,1011.41,-67.2,33.15,2137-12-08 18:00:00,2137-12-14 06:00:00,998.8,-35.75,40.89
74,TC213802,Ivy,B,2,2138-03-25 06:00:00,997.31,-39.35,30.2,2138-03-25 06:00:00,997.31,-39.35,30.2,2138-03-29 00:00:00,1011.52,-29.13,35.17,2138-03-29 06:00:00,1011.64,-27.26,36.05,2138-03-25 00:00:00,997.37,-39.74,31.61,2138-03-25 00:00:00,2138-03-29 06:00:00,1011.64,-27.26,36.05
75,TC213805,Jeremy,B,2,2138-10-10 18:00:00,961.37,-27.33,59.07,2138-10-08 18:00:00,990.16,-54.6,38.34,2138-10-09 06:00:00,986.95,-50.62,40.99,2138-10-10 06:00:00,972.0,-35.21,50.9,2138-10-05 18:00:00,1011.36,-53.48,33.56,2138-10-05 18:00:00,2138-10-10 18:00:00,961.37,-27.33,59.07
76,TC213901,Katie,B,2,2139-03-22 12:00:00,955.66,-53.0,59.56,2139-03-21 00:00:00,965.98,-55.14,42.67,2139-03-21 06:00:00,959.7,-54.67,44.94,2139-03-21 18:00:00,962.9,-51.32,48.77,2139-03-15 18:00:00,1006.14,-90.67,16.25,2139-03-18 06:00:00,2139-03-22 12:00:00,955.66,-53.0,59.56
77,TC213902,Luigi,B,2,2139-06-09 00:00:00,968.31,-89.82,29.26,2139-06-09 00:00:00,968.31,-89.82,29.26,2139-06-09 12:00:00,991.62,-89.02,32.75,2139-06-10 12:00:00,999.78,-84.71,37.66,2139-06-02 12:00:00,1009.13,-86.59,15.59,2139-06-02 18:00:00,2139-06-11 06:00:00,1009.52,-82.59,38.03
78,TC213903,Michelle,B,2,2139-10-26 00:00:00,934.51,-47.24,34.36,2139-10-26 00:00:00,934.51,-47.24,34.36,2139-10-26 06:00:00,944.41,-46.44,36.45,2139-10-27 18:00:00,992.04,-31.05,45.72,2139-10-19 18:00:00,1012.42,-38.32,33.58,2139-10-19 18:00:00,2139-10-29 00:00:00,995.31,-0.25,47.0
79,TC213904,Phil,B,2,2139-11-01 06:00:00,941.58,-37.97,58.06,2139-10-28 12:00:00,977.78,-67.99,33.09,2139-10-28 18:00:00,974.36,-66.39,33.1,2139-10-31 00:00:00,958.61,-47.21,45.64,2139-10-26 18:00:00,998.56,-74.09,34.48,2139-10-26 18:00:00,2139-11-02 06:00:00,968.6,-23.79,59.69
80,TC214005,Alex,B,2,2140-09-27 18:00:00,904.89,-58.16,40.25,2140-09-26 00:00:00,907.21,-67.51,31.15,2140-09-26 18:00:00,909.67,-65.21,34.25,2140-09-29 00:00:00,955.36,-49.91,49.58,2140-09-15 00:00:00,1011.25,-35.66,13.3,2140-09-15 18:00:00,2140-09-30 00:00:00,965.06,-40.0,57.66
81,TC214009,Dawn,B,2,2140-11-15 18:00:00,994.59,-42.68,42.02,2140-11-15 18:00:00,994.59,-42.68,42.02,2140-11-17 06:00:00,1003.56,-39.55,46.15,2140-11-18 06:00:00,1001.54,-36.0,49.5,2140-11-15 06:00:00,999.45,-41.29,43.33,2140-11-15 06:00:00,2140-11-18 18:00:00,998.97,-29.25,55.75
82,TC214010,Ernest,B,2,2140-11-23 12:00:00,953.39,-35.47,57.08,2140-11-21 12:00:00,992.41,-40.21,36.62,2140-11-21 18:00:00,988.43,-38.47,38.05,2140-11-23 06:00:00,958.9,-34.34,55.38,2140-11-19 12:00:00,1005.6,-48.39,32.9,2140-11-19 12:00:00,2140-11-23 18:00:00,955.88,-35.47,57.08
83,TC214101,Flavia,B,2,2141-05-04 12:00:00,986.94,-47.25,31.35,2141-05-04 12:00:00,986.94,-47.25,31.35,2141-05-10 00:00:00,1004.66,-45.61,36.29,2141-05-10 12:00:00,1005.13,-42.68,40.71,2141-05-02 18:00:00,1000.45,-49.34,27.24,2141-05-03 12:00:00,2141-05-11 18:00:00,1012.2,-24.0,58.0
84,TC214102,Harrison,B,2,2141-08-30 12:00:00,961.76,-45.56,44.88,2141-08-24 12:00:00,992.12,-68.3,26.82,2141-08-28 00:00:00,993.08,-67.63,36.53,2141-09-01 12:00:00,996.85,-40.4,49.2,2141-08-16 18:00:00,1008.3,-37.09,12.91,2141-08-16 18:00:00,2141-09-03 18:00:00,1010.75,-24.0,49.25
85,TC214103,Janet,B,2,2141-09-16 18:00:00,988.39,-31.24,18.23,2141-09-16 18:00:00,988.39,-31.24,18.23,2141-09-23 06:00:00,1008.18,-35.75,36.25,2141-09-23 06:00:00,1008.18,-35.75,36.25,2141-09-12 12:00:00,1009.11,-24.61,14.52,2141-09-14 18:00:00,2141-09-23 18:00:00,1005.22,-32.25,38.75
86,TC214104,Kinen,B,2,2141-10-14 18:00:00,992.29,-57.86,38.44,2141-10-14 18:00:00,992.29,-57.86,38.44,2141-10-17 00:00:00,1001.27,-53.61,46.47,2141-10-17 00:00:00,1001.27,-53.61,46.47,2141-10-12 18:00:00,1010.53,-70.51,27.51,2141-10-13 00:00:00,2141-10-17 12:00:00,999.36,-47.0,48.75
87,TC214105,Lydia,B,2,2141-11-17 18:00:00,984.21,1.75,52.25,2141-11-10 06:00:00,988.66,-41.63,38.29,2141-11-16 00:00:00,1000.69,-36.25,47.25,2141-11-16 06:00:00,997.44,-32.25,49.25,2141-11-10 00:00:00,989.61,-41.05,40.18,2141-11-10 00:00:00,2141-11-17 18:00:00,984.21,1.75,52.25
88,TC214203,Quinn,B,2,2142-09-25 00:00:00,949.2,-55.27,42.84,2142-09-23 18:00:00,968.24,-67.35,33.96,2142-09-24 00:00:00,967.6,-66.06,35.33,2142-09-25 18:00:00,961.64,-41.94,52.37,2142-09-20 06:00:00,1010.14,-60.26,23.47,2142-09-20 06:00:00,2142-09-26 00:00:00,964.02,-37.89,55.46
89,TC214406,Audrey,B,2,2144-07-21 18:00:00,938.74,-59.94,35.16,2144-07-21 18:00:00,938.74,-59.94,35.16,2144-07-25 06:00:00,996.7,-36.11,48.99,2144-07-25 06:00:00,996.7,-36.11,48.99,2144-07-15 18:00:00,1010.55,-46.83,17.59,2144-07-16 00:00:00,2144-07-26 00:00:00,990.21,-23.0,54.0
90,TC214409,Christine,B,2,2144-09-06 12:00:00,945.43,-54.66,40.58,2144-09-06 12:00:00,945.43,-54.66,40.58,2144-09-07 12:00:00,965.41,-43.71,41.96,2144-09-10 18:00:00,982.55,-8.15,55.43,2144-09-03 00:00:00,1006.09,-62.15,30.07,2144-09-03 00:00:00,2144-09-10 18:00:00,982.55,-8.15,55.43
91,TC214412,Elyse,B,2,2144-09-25 12:00:00,947.72,-52.45,19.97,2144-09-25 12:00:00,947.72,-52.45,19.97,2144-09-29 12:00:00,977.36,-51.07,31.24,2144-10-03 06:00:00,960.31,-9.9,51.22,2144-09-20 12:00:00,1008.97,-37.26,14.8,2144-09-20 12:00:00,2144-10-03 12:00:00,965.1,-11.53,54.34
92,TC214413,Frederick,B,2,2144-10-30 18:00:00,986.98,-57.03,43.01,2144-10-29 06:00:00,991.98,-60.12,36.81,2144-10-30 06:00:00,990.88,-59.43,40.09,2144-10-31 12:00:00,992.75,-51.5,45.75,2144-10-27 18:00:00,1007.74,-55.73,31.75,2144-10-27 18:00:00,2144-11-01 00:00:00,996.41,-45.0,47.5
93,TC214501,Hope,B,2,2145-03-25 18:00:00,963.59,-36.24,48.66,2145-03-20 12:00:00,976.88,-44.37,33.2,2145-03-22 12:00:00,988.11,-36.97,35.46,2145-03-26 18:00:00,993.24,-31.25,48.25,2145-03-20 12:00:00,976.88,-44.37,33.2,2145-03-20 12:00:00,2145-03-26 18:00:00,993.24,-31.25,48.25
94,TC214503,Katrina,B,2,2145-08-24 00:00:00,922.18,-68.77,33.14,2145-08-24 00:00:00,922.18,-68.77,33.14,2145-08-27 00:00:00,950.07,-68.59,44.01,2145-08-27 12:00:00,979.88,-68.1,51.3,2145-08-17 12:00:00,1005.99,-43.05,16.15,2145-08-17 18:00:00,2145-08-27 18:00:00,981.67,-65.99,55.16
95,TC214504,Luke,B,2,2145-08-31 00:00:00,951.68,-60.69,37.17,2145-08-31 00:00:00,951.68,-60.69,37.17,2145-09-02 12:00:00,968.19,-57.5,42.83,2145-09-03 18:00:00,1000.9,-40.22,51.21,2145-08-18 18:00:00,1009.16,-25.22,13.19,2145-08-20 12:00:00,2145-09-05 18:00:00,1011.55,-13.25,49.5
96,TC214601,Maho,B,2,2146-06-06 12:00:00,973.68,-63.15,48.92,2146-06-01 18:00:00,988.33,-80.16,31.55,2146-06-04 18:00:00,997.89,-75.93,36.84,2146-06-05 00:00:00,994.83,-74.12,37.75,2146-05-29 18:00:00,1011.53,-83.14,31.72,2146-05-29 18:00:00,2146-06-08 00:00:00,1007.0,-64.5,49.0
97,TC214602,Nicholas,B,2,2146-06-12 00:00:00,983.31,-74.37,35.67,2146-06-11 18:00:00,987.9,-78.01,34.14,2146-06-12 00:00:00,983.31,-74.37,35.67,2146-06-13 00:00:00,1000.74,-53.96,40.02,2146-06-10 00:00:00,1005.54,-88.23,21.18,2146-06-10 00:00:00,2146-06-13 18:00:00,1008.49,-41.25,41.0
98,TC214701,Queenie,B,2,2147-01-09 06:00:00,977.82,-39.6,42.24,2147-01-09 06:00:00,977.82,-39.6,42.24,2147-01-12 00:00:00,998.94,-32.5,48.25,2147-01-12 18:00:00,1003.15,-27.5,46.5,2147-01-06 00:00:00,989.25,-50.57,36.53,2147-01-06 00:00:00,2147-01-14 00:00:00,1010.75,-16.5,46.75
99,TC214702,Samson,B,2,2147-04-01 06:00:00,948.68,-46.58,46.36,2147-03-31 00:00:00,978.7,-51.0,33.52,2147-03-31 06:00:00,972.26,-49.73,35.65,2147-04-02 00:00:00,951.77,-42.84,55.13,2147-03-27 00:00:00,991.59,-63.44,32.52,2147-03-28 00:00:00,2147-04-03 00:00:00,963.98,-41.39,57.69
100,TC214704,William,B,2,2147-09-22 12:00:00,998.91,-91.43,42.17,2147-09-22 12:00:00,998.91,-91.43,42.17,2147-09-22 18:00:00,1002.19,-90.08,43.42,2147-09-25 12:00:00,1006.85,-83.4,44.01,2147-09-18 06:00:00,1011.18,-91.04,27.29,2147-09-18 06:00:00,2147-09-25 18:00:00,1009.97,-81.84,44.09
101,TC214706,Bonnie,B,2,2147-10-27 00:00:00,969.93,-56.17,43.34,2147-10-26 18:00:00,974.38,-56.34,39.92,2147-10-27 00:00:00,969.93,-56.17,43.34,2147-10-27 18:00:00,977.12,-53.33,52.97,2147-10-21 00:00:00,1012.26,-57.02,30.9,2147-10-21 00:00:00,2147-10-28 12:00:00,977.39,-45.37,59.31
102,TC214801,Erik,B,2,2148-01-22 06:00:00,957.56,-58.73,42.95,2148-01-22 12:00:00,966.71,-56.02,41.73,2148-01-26 06:00:00,996.99,-17.75,42.5,2148-01-26 12:00:00,997.83,-16.75,43.25,2148-01-21 18:00:00,967.13,-61.55,40.01,2148-01-22 12:00:00,2148-01-26 18:00:00,997.8,-16.75,44.5
103,TC214804,Frances,B,2,2148-03-30 06:00:00,966.59,-38.5,43.0,2148-03-30 06:00:00,966.59,-38.5,43.0,2148-04-02 12:00:00,996.53,-26.5,39.75,2148-04-03 06:00:00,999.89,-18.75,36.75,2148-03-25 06:00:00,988.05,-68.35,38.62,2148-03-28 06:00:00,2148-04-03 18:00:00,1002.62,-12.25,37.0
104,TC214805,Hubert,B,2,2148-04-23 12:00:00,976.48,-84.74,7.76,2148-04-23 12:00:00,976.48,-84.74,7.76,2148-04-28 12:00:00,995.17,-77.95,22.13,2148-04-30 00:00:00,998.74,-71.5,25.0,2148-04-20 18:00:00,1006.06,-83.51,10.89,2148-04-20 18:00:00,2148-05-02 06:00:00,991.03,-56.25,42.75
105,TC214806,Julie,B,2,2148-05-19 06:00:00,964.43,-67.41,30.05,2148-05-17 00:00:00,991.46,-82.37,19.62,2148-05-17 12:00:00,990.26,-79.66,21.48,2148-05-21 00:00:00,982.22,-49.76,49.41,2148-05-08 00:00:00,1004.02,-75.28,9.58,2148-05-09 06:00:00,2148-05-21 18:00:00,989.34,-28.92,56.59
106,TC214807,Keith,B,2,2148-06-04 12:00:00,949.32,-76.51,34.5,2148-06-04 12:00:00,949.32,-76.51,34.5,2148-06-05 12:00:00,974.54,-70.71,40.33,2148-06-06 00:00:00,988.38,-64.38,44.48,2148-06-01 00:00:00,1008.85,-71.25,23.16,2148-06-01 00:00:00,2148-06-07 06:00:00,1000.7,-38.5,55.25
107,TC214808,Lily,B,2,2148-08-19 00:00:00,998.22,-30.29,12.98,2148-08-19 00:00:00,998.22,-30.29,12.98,2148-08-21 00:00:00,1005.04,-25.59,20.99,2148-08-21 12:00:00,1006.78,-27.2,22.33,2148-08-16 12:00:00,1007.12,-20.7,16.4,2148-08-17 06:00:00,2148-08-24 00:00:00,1011.41,-39.5,20.0
108,TC214809,Marc,B,2,2148-09-04 12:00:00,898.64,-59.26,25.72,2148-09-04 12:00:00,898.64,-59.26,25.72,2148-09-09 12:00:00,959.8,-54.0,45.53,2148-09-10 00:00:00,967.97,-45.62,49.85,2148-08-30 12:00:00,1005.85,-41.72,11.43,2148-08-30 12:00:00,2148-09-10 12:00:00,956.86,-38.16,57.54
109,TC214810,Noelle,B,2,2148-09-13 12:00:00,957.4,-54.94,31.85,2148-09-13 12:00:00,957.4,-54.94,31.85,2148-09-21 12:00:00,1006.3,-39.96,45.84,2148-09-21 12:00:00,1006.3,-39.96,45.84,2148-09-03 00:00:00,1006.9,-29.76,11.67,2148-09-04 18:00:00,2148-09-22 12:00:00,988.99,-31.25,54.0
110,TC214812,Shannon,B,2,2148-10-18 18:00:00,969.39,-52.79,42.91,2148-10-17 06:00:00,997.79,-60.39,31.46,2148-10-17 12:00:00,996.59,-59.88,32.58,2148-10-19 06:00:00,978.77,-47.11,47.97,2148-10-14 12:00:00,1005.16,-62.6,24.57,2148-10-14 12:00:00,2148-10-19 18:00:00,987.92,-42.0,55.25
111,TC215002,Bryan,B,2,2150-03-10 12:00:00,983.07,-70.08,43.49,2150-03-09 12:00:00,991.09,-71.89,30.96,2150-03-09 18:00:00,991.21,-74.23,33.44,2150-03-10 00:00:00,989.81,-73.24,38.31,2150-03-07 18:00:00,995.98,-76.06,24.42,2150-03-07 18:00:00,2150-03-11 12:00:00,992.77,-63.0,53.75
112,TC215006,Dominic,B,2,2150-12-17 18:00:00,970.09,-56.37,40.75,2150-12-16 12:00:00,973.13,-50.19,41.94,2150-12-17 18:00:00,970.09,-56.37,40.75,2150-12-19 12:00:00,977.73,-38.21,38.66,2150-12-15 06:00:00,984.12,-46.33,41.0,2150-12-15 06:00:00,2150-12-20 06:00:00,974.18,-24.74,37.17
113,TC215101,Frank,B,2,2151-02-12 06:00:00,966.68,-25.34,45.01,2151-02-09 06:00:00,971.39,-38.29,37.68,2151-02-10 12:00:00,979.2,-27.36,37.59,2151-02-10 12:00:00,979.2,-27.36,37.59,2151-02-04 00:00:00,1000.88,-42.71,30.38,2151-02-06 12:00:00,2151-02-13 06:00:00,975.32,-31.26,46.19
114,TC215105,John,B,2,2151-04-20 18:00:00,974.33,-60.09,40.91,2151-04-20 18:00:00,974.33,-60.09,40.91,2151-04-25 18:00:00,1005.55,-42.25,36.75,2151-04-26 00:00:00,1009.17,-41.5,36.0,2151-04-18 12:00:00,997.74,-74.07,29.52,2151-04-20 18:00:00,2151-04-26 06:00:00,1010.65,-40.75,35.75
115,TC215204,Mandy,B,2,2152-11-04 12:00:00,938.16,-93.68,26.92,2152-11-04 12:00:00,938.16,-93.68,26.92,2152-11-06 00:00:00,995.73,-91.17,32.53,2152-11-06 12:00:00,1003.32,-89.08,34.88,2152-10-30 12:00:00,1006.44,-88.2,17.62,2152-10-30 12:00:00,2152-11-07 00:00:00,1011.02,-84.75,37.0
116,TC215301,Nathan,B,2,2153-06-05 18:00:00,918.23,-86.52,27.51,2153-06-05 18:00:00,918.23,-86.52,27.51,2153-06-13 18:00:00,999.69,-59.34,42.7,2153-06-14 18:00:00,999.17,-51.41,45.56,2153-06-01 00:00:00,1010.53,-85.77,20.91,2153-06-01 00:00:00,2153-06-15 18:00:00,1010.49,-35.25,50.75
117,TC215306,Samuel,B,2,2153-10-26 06:00:00,993.34,-52.16,33.05,2153-10-26 06:00:00,993.34,-52.16,33.05,2153-10-29 06:00:00,1003.23,-42.5,37.25,2153-10-29 12:00:00,1005.62,-41.5,38.0,2153-10-26 00:00:00,994.05,-52.65,32.24,2153-10-26 00:00:00,2153-10-30 00:00:00,1007.49,-37.75,38.75
118,TC215402,Bella,B,2,2154-02-18 06:00:00,974.21,-39.74,47.35,2154-02-18 06:00:00,974.21,-39.74,47.35,2154-02-21 00:00:00,986.49,-34.0,48.0,2154-02-21 06:00:00,988.81,-31.25,48.5,2154-02-16 00:00:00,977.2,-50.25,40.09,2154-02-17 00:00:00,2154-02-22 00:00:00,1000.31,-20.25,49.75
119,TC215407,Carson,B,2,2154-06-11 12:00:00,951.46,-77.94,33.21,2154-06-11 12:00:00,951.46,-77.94,33.21,2154-06-14 00:00:00,984.22,-68.59,42.84,2154-06-14 06:00:00,986.17,-66.99,43.9,2154-06-05 00:00:00,1008.38,-88.36,16.58,2154-06-05 00:00:00,2154-06-16 18:00:00,997.33,-46.0,54.25
120,TC215410,Dorcas,B,2,2154-11-19 06:00:00,990.19,-20.25,52.25,2154-11-14 18:00:00,992.15,-27.46,37.88,2154-11-16 12:00:00,994.59,-23.47,44.06,2154-11-18 00:00:00,1002.65,-23.25,51.0,2154-11-13 06:00:00,995.9,-25.31,35.92,2154-11-13 06:00:00,2154-11-19 06:00:00,990.19,-20.25,52.25
121,TC215412,Grace,B,2,2154-11-17 06:00:00,980.83,-33.55,38.28,2154-11-17 06:00:00,980.83,-33.55,38.28,2154-11-19 12:00:00,991.86,-26.88,36.99,2154-11-19 12:00:00,991.86,-26.88,36.99,2154-11-17 00:00:00,981.04,-33.85,37.3,2154-11-17 00:00:00,2154-11-22 00:00:00,987.95,-0.3,54.22
122,TC215604,Laura,B,2,2156-12-04 12:00:00,975.78,-45.39,47.21,2156-12-04 12:00:00,975.78,-45.39,47.21,2156-12-05 12:00:00,983.91,-41.0,47.75,2156-12-06 06:00:00,994.3,-37.75,43.25,2156-11-29 06:00:00,985.73,-55.86,38.21,2156-11-29 06:00:00,2156-12-07 18:00:00,1009.91,-25.25,32.0
123,TC215805,Tijjani,B,2,2158-11-02 18:00:00,968.94,-73.16,36.71,2158-11-03 06:00:00,969.53,-72.48,38.35,2158-11-05 12:00:00,995.93,-67.25,38.25,2158-11-05 12:00:00,995.93,-67.25,38.25,2158-11-02 18:00:00,968.94,-73.16,36.71,2158-11-03 06:00:00,2158-11-07 06:00:00,998.9,-51.25,34.5
124,TC215902,Alissa,B,2,2159-02-03 18:00:00,960.12,-39.4,41.87,2159-02-03 18:00:00,960.12,-39.4,41.87,2159-02-05 00:00:00,965.28,-27.69,47.44,2159-02-06 18:00:00,979.19,-22.61,54.92,2159-02-01 06:00:00,994.46,-56.47,34.84,2159-02-02 12:00:00,2159-02-06 18:00:00,979.19,-22.61,54.92
125,TC215905,Daniel,B,2,2159-08-20 06:00:00,940.47,-31.53,45.46,2159-08-18 18:00:00,979.95,-50.06,40.6,2159-08-19 00:00:00,973.13,-48.0,40.26,2159-08-22 18:00:00,969.24,-19.88,54.08,2159-08-16 12:00:00,997.37,-63.66,39.9,2159-08-16 12:00:00,2159-08-22 18:00:00,969.24,-19.88,54.08
126,TC215907,Geoffrey,B,2,2159-09-07 00:00:00,904.05,-53.8,20.78,2159-09-07 00:00:00,904.05,-53.8,20.78,2159-09-13 12:00:00,952.62,-50.48,45.84,2159-09-14 00:00:00,956.15,-47.75,49.91,2159-08-30 18:00:00,1010.19,-13.58,8.15,2159-09-02 12:00:00,2159-09-14 18:00:00,966.0,-44.39,54.55
127,TC215908,Hazel,B,2,2159-09-05 18:00:00,940.31,-21.26,53.93,2159-09-03 06:00:00,944.39,-49.53,36.53,2159-09-03 18:00:00,945.26,-46.25,37.88,2159-09-06 18:00:00,951.35,-16.36,58.6,2159-08-30 18:00:00,1010.2,-56.81,31.0,2159-08-30 18:00:00,2159-09-06 18:00:00,951.35,-16.36,58.6
128,TC215910,Kelly,B,2,2159-10-06 00:00:00,901.65,-54.68,30.75,2159-10-03 18:00:00,920.56,-59.27,28.32,2159-10-04 00:00:00,926.14,-59.06,28.42,2159-10-09 18:00:00,946.15,-34.21,52.71,2159-09-23 06:00:00,1008.52,-24.76,7.61,2159-09-24 06:00:00,2159-10-10 00:00:00,950.4,-31.11,56.5
129,TC215912,Mary,B,2,2159-11-02 00:00:00,989.54,-82.96,19.14,2159-11-02 00:00:00,989.54,-82.96,19.14,2159-11-04 06:00:00,1001.43,-78.72,23.25,2159-11-04 12:00:00,1003.53,-78.25,24.14,2159-10-25 12:00:00,1008.65,-80.02,13.28,2159-10-26 12:00:00,2159-11-06 00:00:00,1004.69,-66.47,27.02
130,TC216001,Rosita,B,2,2160-04-25 06:00:00,932.34,-95.16,26.06,2160-04-25 06:00:00,932.34,-95.16,26.06,2160-04-27 18:00:00,991.33,-87.0,35.7,2160-04-27 18:00:00,991.33,-87.0,35.7,2160-04-19 06:00:00,1008.53,-95.99,25.11,2160-04-20 18:00:00,2160-05-04 06:00:00,993.15,-72.25,53.5
131,TC216002,Stefan,B,2,2160-08-27 18:00:00,869.71,-86.14,22.0,2160-08-27 18:00:00,869.71,-86.14,22.0,2160-08-31 06:00:00,999.08,-99.58,36.83,2160-08-31 12:00:00,999.2,-97.62,37.99,2160-08-18 00:00:00,1005.8,-19.72,13.16,2160-08-22 06:00:00,2160-09-01 00:00:00,1002.52,-95.42,39.78
132,TC216003,Tess,B,2,2160-09-21 12:00:00,937.28,-49.5,40.21,2160-09-20 18:00:00,961.53,-51.62,37.02,2160-09-21 06:00:00,943.07,-50.06,38.99,2160-09-23 06:00:00,955.39,-37.88,57.18,2160-09-09 12:00:00,1007.87,-23.32,10.64,2160-09-11 00:00:00,2160-09-23 06:00:00,955.39,-37.88,57.18
133,TC216006,Blaise,B,2,2160-10-12 06:00:00,941.98,-29.58,15.59,2160-10-12 06:00:00,941.98,-29.58,15.59,2160-10-22 00:00:00,1008.04,-41.75,42.25,2160-10-22 00:00:00,1008.04,-41.75,42.25,2160-10-06 18:00:00,1006.55,-21.33,6.53,2160-10-06 18:00:00,2160-10-22 18:00:00,1012.64,-37.0,51.25
134,TC216101,Carlos,B,2,2161-01-09 06:00:00,984.84,-57.0,54.0,2161-01-07 18:00:00,987.82,-56.46,39.03,2161-01-08 12:00:00,990.21,-54.41,45.39,2161-01-08 12:00:00,990.21,-54.41,45.39,2161-01-04 18:00:00,1009.79,-65.78,25.01,2161-01-06 12:00:00,2161-01-09 06:00:00,984.84,-57.0,54.0
135,TC216105,Emiliano,B,2,2161-09-28 12:00:00,902.08,-76.81,29.49,2161-09-28 06:00:00,908.39,-77.72,28.14,2161-09-28 12:00:00,902.08,-76.81,29.49,2161-09-30 12:00:00,970.65,-60.52,46.98,2161-09-12 00:00:00,1010.28,-22.62,15.69,2161-09-12 12:00:00,2161-10-01 06:00:00,974.7,-50.19,54.51
136,TC216107,Ian,B,2,2161-09-26 00:00:00,905.41,-58.22,30.8,2161-09-26 00:00:00,905.41,-58.22,30.8,2161-09-29 12:00:00,978.43,-52.02,49.58,2161-09-29 12:00:00,978.43,-52.02,49.58,2161-09-15 06:00:00,1005.54,-18.8,15.68,2161-09-16 06:00:00,2161-09-30 06:00:00,985.62,-41.15,54.65
137,TC216110,Kyle,B,2,2161-11-17 12:00:00,953.35,-18.03,59.58,2161-11-15 18:00:00,966.84,-48.75,40.24,2161-11-16 00:00:00,966.91,-45.81,44.04,2161-11-16 18:00:00,955.93,-35.89,52.02,2161-11-13 06:00:00,1002.43,-61.18,23.84,2161-11-13 06:00:00,2161-11-17 12:00:00,953.35,-18.03,59.58
138,TC216202,Manfred,C,2,2162-04-08 06:00:00,986.84,-68.14,37.83,2162-04-08 06:00:00,986.84,-68.14,37.83,2162-04-09 06:00:00,988.15,-59.35,40.37,2162-04-10 00:00:00,993.46,-53.75,42.75,2162-04-06 00:00:00,1000.22,-80.9,33.51,2162-04-07 06:00:00,2162-04-10 12:00:00,1002.52,-48.0,45.25
139,TC216204,Oxlip,C,2,2162-06-18 06:00:00,974.95,-89.29,29.78,2162-06-18 06:00:00,974.95,-89.29,29.78,2162-06-20 00:00:00,992.49,-84.38,36.3,2162-06-22 00:00:00,998.45,-64.72,40.48,2162-06-12 06:00:00,1008.05,-82.3,16.98,2162-06-12 06:00:00,2162-06-23 12:00:00,1010.07,-47.66,47.83
140,TC216208,Sofiee,C,2,2162-11-02 06:00:00,998.18,-40.96,41.91,2162-11-02 06:00:00,998.18,-40.96,41.91,2162-11-05 12:00:00,1012.35,-33.4,30.84,2162-11-05 18:00:00,1010.74,-33.03,29.88,2162-11-01 18:00:00,1000.04,-43.09,41.91,2162-11-01 18:00:00,2162-11-07 18:00:00,1010.69,-30.5,28.0
141,TC216209,Victor,C,2,2162-11-13 06:00:00,988.75,-50.6,36.59,2162-11-13 06:00:00,988.75,-50.6,36.59,2162-11-13 18:00:00,991.31,-47.91,38.92,2162-11-15 00:00:00,998.71,-27.25,46.0,2162-11-10 18:00:00,1011.19,-47.03,27.38,2162-11-10 18:00:00,2162-11-15 12:00:00,1004.47,-15.75,47.75
142,TC216301,Yan,C,2,2163-03-19 06:00:00,986.21,-64.24,32.98,2163-03-19 06:00:00,986.21,-64.24,32.98,2163-03-23 00:00:00,1007.17,-55.5,31.75,2163-03-23 00:00:00,1007.17,-55.5,31.75,2163-03-19 06:00:00,986.21,-64.24,32.98,2163-03-19 06:00:00,2163-03-24 06:00:00,1005.71,-50.25,29.25
143,TC216303,Angela,C,2,2163-09-04 00:00:00,907.51,-65.89,32.08,2163-09-03 12:00:00,913.12,-67.65,29.01,2163-09-04 00:00:00,907.51,-65.89,32.08,2163-09-06 18:00:00,978.2,-47.97,49.09,2163-08-24 18:00:00,1006.27,-29.08,12.81,2163-08-25 18:00:00,2163-09-10 00:00:00,1009.71,-12.75,47.5
144,TC216304,Bernardo,C,2,2163-08-27 18:00:00,999.96,-25.61,9.97,2163-08-27 18:00:00,999.96,-25.61,9.97,2163-08-29 18:00:00,1007.95,-34.53,18.3,2163-08-30 06:00:00,1012.04,-36.66,19.85,2163-08-26 06:00:00,1002.21,-16.68,11.34,2163-08-26 06:00:00,2163-08-30 06:00:00,1012.04,-36.66,19.85
145,TC216404,Derrick,C,2,2164-05-24 12:00:00,991.73,-70.04,41.13,2164-05-23 18:00:00,998.62,-73.51,36.23,2164-05-24 00:00:00,996.85,-72.24,37.55,2164-05-25 00:00:00,1004.13,-67.03,44.79,2164-05-20 12:00:00,1012.39,-76.37,31.23,2164-05-20 12:00:00,2164-05-25 12:00:00,1010.14,-62.38,49.7
146,TC216405,Evelyn,C,2,2164-08-27 18:00:00,972.18,-85.34,29.29,2164-08-27 18:00:00,972.18,-85.34,29.29,2164-08-29 18:00:00,1003.79,-78.76,39.11,2164-08-30 00:00:00,1001.09,-77.29,39.85,2164-08-21 18:00:00,1002.88,-57.58,14.84,2164-08-21 18:00:00,2164-08-31 12:00:00,986.95,-53.5,53.0
147,TC216406,Gabriel,C,2,2164-09-09 06:00:00,942.61,-51.35,30.06,2164-09-09 06:00:00,942.61,-51.35,30.06,2164-09-13 00:00:00,967.35,-40.73,45.27,2164-09-14 00:00:00,967.42,-23.82,58.41,2164-08-31 12:00:00,1009.74,-28.23,16.33,2164-09-01 12:00:00,2164-09-14 00:00:00,967.42,-23.82,58.41
148,TC216407,Ivanka,C,2,2164-10-05 00:00:00,986.99,-58.03,42.86,2164-10-05 00:00:00,986.99,-58.03,42.86,2164-10-06 12:00:00,1001.36,-56.89,42.84,2164-10-07 00:00:00,1005.24,-54.25,44.0,2164-10-02 06:00:00,1007.83,-64.97,25.23,2164-10-02 18:00:00,2164-10-09 00:00:00,1012.62,-42.25,48.75
149,TC216504,Kyan,C,2,2165-05-14 00:00:00,981.08,-87.45,30.01,2165-05-14 00:00:00,981.08,-87.45,30.01,2165-05-15 06:00:00,993.74,-87.15,32.37,2165-05-16 06:00:00,989.98,-77.75,39.81,2165-05-11 00:00:00,1000.67,-86.44,26.58,2165-05-11 00:00:00,2165-05-17 06:00:00,1002.75,-76.6,40.58
150,TC216505,Lionel,C,2,2165-09-07 18:00:00,970.92,-80.25,24.75,2165-09-07 18:00:00,970.92,-80.25,24.75,2165-09-12 12:00:00,994.16,-52.92,43.09,2165-09-13 12:00:00,1009.05,-41.25,47.0,2165-09-01 06:00:00,1011.55,-50.32,17.17,2165-09-01 06:00:00,2165-09-13 18:00:00,1011.58,-39.25,47.25
151,TC216508,Rachel,C,2,2165-10-08 18:00:00,976.51,-60.03,43.51,2165-10-07 12:00:00,985.2,-58.34,33.95,2165-10-08 00:00:00,987.5,-60.25,37.37,2165-10-09 12:00:00,993.38,-53.32,51.03,2165-10-04 18:00:00,1009.91,-54.55,24.88,2165-10-04 18:00:00,2165-10-10 00:00:00,993.05,-44.88,57.0
152,TC216605,Yoshi,C,2,2166-10-27 00:00:00,979.31,-31.26,43.13,2166-10-27 00:00:00,979.31,-31.26,43.13,2166-10-28 18:00:00,991.2,-13.85,38.82,2166-10-28 18:00:00,991.2,-13.85,38.82,2166-10-21 18:00:00,1010.19,-47.36,30.39,2166-10-25 00:00:00,2166-10-29 06:00:00,1003.91,-8.0,38.25
153,TC216606,Antoine,C,2,2166-10-29 18:00:00,940.03,-59.35,40.37,2166-10-29 18:00:00,940.03,-59.35,40.37,2166-11-05 12:00:00,997.23,-29.08,40.34,2166-11-06 06:00:00,1007.39,-22.5,41.75,2166-10-26 12:00:00,992.2,-63.59,34.86,2166-10-26 18:00:00,2166-11-06 18:00:00,1011.28,-18.75,42.5
154,TC216607,Brenda,C,2,2166-11-25 06:00:00,964.9,-64.82,30.64,2166-11-25 06:00:00,964.9,-64.82,30.64,2166-11-27 12:00:00,998.32,-56.24,37.67,2166-11-27 18:00:00,1000.25,-53.75,38.75,2166-11-19 00:00:00,1008.55,-77.39,29.68,2166-11-21 18:00:00,2166-11-28 18:00:00,1004.05,-42.75,42.0
155,TC216701,Daisy,C,2,2167-03-14 00:00:00,967.56,-15.25,51.0,2167-03-10 06:00:00,967.64,-47.62,38.44,2167-03-12 12:00:00,974.27,-37.41,44.17,2167-03-12 18:00:00,972.5,-33.84,44.1,2167-03-03 12:00:00,1004.55,-91.79,29.26,2167-03-10 00:00:00,2167-03-14 00:00:00,967.56,-15.25,51.0
156,TC216703,Ederson,C,2,2167-06-09 18:00:00,992.3,-65.18,38.75,2167-06-09 18:00:00,992.3,-65.18,38.75,2167-06-10 00:00:00,996.19,-61.55,40.01,2167-06-10 06:00:00,997.93,-58.67,41.51,2167-06-06 18:00:00,1011.56,-84.09,31.04,2167-06-08 00:00:00,2167-06-11 06:00:00,1012.97,-48.75,47.0
157,TC216706,Isaac,C,2,2167-11-01 00:00:00,915.69,-49.62,41.55,2167-10-31 18:00:00,916.91,-51.52,38.47,2167-11-01 00:00:00,915.69,-49.62,41.55,2167-11-01 18:00:00,945.33,-55.81,50.29,2167-10-26 06:00:00,1010.58,-63.33,23.29,2167-10-26 12:00:00,2167-11-03 06:00:00,990.23,-62.0,46.0
158,TC216803,Laurel,C,2,2168-04-26 06:00:00,983.3,-49.95,42.02,2168-04-25 18:00:00,988.78,-55.43,36.09,2168-04-26 00:00:00,987.07,-52.92,38.54,2168-04-26 06:00:00,983.3,-49.95,42.02,2168-04-22 06:00:00,1008.73,-72.6,24.07,2168-04-22 06:00:00,2168-04-27 00:00:00,992.81,-38.25,54.0
159,TC216805,Micah,C,2,2168-09-11 06:00:00,930.44,-55.23,26.02,2168-09-11 06:00:00,930.44,-55.23,26.02,2168-09-14 06:00:00,955.49,-54.33,40.94,2168-09-15 12:00:00,994.97,-39.69,49.13,2168-09-03 12:00:00,1008.61,-32.3,13.71,2168-09-04 12:00:00,2168-09-16 18:00:00,1009.73,-14.25,50.25
160,TC216806,Peach,C,2,2168-09-26 12:00:00,995.9,-80.21,31.08,2168-09-26 12:00:00,995.9,-80.21,31.08,2168-09-27 06:00:00,1008.23,-79.32,34.71,2168-09-27 12:00:00,1012.58,-79.43,35.35,2168-09-14 18:00:00,1008.97,-17.03,10.65,2168-09-15 18:00:00,2168-09-27 12:00:00,1012.58,-79.43,35.35
161,TC216807,Ruben,C,2,2168-10-04 12:00:00,941.3,-49.74,39.68,2168-10-01 12:00:00,953.43,-59.68,26.37,2168-10-03 00:00:00,960.54,-58.57,33.21,2168-10-08 12:00:00,980.42,-9.79,53.18,2168-09-23 06:00:00,997.26,-30.09,7.77,2168-09-23 06:00:00,2168-10-08 18:00:00,978.64,-10.56,54.96
162,TC216902,Vincent,C,2,2169-09-24 18:00:00,931.98,-58.48,35.6,2169-09-24 06:00:00,936.58,-58.45,31.55,2169-09-24 18:00:00,931.98,-58.48,35.6,2169-09-26 06:00:00,978.28,-43.77,54.25,2169-09-15 06:00:00,1007.25,-17.15,16.0,2169-09-17 12:00:00,2169-09-28 12:00:00,992.8,-2.75,51.75
163,TC217002,Bruce,C,2,2170-01-26 06:00:00,981.99,-32.44,38.0,2170-01-26 06:00:00,981.99,-32.44,38.0,2170-01-28 12:00:00,999.42,-28.16,45.2,2170-01-28 18:00:00,1000.85,-26.84,47.33,2170-01-25 12:00:00,984.98,-31.96,35.06,2170-01-25 12:00:00,2170-01-29 12:00:00,999.58,-19.25,56.25
164,TC217004,Candy,C,2,2170-05-31 06:00:00,999.21,-77.02,35.38,2170-05-31 06:00:00,999.21,-77.02,35.38,2170-06-01 00:00:00,1001.66,-74.31,38.59,2170-06-02 00:00:00,1005.39,-72.0,42.0,2170-05-29 00:00:00,1007.86,-80.31,28.88,2170-05-29 00:00:00,2170-06-03 12:00:00,1012.83,-63.5,42.75
165,TC217005,Dylan,C,2,2170-10-24 06:00:00,959.67,-59.3,46.6,2170-10-23 06:00:00,988.24,-61.33,36.62,2170-10-23 12:00:00,982.38,-61.1,38.09,2170-10-24 18:00:00,978.31,-56.34,51.54,2170-10-19 12:00:00,1002.21,-52.04,27.49,2170-10-19 12:00:00,2170-10-25 06:00:00,981.92,-54.22,54.1
166,TC217102,Gianluigi,C,2,2171-02-05 06:00:00,944.61,-40.91,42.67,2171-02-05 06:00:00,944.61,-40.91,42.67,2171-02-06 12:00:00,952.95,-24.46,48.5,2171-02-07 06:00:00,957.18,-23.65,55.21,2171-02-03 18:00:00,968.09,-61.18,39.55,2171-02-04 12:00:00,2171-02-07 12:00:00,962.87,-25.34,57.96
167,TC217106,Jeremy,C,2,2171-10-03 18:00:00,940.03,-77.4,31.94,2171-10-03 18:00:00,940.03,-77.4,31.94,2171-10-04 18:00:00,954.84,-72.83,37.87,2171-10-05 12:00:00,972.71,-64.21,44.31,2171-09-20 06:00:00,1008.88,-30.16,10.9,2171-09-20 18:00:00,2171-10-06 00:00:00,987.06,-56.0,52.25
168,TC217202,Katie,C,2,2172-08-26 06:00:00,901.66,-82.04,24.53,2172-08-26 06:00:00,901.66,-82.04,24.53,2172-08-29 18:00:00,990.55,-81.67,34.65,2172-08-29 18:00:00,990.55,-81.67,34.65,2172-08-18 12:00:00,1008.65,-40.4,15.06,2172-08-18 12:00:00,2172-09-02 06:00:00,997.61,-60.25,52.5
169,TC217203,Luigi,C,2,2172-09-04 12:00:00,901.92,-88.97,28.01,2172-09-04 12:00:00,901.92,-88.97,28.01,2172-09-06 18:00:00,996.73,-91.41,34.53,2172-09-10 00:00:00,985.29,-74.75,45.0,2172-08-25 18:00:00,1008.1,-30.75,16.11,2172-08-26 12:00:00,2172-09-12 00:00:00,1000.02,-60.75,53.5
170,TC217204,Michelle,C,2,2172-09-11 00:00:00,959.77,-68.56,27.56,2172-09-11 00:00:00,959.77,-68.56,27.56,2172-09-13 12:00:00,970.16,-61.12,40.45,2172-09-14 18:00:00,994.62,-40.63,46.44,2172-09-02 12:00:00,1008.82,-25.89,10.42,2172-09-04 00:00:00,2172-09-16 18:00:00,990.23,-1.5,55.0
171,TC217206,Risa,C,2,2172-10-27 12:00:00,924.53,-51.87,38.11,2172-10-27 12:00:00,924.53,-51.87,38.11,2172-10-29 06:00:00,971.0,-55.94,47.8,2172-10-29 06:00:00,971.0,-55.94,47.8,2172-10-22 12:00:00,1011.05,-58.7,35.26,2172-10-22 12:00:00,2172-10-31 00:00:00,982.2,-46.88,53.34
172,TC217402,Sergio,C,2,2174-10-11 00:00:00,937.26,-48.06,30.59,2174-10-11 00:00:00,937.26,-48.06,30.59,2174-10-21 06:00:00,985.13,-39.2,44.53,2174-10-21 12:00:00,987.98,-39.96,45.84,2174-10-01 12:00:00,1009.39,-55.81,18.39,2174-10-01 12:00:00,2174-10-22 00:00:00,992.15,-44.25,51.25
173,TC217403,Vivianne,C,2,2174-10-22 12:00:00,993.26,-79.79,26.31,2174-10-17 18:00:00,998.43,-87.29,22.88,2174-10-22 00:00:00,994.4,-82.33,24.55,2174-10-24 00:00:00,1002.14,-74.75,27.75,2174-10-16 12:00:00,1004.6,-89.9,21.6,2174-10-16 12:00:00,2174-10-24 12:00:00,1004.06,-73.0,29.5
174,TC217505,Zack,C,2,2175-08-30 00:00:00,927.66,-52.01,22.47,2175-08-30 00:00:00,927.66,-52.01,22.47,2175-09-03 18:00:00,936.84,-51.43,39.9,2175-09-05 12:00:00,952.9,-36.31,54.55,2175-08-25 00:00:00,1007.94,-17.94,11.02,2175-08-26 06:00:00,2175-09-05 18:00:00,956.12,-35.91,56.36
175,TC217506,Alex,C,2,2175-09-12 18:00:00,953.56,-44.4,38.25,2175-09-12 18:00:00,953.56,-44.4,38.25,2175-09-15 06:00:00,994.72,-30.97,49.62,2175-09-15 12:00:00,998.93,-27.17,50.76,2175-08-28 12:00:00,1004.95,-14.78,15.39,2175-08-29 12:00:00,2175-09-15 12:00:00,998.93,-27.17,50.76
176,TC217509,Beatrice,C,2,2175-10-19 00:00:00,947.4,-30.36,53.03,2175-10-14 06:00:00,982.44,-76.02,31.0,2175-10-14 12:00:00,986.86,-75.74,31.88,2175-10-17 18:00:00,978.28,-48.45,39.32,2175-10-09 00:00:00,1008.19,-80.26,12.38,2175-10-09 00:00:00,2175-10-21 06:00:00,963.62,-11.52,57.11
177,TC217602,Dawn,C,2,2176-10-09 18:00:00,936.45,-57.72,36.8,2176-10-09 18:00:00,936.45,-57.72,36.8,2176-10-10 12:00:00,952.95,-55.56,44.62,2176-10-11 00:00:00,989.84,-56.08,51.84,2176-10-05 18:00:00,1012.65,-57.05,31.36,2176-10-05 18:00:00,2176-10-11 06:00:00,998.48,-56.25,54.81
178,TC217803,Ernest,C,2,2178-07-06 12:00:00,957.08,-84.66,29.16,2178-07-06 12:00:00,957.08,-84.66,29.16,2178-07-08 12:00:00,1006.99,-85.45,37.04,2178-07-08 18:00:00,1008.85,-84.98,37.91,2178-07-02 06:00:00,1011.96,-66.31,21.16,2178-07-02 06:00:00,2178-07-13 00:00:00,1003.36,-61.0,53.25
179,TC217805,Flavia,C,2,2178-10-30 18:00:00,996.96,-58.67,34.42,2178-10-30 18:00:00,996.96,-58.67,34.42,2178-11-02 06:00:00,1008.74,-57.75,36.75,2178-11-02 06:00:00,1008.74,-57.75,36.75,2178-10-27 12:00:00,1006.09,-65.42,36.46,2178-10-28 06:00:00,2178-11-03 00:00:00,1008.84,-55.0,35.5
180,TC217807,Harrison,C,2,2178-12-15 06:00:00,989.06,-40.2,50.69,2178-12-14 12:00:00,990.96,-50.03,44.83,2178-12-14 18:00:00,989.25,-47.05,47.01,2178-12-15 06:00:00,989.06,-40.2,50.69,2178-12-12 06:00:00,996.89,-60.26,33.02,2178-12-12 06:00:00,2178-12-16 06:00:00,998.36,-27.5,54.0
181,TC217901,Janet,C,2,2179-01-17 18:00:00,944.26,-20.43,48.03,2179-01-10 18:00:00,989.18,-44.75,38.36,2179-01-13 12:00:00,994.08,-42.17,32.16,2179-01-14 00:00:00,994.62,-38.61,31.2,2179-01-09 06:00:00,989.76,-49.98,40.05,2179-01-10 06:00:00,2179-01-19 06:00:00,960.79,-5.25,52.5
182,TC217904,Kinen,C,2,2179-07-03 12:00:00,965.55,-68.83,38.61,2179-07-03 12:00:00,965.55,-68.83,38.61,2179-07-05 06:00:00,981.05,-54.52,43.71,2179-07-05 18:00:00,981.04,-46.58,46.36,2179-06-27 00:00:00,1009.79,-80.15,29.17,2179-06-27 00:00:00,2179-07-07 06:00:00,988.04,-22.0,53.0
183,TC218001,Mario,C,2,2180-08-27 18:00:00,941.46,-54.18,35.78,2180-08-27 12:00:00,962.81,-55.24,34.72,2180-08-27 18:00:00,941.46,-54.18,35.78,2180-09-01 18:00:00,978.76,-17.96,44.38,2180-08-21 12:00:00,1007.0,-34.42,15.2,2180-08-22 18:00:00,2180-09-03 06:00:00,993.89,-7.0,53.0
184,TC218103,Quinn,C,2,2181-05-16 06:00:00,955.89,-88.0,29.5,2181-05-16 06:00:00,955.89,-88.0,29.5,2181-05-22 06:00:00,1002.55,-63.87,39.79,2181-05-22 12:00:00,1003.53,-62.75,41.5,2181-05-12 18:00:00,1004.91,-98.22,25.9,2181-05-14 06:00:00,2181-05-23 00:00:00,1006.16,-61.5,45.25
185,TC218104,Stephanie,C,2,2181-06-12 00:00:00,985.13,-69.63,38.83,2181-06-11 12:00:00,988.12,-69.45,36.16,2181-06-11 18:00:00,986.75,-69.41,37.36,2181-06-13 00:00:00,1007.8,-73.04,43.47,2181-06-08 06:00:00,1008.51,-77.04,32.19,2181-06-09 00:00:00,2181-06-13 18:00:00,1012.49,-69.6,44.67
186,TC218108,Tony,C,2,2181-10-24 12:00:00,914.41,-54.62,36.43,2181-10-24 12:00:00,914.41,-54.62,36.43,2181-10-29 12:00:00,969.66,-34.69,54.03,2181-10-29 18:00:00,969.7,-31.0,57.85,2181-10-20 18:00:00,998.28,-55.29,30.85,2181-10-20 18:00:00,2181-10-29 18:00:00,969.7,-31.0,57.85
187,TC218204,Brandon,C,2,2182-08-28 12:00:00,987.68,-80.48,29.89,2182-08-28 12:00:00,987.68,-80.48,29.89,2182-08-31 06:00:00,997.29,-70.61,44.82,2182-08-31 12:00:00,1000.38,-67.26,46.49,2182-08-21 18:00:00,1010.39,-43.64,14.9,2182-08-23 00:00:00,2182-09-01 00:00:00,1003.53,-59.5,47.75
188,TC218205,Christine,C,2,2182-09-10 18:00:00,941.75,-79.85,29.14,2182-09-10 18:00:00,941.75,-79.85,29.14,2182-09-12 06:00:00,1000.61,-84.12,35.75,2182-09-12 18:00:00,1004.03,-81.36,38.68,2182-09-01 06:00:00,1011.73,-29.6,11.9,2182-09-03 12:00:00,2182-09-14 06:00:00,1006.51,-68.75,45.5
189,TC218206,David,C,2,2182-09-18 12:00:00,955.79,-66.37,32.71,2182-09-18 12:00:00,955.79,-66.37,32.71,2182-09-19 06:00:00,979.64,-66.49,37.16,2182-09-20 18:00:00,996.94,-53.5,45.7,2182-09-10 00:00:00,1008.69,-34.21,10.95,2182-09-10 00:00:00,2182-09-21 18:00:00,969.34,-31.0,54.25
190,TC218304,Elyse,C,2,2183-09-02 00:00:00,991.09,-87.82,30.41,2183-09-02 00:00:00,991.09,-87.82,30.41,2183-09-04 18:00:00,1007.65,-94.76,42.3,2183-09-05 12:00:00,1002.63,-86.56,47.49,2183-08-28 18:00:00,1002.12,-72.46,23.51,2183-08-28 18:00:00,2183-09-06 06:00:00,995.95,-68.75,51.5
191,TC218306,Frederick,C,2,2183-09-26 12:00:00,944.56,-57.61,37.7,2183-09-24 18:00:00,991.69,-65.9,34.77,2183-09-25 00:00:00,982.1,-65.53,35.62,2183-09-29 00:00:00,970.35,-20.5,52.25,2183-09-22 00:00:00,1010.03,-68.23,30.28,2183-09-22 12:00:00,2183-09-29 06:00:00,967.93,-16.25,54.5
192,TC218307,Hope,C,2,2183-11-01 12:00:00,956.58,-65.06,37.66,2183-11-01 12:00:00,956.58,-65.06,37.66,2183-11-08 00:00:00,1002.8,-34.02,45.09,2183-11-08 06:00:00,1000.15,-33.37,47.6,2183-10-28 00:00:00,1003.89,-70.35,28.26,2183-10-28 00:00:00,2183-11-08 18:00:00,991.39,-33.25,53.18
193,TC218403,Jacob,C,2,2184-10-02 06:00:00,927.62,-51.23,39.16,2184-09-29 18:00:00,972.27,-62.67,29.4,2184-09-30 00:00:00,974.86,-60.12,29.62,2184-10-03 06:00:00,960.01,-43.25,50.34,2184-09-22 12:00:00,1004.23,-18.41,12.78,2184-09-23 06:00:00,2184-10-03 18:00:00,978.49,-38.0,56.85
194,TC218405,Katrina,C,2,2184-11-15 00:00:00,940.58,-32.29,41.37,2184-11-15 00:00:00,940.58,-32.29,41.37,2184-11-20 18:00:00,1005.85,-8.5,37.75,2184-11-21 06:00:00,1012.11,-9.25,36.75,2184-11-13 00:00:00,977.67,-48.01,30.02,2184-11-14 18:00:00,2184-11-21 06:00:00,1012.11,-9.25,36.75
195,TC218506,Queenie,C,2,2185-10-29 06:00:00,959.89,-85.37,28.82,2185-10-29 06:00:00,959.89,-85.37,28.82,2185-10-30 06:00:00,1005.31,-85.33,32.94,2185-10-30 18:00:00,1006.01,-82.79,36.09,2185-10-25 12:00:00,1007.3,-89.14,22.12,2185-10-25 12:00:00,2185-11-02 06:00:00,1000.41,-71.5,51.0
196,TC218602,Samson,C,2,2186-08-15 06:00:00,911.61,-87.08,27.0,2186-08-15 06:00:00,911.61,-87.08,27.0,2186-08-17 12:00:00,998.55,-90.24,35.99,2186-08-18 00:00:00,1000.29,-87.91,37.85,2186-08-06 12:00:00,1007.4,-34.54,15.31,2186-08-08 00:00:00,2186-08-21 12:00:00,993.55,-56.9,51.2
197,TC218604,Tiffany,C,2,2186-09-12 06:00:00,940.7,-58.64,30.36,2186-09-12 06:00:00,940.7,-58.64,30.36,2186-09-18 12:00:00,955.05,-50.39,41.52,2186-09-20 00:00:00,968.46,-30.89,57.67,2186-09-05 12:00:00,1010.22,-35.16,14.09,2186-09-05 12:00:00,2186-09-20 06:00:00,969.3,-24.67,60.06
198,TC218606,Andy,C,2,2186-12-31 06:00:00,995.48,-47.47,34.27,2186-12-31 06:00:00,995.48,-47.47,34.27,2187-01-02 18:00:00,1000.74,-46.03,32.17,2187-01-03 00:00:00,1001.63,-45.19,31.49,2186-12-31 00:00:00,995.78,-47.91,33.31,2186-12-31 00:00:00,2187-01-08 06:00:00,1009.67,-38.5,35.75
199,TC218704,Demi,C,2,2187-10-09 00:00:00,967.92,-44.18,43.7,2187-10-09 00:00:00,967.92,-44.18,43.7,2187-10-09 18:00:00,972.98,-34.76,49.56,2187-10-10 06:00:00,984.81,-26.7,55.53,2187-10-03 18:00:00,1012.72,-58.0,27.85,2187-10-03 18:00:00,2187-10-10 06:00:00,984.81,-26.7,55.53
200,TC218705,Erik,C,2,2187-11-11 00:00:00,945.32,-61.25,36.9,2187-11-11 00:00:00,945.32,-61.25,36.9,2187-11-11 12:00:00,954.19,-56.49,41.55,2187-11-12 06:00:00,982.83,-42.47,47.53,2187-11-06 06:00:00,1009.21,-63.84,26.1,2187-11-06 18:00:00,2187-11-13 06:00:00,998.6,-22.5,44.75
201,TC218804,Hubert,C,2,2188-10-17 18:00:00,972.27,-29.31,59.4,2188-10-11 12:00:00,995.51,-66.34,36.98,2188-10-15 00:00:00,1001.19,-65.9,39.02,2188-10-16 00:00:00,1001.66,-59.1,44.13,2188-10-08 06:00:00,1011.65,-69.64,36.72,2188-10-08 06:00:00,2188-10-17 18:00:00,972.27,-29.31,59.4
202,TC218805,Julie,C,2,2188-11-15 18:00:00,956.72,-30.1,40.36,2188-11-07 06:00:00,999.92,-68.43,34.0,2188-11-08 12:00:00,1002.16,-67.33,31.66,2188-11-08 12:00:00,1002.16,-67.33,31.66,2188-11-05 18:00:00,1007.63,-68.55,31.19,2188-11-05 18:00:00,2188-11-17 18:00:00,1007.48,-1.5,47.75
203,TC218908,Noelle,C,2,2189-11-09 18:00:00,949.31,-45.24,39.2,2189-11-09 18:00:00,949.31,-45.24,39.2,2189-11-14 18:00:00,975.29,-22.25,53.5,2189-11-15 00:00:00,975.02,-25.25,56.0,2189-11-05 00:00:00,1007.98,-74.11,28.08,2189-11-09 18:00:00,2189-11-15 00:00:00,975.02,-25.25,56.0
204,TC218909,Rocco,C,2,2189-12-02 06:00:00,928.07,-38.32,32.06,2189-12-02 06:00:00,928.07,-38.32,32.06,2189-12-12 12:00:00,934.78,-36.41,29.19,2189-12-15 12:00:00,991.9,6.27,50.15,2189-11-28 00:00:00,1011.12,-38.51,25.61,2189-11-28 00:00:00,2189-12-16 00:00:00,1001.37,14.93,48.76
205,TC219001,Shannon,C,2,2190-02-13 06:00:00,979.77,-32.91,35.03,2190-02-13 06:00:00,979.77,-32.91,35.03,2190-02-14 06:00:00,986.02,-31.87,31.67,2190-02-14 18:00:00,990.2,-26.99,30.76,2190-02-11 12:00:00,987.29,-37.82,35.77,2190-02-11 12:00:00,2190-02-16 00:00:00,995.52,-12.06,34.4
206,TC219002,Thomas,C,2,2190-09-04 18:00:00,935.09,-60.45,39.01,2190-09-01 18:00:00,943.75,-68.79,26.52,2190-09-03 12:00:00,942.4,-70.89,33.19,2190-09-06 00:00:00,939.94,-42.18,50.54,2190-08-25 12:00:00,1011.57,-29.72,16.73,2190-08-26 12:00:00,2190-09-08 06:00:00,957.06,-10.88,59.54
207,TC219005,Bryan,C,2,2190-09-19 06:00:00,923.97,-52.9,27.34,2190-09-19 06:00:00,923.97,-52.9,27.34,2190-09-30 06:00:00,1003.13,-29.92,43.14,2190-10-01 00:00:00,1004.07,-26.48,41.59,2190-09-10 06:00:00,1003.95,-12.82,9.46,2190-09-10 06:00:00,2190-10-03 06:00:00,1010.83,-17.25,37.5
208,TC219007,Dominic,C,2,2190-11-13 12:00:00,900.04,-85.66,19.61,2190-11-13 12:00:00,900.04,-85.66,19.61,2190-11-17 12:00:00,920.27,-80.08,21.68,2190-11-20 12:00:00,981.25,-49.3,41.08,2190-11-04 00:00:00,1008.27,-78.43,15.54,2190-11-04 00:00:00,2190-11-21 18:00:00,981.68,-25.5,44.75
209,TC219008,Esther,C,2,2190-11-13 06:00:00,945.86,-57.77,33.12,2190-11-13 06:00:00,945.86,-57.77,33.12,2190-11-17 06:00:00,978.43,-56.9,37.77,2190-11-18 12:00:00,967.2,-29.04,51.12,2190-11-06 18:00:00,1005.86,-65.42,19.69,2190-11-09 18:00:00,2190-11-19 06:00:00,969.74,-9.0,52.25
210,TC219102,Frank,C,2,2191-09-09 18:00:00,920.35,-56.99,42.19,2191-09-09 06:00:00,928.44,-61.1,38.09,2191-09-09 12:00:00,926.25,-59.21,40.19,2191-09-11 00:00:00,984.72,-40.68,50.61,2191-08-28 12:00:00,1006.19,-26.35,13.81,2191-08-29 12:00:00,2191-09-12 12:00:00,968.01,-9.5,52.75
211,TC219103,Helena,C,2,2191-09-14 06:00:00,953.21,-58.58,34.69,2191-09-13 18:00:00,962.29,-60.39,31.46,2191-09-14 00:00:00,964.1,-59.53,33.14,2191-09-16 12:00:00,1000.29,-35.5,44.25,2191-09-08 12:00:00,1011.01,-40.97,13.41,2191-09-08 18:00:00,2191-09-17 12:00:00,1008.16,-20.75,45.5
