,Code,Name,Orig Code,Ensemble,Trans Type,Peak Time,Peak SLP,Peak Lon,Peak Lat,Trop Peak Time,Trop Begin Time,Trop Peak SLP,Trop Peak Lon,Trop Peak Lat,Genesis Time,Genesis SLP,Genesis Lon,Genesis Lat,Final Time,Final SLP,Final Lon,Final Lat,Trop Begin SLP,Trop Begin Lon,Trop Begin Lat,ET Begin Time,ET Begin SLP,ET Begin Lon,ET Begin Lat,ET Complete Time,ET Complete SLP,ET Complete Lon,ET Complete Lat
0,TC210203,Beatrice,0067,1,2,2102-03-01 12:00:00,943.01,-45.04,45.78,2102-03-01 12:00:00,2102-03-01 12:00:00,943.01,-45.04,45.78,2102-03-01 00:00:00,953.85,-47.15,41.53,2102-03-08 06:00:00,1000.96,-13.5,54.0,943.01,-45.04,45.78,2102-03-04 06:00:00,968.64,-27.09,43.99,2102-03-07 18:00:00,991.45,-17.0,51.75
1,TC210205,Dawn,0080,1,2,2102-08-28 12:00:00,968.16,-79.09,29.45,2102-08-28 12:00:00,2102-08-23 18:00:00,968.16,-79.09,29.45,2102-08-21 06:00:00,1009.56,-29.92,13.56,2102-09-02 18:00:00,995.53,-61.0,55.0,1009.09,-48.77,17.53,2102-09-01 06:00:00,1003.3,-76.85,39.42,2102-09-01 12:00:00,1001.84,-74.73,41.55
2,TC210303,Harrison,0124,1,2,2103-07-26 18:00:00,971.18,-50.38,41.08,2103-07-26 06:00:00,2103-07-21 00:00:00,972.98,-56.11,37.49,2103-07-21 00:00:00,1006.8,-78.09,26.66,2103-07-29 06:00:00,1006.24,-19.5,54.0,1006.8,-78.09,26.66,2103-07-26 12:00:00,971.89,-53.14,39.28,2103-07-28 00:00:00,992.45,-37.66,46.61
3,TC210305,Janet,0130,1,2,2103-09-08 18:00:00,895.97,-57.85,23.01,2103-09-08 18:00:00,2103-09-01 06:00:00,895.97,-57.85,23.01,2103-08-31 18:00:00,1007.41,-16.98,11.22,2103-09-17 00:00:00,959.44,-33.32,59.75,1004.44,-18.48,11.51,2103-09-12 18:00:00,934.13,-60.07,35.72,2103-09-14 18:00:00,962.56,-47.38,49.02
4,TC210306,Kinen,0131,1,2,2103-09-21 00:00:00,987.95,-57.9,27.28,2103-09-21 00:00:00,2103-09-14 18:00:00,987.95,-57.9,27.28,2103-09-14 18:00:00,1008.55,-33.91,12.24,2103-09-24 06:00:00,1007.81,-34.25,47.25,1008.55,-33.91,12.24,2103-09-22 18:00:00,997.21,-55.88,36.75,2103-09-23 18:00:00,1001.49,-44.6,45.12
5,TC210308,Mario,0145,1,2,2103-11-03 06:00:00,958.33,-57.25,45.25,2103-10-31 12:00:00,2103-10-29 12:00:00,991.45,-82.16,20.04,2103-10-29 12:00:00,1004.12,-80.42,12.14,2103-11-04 00:00:00,961.7,-44.5,53.5,1004.12,-80.42,12.14,2103-10-31 18:00:00,983.66,-81.44,21.28,2103-11-03 00:00:00,966.28,-60.25,42.5
6,TC210503,Tony,0225,1,2,2105-09-30 06:00:00,973.1,-65.86,41.49,2105-09-23 18:00:00,2105-09-15 06:00:00,986.2,-65.04,24.31,2105-09-13 18:00:00,1007.88,-30.37,10.25,2105-10-04 06:00:00,1005.28,-6.5,43.5,1005.92,-35.61,14.12,2105-09-28 12:00:00,996.27,-72.1,34.29,2105-10-01 12:00:00,990.47,-48.82,48.66
7,TC210606,Audrey,0292,1,2,2106-11-03 00:00:00,983.4,-80.23,30.79,2106-11-03 00:00:00,2106-11-01 00:00:00,983.4,-80.23,30.79,2106-11-01 00:00:00,1001.5,-64.44,31.49,2106-11-06 18:00:00,995.77,-50.5,56.75,1001.5,-64.44,31.49,2106-11-04 06:00:00,1002.87,-78.57,33.49,2106-11-04 12:00:00,1003.32,-77.3,34.64
8,TC210702,Christine,0311,1,2,2107-02-19 06:00:00,963.17,-42.91,37.92,2107-02-20 06:00:00,2107-02-20 06:00:00,969.12,-32.06,39.5,2107-02-18 00:00:00,987.9,-58.64,36.62,2107-02-23 06:00:00,1011.07,-11.0,40.0,969.12,-32.06,39.5,2107-02-22 12:00:00,1005.2,-15.75,37.5,2107-02-22 12:00:00,1005.2,-15.75,37.5
9,TC210703,David,0312,1,2,2107-02-27 00:00:00,956.81,-35.38,35.67,2107-02-27 00:00:00,2107-02-25 06:00:00,956.81,-35.38,35.67,2107-02-24 06:00:00,991.73,-54.62,28.62,2107-02-28 12:00:00,972.7,-27.47,51.4,962.35,-45.78,33.5,2107-02-27 18:00:00,961.68,-29.59,39.76,2107-02-28 12:00:00,972.7,-27.47,51.4
10,TC210707,Frederick,0328,1,2,2107-09-27 18:00:00,925.26,-48.56,34.91,2107-09-27 18:00:00,2107-09-19 12:00:00,925.26,-48.56,34.91,2107-09-19 12:00:00,1008.38,-32.11,13.79,2107-10-05 12:00:00,983.83,-25.92,51.3,1008.38,-32.11,13.79,2107-10-04 18:00:00,977.52,-38.56,44.26,2107-10-05 06:00:00,980.7,-30.64,48.3
11,TC211002,Luke,0459,1,2,2110-04-14 06:00:00,976.7,-52.92,38.54,2110-04-11 00:00:00,2110-04-10 00:00:00,990.66,-68.83,28.3,2110-04-09 12:00:00,993.48,-72.7,25.16,2110-04-16 18:00:00,992.86,-10.91,60.43,990.8,-70.04,28.21,2110-04-12 00:00:00,994.09,-65.33,26.15,2110-04-15 06:00:00,985.21,-40.02,47.29
12,TC211003,Maho,0487,1,2,2110-10-05 18:00:00,946.47,-31.96,35.06,2110-10-05 18:00:00,2110-09-30 12:00:00,946.47,-31.96,35.06,2110-09-30 12:00:00,1009.31,-54.49,27.62,2110-10-12 06:00:00,987.11,-14.75,53.5,1009.31,-54.49,27.62,2110-10-11 06:00:00,1000.82,-36.27,46.14,2110-10-11 06:00:00,1000.82,-36.27,46.14
13,TC211005,Nicholas,0492,1,2,2110-10-23 00:00:00,977.04,-29.75,56.0,2110-10-20 06:00:00,2110-10-16 12:00:00,996.03,-37.01,37.68,2110-10-15 18:00:00,997.71,-48.08,37.89,2110-10-23 00:00:00,977.04,-29.75,56.0,1006.5,-45.41,30.77,2110-10-21 12:00:00,995.99,-31.45,42.91,2110-10-23 00:00:00,977.04,-29.75,56.0
14,TC211006,Queenie,0495,1,2,2110-11-10 18:00:00,957.55,-34.21,38.14,2110-11-10 18:00:00,2110-11-05 00:00:00,957.55,-34.21,38.14,2110-11-02 18:00:00,1007.77,-49.67,30.88,2110-11-13 00:00:00,998.03,1.75,47.25,1001.41,-38.37,26.44,2110-11-11 06:00:00,966.57,-31.84,44.42,2110-11-12 00:00:00,978.85,-22.88,49.5
15,TC211105,William,0535,1,2,2111-10-02 12:00:00,913.84,-65.84,28.28,2111-10-02 12:00:00,2111-09-25 06:00:00,913.84,-65.84,28.28,2111-09-25 06:00:00,1007.13,-29.45,12.77,2111-10-06 18:00:00,981.92,-44.07,54.6,1007.13,-29.45,12.77,2111-10-03 12:00:00,925.56,-61.0,34.16,2111-10-06 06:00:00,966.15,-46.58,50.39
16,TC211108,Andy,0541,1,2,2111-11-13 12:00:00,983.91,-15.5,41.75,2111-11-08 06:00:00,2111-11-08 00:00:00,990.32,-26.46,40.73,2111-11-06 12:00:00,1004.59,-22.32,39.52,2111-11-13 12:00:00,983.91,-15.5,41.75,990.84,-26.96,40.85,2111-11-11 12:00:00,991.73,-33.07,37.15,2111-11-13 00:00:00,987.3,-21.71,40.19
17,TC211201,Bonnie,0573,1,2,2112-08-27 00:00:00,920.65,-67.41,30.05,2112-08-27 00:00:00,2112-08-18 06:00:00,920.65,-67.41,30.05,2112-08-18 06:00:00,1007.4,-31.22,15.15,2112-09-02 00:00:00,995.8,-7.25,54.0,1007.4,-31.22,15.15,2112-08-30 12:00:00,938.26,-56.41,43.25,2112-08-31 12:00:00,977.4,-38.13,47.96
18,TC211204,Demi,0587,1,2,2112-11-10 00:00:00,988.23,-75.13,33.26,2112-11-10 00:00:00,2112-11-07 18:00:00,988.23,-75.13,33.26,2112-11-07 18:00:00,1005.34,-78.07,29.78,2112-11-14 12:00:00,1011.48,-55.5,33.75,1005.34,-78.07,29.78,2112-11-13 18:00:00,1008.17,-59.5,35.0,2112-11-14 12:00:00,1011.48,-55.5,33.75
19,TC211405,Hubert,0682,1,2,2114-09-05 00:00:00,916.5,-61.04,32.4,2114-09-05 00:00:00,2114-08-29 18:00:00,916.5,-61.04,32.4,2114-08-28 18:00:00,1009.5,-28.42,13.97,2114-09-10 06:00:00,962.18,-27.72,59.71,1007.31,-34.17,14.51,2114-09-06 00:00:00,942.37,-56.1,36.65,2114-09-09 12:00:00,943.61,-33.98,56.32
20,TC211407,Keith,0693,1,2,2114-11-03 18:00:00,947.91,-38.89,41.46,2114-11-03 18:00:00,2114-10-30 12:00:00,947.91,-38.89,41.46,2114-10-30 12:00:00,1008.96,-48.58,30.53,2114-11-09 00:00:00,1012.65,-27.0,38.25,1008.96,-48.58,30.53,2114-11-06 12:00:00,987.15,-24.87,48.77,2114-11-06 12:00:00,987.15,-24.87,48.77
21,TC211408,Lily,0695,1,2,2114-11-07 00:00:00,953.16,-58.56,43.49,2114-11-06 00:00:00,2114-11-01 06:00:00,964.92,-66.11,38.91,2114-11-01 06:00:00,1010.88,-78.24,27.63,2114-11-07 18:00:00,968.78,-63.71,47.43,1010.88,-78.24,27.63,2114-11-06 06:00:00,961.12,-64.05,39.06,2114-11-07 12:00:00,962.48,-61.3,46.97
22,TC211501,Marc,0705,1,2,2115-01-14 12:00:00,937.29,-42.81,41.44,2115-01-14 12:00:00,2115-01-12 00:00:00,937.29,-42.81,41.44,2115-01-11 00:00:00,972.04,-73.38,34.0,2115-01-18 06:00:00,951.17,-31.72,60.0,958.92,-64.65,38.12,2115-01-15 06:00:00,940.9,-36.61,39.57,2115-01-18 00:00:00,951.48,-32.18,57.61
23,TC211505,Noelle,0727,1,2,2115-06-18 00:00:00,959.56,-71.9,33.49,2115-06-18 00:00:00,2115-06-10 12:00:00,959.56,-71.9,33.49,2115-06-10 12:00:00,1003.72,-78.75,13.35,2115-06-21 00:00:00,986.28,-39.64,59.98,1003.72,-78.75,13.35,2115-06-19 00:00:00,968.89,-67.21,38.58,2115-06-19 18:00:00,980.91,-60.91,44.87
24,TC211507,Rocco,0735,1,2,2115-09-22 12:00:00,963.15,-92.17,28.24,2115-09-22 12:00:00,2115-09-14 18:00:00,963.15,-92.17,28.24,2115-09-14 18:00:00,1010.62,-92.59,25.7,2115-09-28 18:00:00,1007.54,-53.75,44.0,1010.62,-92.59,25.7,2115-09-24 12:00:00,1002.15,-91.41,34.53,2115-09-24 12:00:00,1002.15,-91.41,34.53
25,TC211508,Shannon,0736,1,2,2115-09-18 00:00:00,911.77,-43.93,21.91,2115-09-18 00:00:00,2115-09-14 00:00:00,911.77,-43.93,21.91,2115-09-14 00:00:00,1004.4,-34.93,14.41,2115-09-26 18:00:00,995.67,-39.25,55.0,1004.4,-34.93,14.41,2115-09-21 00:00:00,956.55,-44.48,31.57,2115-09-25 06:00:00,977.74,-48.83,53.69
26,TC211509,Thomas,0741,1,2,2115-11-10 00:00:00,943.59,-66.64,44.07,2115-11-04 06:00:00,2115-10-31 00:00:00,951.74,-93.41,21.77,2115-10-31 00:00:00,1002.14,-89.7,26.27,2115-11-11 00:00:00,966.07,-71.38,53.74,1002.14,-89.7,26.27,2115-11-07 12:00:00,950.39,-89.47,25.49,2115-11-11 00:00:00,966.07,-71.38,53.74
27,TC211605,Bryan,0771,1,2,2116-08-25 00:00:00,915.17,-63.64,32.17,2116-08-25 00:00:00,2116-08-13 18:00:00,915.17,-63.64,32.17,2116-08-13 12:00:00,1005.95,-20.82,14.53,2116-08-29 18:00:00,988.63,-24.75,54.25,1003.87,-22.26,15.1,2116-08-26 00:00:00,928.16,-60.6,37.45,2116-08-28 00:00:00,973.34,-46.87,49.91
28,TC211607,Dominic,0773,1,2,2116-09-08 00:00:00,906.75,-63.69,23.32,2116-09-08 00:00:00,2116-09-03 00:00:00,906.75,-63.69,23.32,2116-09-02 06:00:00,1006.93,-29.24,9.73,2116-09-11 12:00:00,965.21,-51.97,59.26,1004.48,-36.07,12.32,2116-09-09 18:00:00,956.56,-65.8,33.67,2116-09-11 00:00:00,970.43,-56.68,50.61
29,TC211701,John,0830,1,2,2117-10-25 18:00:00,972.5,-59.47,34.9,2117-10-25 18:00:00,2117-10-24 00:00:00,972.5,-59.47,34.9,2117-10-24 00:00:00,997.17,-61.9,29.32,2117-10-27 12:00:00,990.01,-39.17,50.14,997.17,-61.9,29.32,2117-10-27 00:00:00,988.68,-47.67,43.95,2117-10-27 06:00:00,989.62,-43.51,46.89
30,TC211703,Kannas,0837,1,2,2117-12-08 06:00:00,962.97,-56.8,35.5,2117-12-08 06:00:00,2117-12-03 06:00:00,962.97,-56.8,35.5,2117-12-03 06:00:00,1002.28,-58.25,25.62,2117-12-13 00:00:00,994.57,-29.25,48.0,1002.28,-58.25,25.62,2117-12-12 06:00:00,990.05,-46.73,44.22,2117-12-12 12:00:00,990.27,-41.24,46.11
31,TC211804,Mandy,0887,1,2,2118-11-18 06:00:00,944.85,-33.39,43.79,2118-11-18 06:00:00,2118-11-18 06:00:00,944.85,-33.39,43.79,2118-11-16 18:00:00,976.55,-45.38,38.16,2118-11-22 00:00:00,967.43,-20.25,54.25,944.85,-33.39,43.79,2118-11-22 00:00:00,967.43,-20.25,54.25,2118-11-22 00:00:00,967.43,-20.25,54.25
32,TC211805,Nathan,0888,1,2,2118-11-25 06:00:00,978.89,-59.9,37.53,2118-11-25 06:00:00,2118-11-23 00:00:00,978.89,-59.9,37.53,2118-11-21 18:00:00,992.69,-61.82,38.62,2118-11-29 06:00:00,998.36,-43.71,30.04,993.23,-58.81,38.36,2118-11-27 06:00:00,990.06,-59.01,32.97,2118-11-28 00:00:00,994.9,-53.74,31.62
33,TC211806,Rosalina,0889,1,2,2118-11-30 18:00:00,944.73,-31.01,37.59,2118-11-30 18:00:00,2118-11-25 06:00:00,944.73,-31.01,37.59,2118-11-25 06:00:00,1001.56,-49.43,35.32,2118-12-06 18:00:00,978.24,11.5,53.75,1001.56,-49.43,35.32,2118-12-04 18:00:00,976.27,-20.89,39.81,2118-12-06 00:00:00,977.52,-2.56,46.87
34,TC211906,Tatiana,0908,1,2,2119-02-19 06:00:00,953.71,-39.12,39.92,2119-02-19 06:00:00,2119-02-18 18:00:00,953.71,-39.12,39.92,2119-02-18 12:00:00,960.98,-41.68,37.51,2119-02-25 06:00:00,986.88,11.0,44.0,954.85,-40.25,38.12,2119-02-21 06:00:00,972.15,-39.24,34.62,2119-02-22 12:00:00,990.34,-29.0,32.25
35,TC211907,Wilson,0910,1,2,2119-03-04 06:00:00,967.34,-35.89,36.81,2119-03-02 00:00:00,2119-03-01 18:00:00,971.42,-56.67,35.32,2119-03-01 18:00:00,972.17,-57.38,36.33,2119-03-07 00:00:00,986.26,11.25,53.0,972.17,-57.38,36.33,2119-03-03 18:00:00,974.29,-41.4,33.96,2119-03-05 12:00:00,973.71,-17.37,41.96
36,TC212002,Bella,0959,1,2,2120-05-18 18:00:00,967.3,-69.07,38.89,2120-05-18 00:00:00,2120-05-13 00:00:00,991.42,-80.53,34.25,2120-05-13 00:00:00,1012.86,-89.06,28.39,2120-05-20 00:00:00,980.8,-53.14,56.94,1012.86,-89.06,28.39,2120-05-18 06:00:00,985.92,-77.02,35.38,2120-05-19 06:00:00,978.78,-60.84,46.62
37,TC212004,Dorcas,0969,1,2,2120-08-14 12:00:00,872.72,-93.81,27.86,2120-08-14 12:00:00,2120-08-10 18:00:00,872.72,-93.81,27.86,2120-08-09 12:00:00,1009.71,-56.74,18.45,2120-08-20 06:00:00,986.11,-70.0,54.5,1002.23,-67.45,17.62,2120-08-16 18:00:00,996.93,-95.87,41.87,2120-08-19 00:00:00,995.75,-81.06,46.46
38,TC212204,Kevin,1059,1,2,2122-09-04 18:00:00,974.96,-91.02,28.07,2122-09-04 18:00:00,2122-08-31 00:00:00,974.96,-91.02,28.07,2122-08-31 00:00:00,1005.09,-94.12,22.3,2122-09-09 18:00:00,1007.68,-67.0,44.75,1005.09,-94.12,22.3,2122-09-08 06:00:00,993.08,-77.4,41.04,2122-09-09 00:00:00,993.69,-70.75,46.0
39,TC212401,Shirley,1139,1,2,2124-02-12 06:00:00,981.6,-29.66,39.24,2124-02-12 06:00:00,2124-02-04 06:00:00,981.6,-29.66,39.24,2124-02-03 00:00:00,1009.29,-39.79,33.67,2124-02-14 06:00:00,984.49,-6.75,42.0,1000.32,-36.11,37.9,2124-02-13 00:00:00,992.51,-24.99,37.98,2124-02-13 12:00:00,988.93,-18.77,38.14
40,TC212407,Alissa,1179,1,2,2124-09-21 06:00:00,947.43,-52.12,40.47,2124-09-18 18:00:00,2124-09-15 18:00:00,982.65,-72.43,30.35,2124-09-15 18:00:00,1000.27,-67.39,24.93,2124-09-22 12:00:00,996.84,-37.88,53.17,1000.27,-67.39,24.93,2124-09-19 06:00:00,987.46,-70.58,31.53,2124-09-22 06:00:00,991.09,-41.63,50.24
41,TC212409,Carmen,1194,1,2,2124-12-14 06:00:00,985.93,-43.05,34.43,2124-12-14 06:00:00,2124-12-14 06:00:00,985.93,-43.05,34.43,2124-12-12 18:00:00,1002.82,-51.77,28.68,2124-12-18 06:00:00,1013.0,-10.5,45.75,985.93,-43.05,34.43,2124-12-17 12:00:00,1005.11,-20.57,43.29,2124-12-17 18:00:00,1007.99,-17.5,44.0
42,TC212506,Geoffrey,1233,1,2,2125-09-20 18:00:00,945.58,-55.27,40.35,2125-09-19 18:00:00,2125-09-15 18:00:00,945.64,-59.64,36.55,2125-09-15 18:00:00,1009.95,-53.61,30.15,2125-09-24 06:00:00,990.73,-22.02,50.32,1009.95,-53.61,30.15,2125-09-20 18:00:00,945.58,-55.27,40.35,2125-09-24 00:00:00,990.11,-25.67,48.72
43,TC212507,Hazel,1234,1,2,2125-10-03 18:00:00,945.6,-55.76,39.55,2125-10-03 18:00:00,2125-09-19 18:00:00,945.6,-55.76,39.55,2125-09-18 18:00:00,1012.2,-24.76,7.5,2125-10-07 12:00:00,967.68,-23.5,56.25,1006.7,-29.23,12.08,2125-10-06 00:00:00,1002.7,-44.3,42.14,2125-10-06 06:00:00,1002.04,-41.99,43.7
44,TC212602,Joshua,1282,1,2,2126-09-30 06:00:00,923.72,-55.92,22.89,2126-09-30 06:00:00,2126-09-23 00:00:00,923.72,-55.92,22.89,2126-09-19 18:00:00,1012.25,-13.08,8.38,2126-10-08 00:00:00,978.24,-11.25,59.22,1006.78,-23.16,11.03,2126-10-02 00:00:00,924.02,-53.05,25.97,2126-10-07 00:00:00,988.26,-27.32,49.92
45,TC212703,Luca,1340,1,2,2127-11-13 12:00:00,976.15,-52.54,22.23,2127-11-13 12:00:00,2127-11-07 12:00:00,976.15,-52.54,22.23,2127-11-07 12:00:00,1001.58,-82.19,16.83,2127-11-15 18:00:00,1002.79,-43.53,25.89,1001.58,-82.19,16.83,2127-11-15 18:00:00,1002.79,-43.53,25.89,2127-11-15 18:00:00,1002.79,-43.53,25.89
46,TC212801,Mary,1347,1,2,2128-01-03 12:00:00,980.5,-60.53,40.47,2128-01-03 18:00:00,2128-01-03 18:00:00,980.85,-59.51,39.2,2128-01-02 12:00:00,1008.16,-74.29,35.04,2128-01-08 18:00:00,995.81,-13.69,58.39,980.85,-59.51,39.2,2128-01-07 18:00:00,992.71,-26.29,43.12,2128-01-08 00:00:00,993.52,-24.59,45.9
47,TC212804,Ollie,1367,1,2,2128-05-12 00:00:00,973.58,-64.29,35.38,2128-05-12 00:00:00,2128-05-08 18:00:00,973.58,-64.29,35.38,2128-05-07 18:00:00,1003.14,-87.48,26.63,2128-05-17 18:00:00,1012.81,-17.25,39.5,992.73,-85.12,30.5,2128-05-16 00:00:00,1002.2,-28.33,36.35,2128-05-16 06:00:00,1003.64,-25.6,36.84
48,TC212902,Stefan,1403,1,2,2129-04-16 06:00:00,965.12,-72.63,37.31,2129-04-16 06:00:00,2129-04-14 18:00:00,965.12,-72.63,37.31,2129-04-12 12:00:00,1004.72,-78.68,24.34,2129-04-25 12:00:00,1012.64,-45.25,50.75,977.28,-73.25,31.94,2129-04-21 06:00:00,986.63,-62.16,36.71,2129-04-22 18:00:00,988.94,-64.29,42.26
49,TC212904,Tess,1410,1,2,2129-06-17 00:00:00,967.5,-28.85,52.47,2129-06-14 12:00:00,2129-06-11 00:00:00,992.25,-57.07,39.86,2129-06-11 00:00:00,1008.62,-73.94,34.32,2129-06-18 00:00:00,974.38,-19.59,58.16,1008.62,-73.94,34.32,2129-06-14 18:00:00,990.71,-53.68,40.72,2129-06-15 18:00:00,988.96,-38.11,44.55
50,TC212907,Yves,1438,1,2,2129-10-20 18:00:00,944.64,-29.42,31.38,2129-10-20 18:00:00,2129-10-18 18:00:00,944.64,-29.42,31.38,2129-10-17 12:00:00,1006.7,-35.87,30.53,2129-10-28 00:00:00,1011.06,2.5,39.0,1002.39,-31.27,28.91,2129-10-22 12:00:00,968.67,-28.42,31.12,2129-10-27 00:00:00,999.95,-2.43,39.45
51,TC213002,Carlos,1455,1,2,2130-01-19 18:00:00,960.57,-40.76,43.45,2130-01-19 18:00:00,2130-01-19 18:00:00,960.57,-40.76,43.45,2130-01-19 00:00:00,982.46,-42.91,38.92,2130-01-24 00:00:00,1005.47,-15.0,40.25,960.57,-40.76,43.45,2130-01-22 06:00:00,995.26,-27.0,33.75,2130-01-22 06:00:00,995.26,-27.0,33.75
52,TC213006,Emiliano,1480,1,2,2130-10-26 00:00:00,944.36,-30.23,57.21,2130-10-19 00:00:00,2130-10-12 06:00:00,985.11,-83.13,18.1,2130-10-12 06:00:00,1008.21,-84.62,16.64,2130-10-26 06:00:00,945.48,-26.54,59.43,1008.21,-84.62,16.64,2130-10-19 12:00:00,985.79,-81.64,18.65,2130-10-25 12:00:00,950.22,-34.1,53.1
53,TC213105,Jessica,1528,1,2,2131-10-28 12:00:00,963.18,-58.26,42.76,2131-10-28 00:00:00,2131-10-22 00:00:00,967.11,-62.06,40.26,2131-10-22 00:00:00,1002.98,-57.37,38.42,2131-10-30 06:00:00,1011.99,-32.68,48.45,1002.98,-57.37,38.42,2131-10-28 06:00:00,963.38,-60.53,41.82,2131-10-29 06:00:00,984.38,-48.02,46.75
54,TC213203,Manfred,1564,1,2,2132-09-26 06:00:00,971.08,-74.07,29.52,2132-09-26 06:00:00,2132-09-17 18:00:00,971.08,-74.07,29.52,2132-09-17 12:00:00,1008.28,-38.15,13.68,2132-09-30 18:00:00,981.8,-58.94,55.91,1008.71,-39.32,13.25,2132-09-28 18:00:00,1001.79,-73.39,41.08,2132-09-29 00:00:00,998.55,-70.49,43.27
55,TC213403,Sofiee,0064,2,2,2134-03-10 18:00:00,969.97,-32.56,47.59,2134-03-10 18:00:00,2134-03-07 12:00:00,969.97,-32.56,47.59,2134-03-07 12:00:00,975.99,-55.22,34.26,2134-03-12 12:00:00,988.89,-10.0,51.75,975.99,-55.22,34.26,2134-03-12 00:00:00,980.63,-20.25,50.75,2134-03-12 00:00:00,980.63,-20.25,50.75
56,TC213405,Yan,0082,2,2,2134-07-05 06:00:00,981.88,-61.69,42.81,2134-07-05 06:00:00,2134-07-02 00:00:00,981.88,-61.69,42.81,2134-07-02 00:00:00,1012.93,-78.95,34.0,2134-07-07 06:00:00,997.48,-29.25,54.25,1012.93,-78.95,34.0,2134-07-05 12:00:00,986.35,-58.24,44.46,2134-07-06 06:00:00,996.17,-45.0,50.75
57,TC213505,Derrick,0151,2,2,2135-12-07 18:00:00,959.03,-40.32,50.87,2135-12-07 18:00:00,2135-12-06 00:00:00,959.03,-40.32,50.87,2135-12-05 12:00:00,983.56,-51.62,37.02,2135-12-10 06:00:00,986.68,-36.43,55.23,962.68,-48.39,42.95,2135-12-08 00:00:00,960.75,-41.88,50.6,2135-12-10 00:00:00,985.74,-36.44,54.23
58,TC213603,Evelyn,0162,2,2,2136-02-03 06:00:00,989.58,-49.52,32.69,2136-02-03 06:00:00,2136-02-02 00:00:00,989.58,-49.52,32.69,2136-02-02 00:00:00,996.13,-49.94,27.58,2136-02-08 00:00:00,1012.28,-34.5,28.0,996.13,-49.94,27.58,2136-02-05 00:00:00,1002.51,-47.0,30.75,2136-02-05 18:00:00,1006.88,-46.25,30.0
59,TC213606,Gabriel,0169,2,2,2136-03-25 06:00:00,992.54,-38.96,22.52,2136-03-25 06:00:00,2136-03-24 18:00:00,992.54,-38.96,22.52,2136-03-24 18:00:00,997.05,-40.88,22.93,2136-03-31 06:00:00,1011.68,-26.75,44.5,997.05,-40.88,22.93,2136-03-29 00:00:00,1000.99,-40.89,34.89,2136-03-30 00:00:00,1003.47,-37.96,41.14
60,TC213709,Oscar,0242,2,2,2137-09-18 06:00:00,923.37,-79.63,26.44,2137-09-18 06:00:00,2137-09-14 00:00:00,923.37,-79.63,26.44,2137-09-13 12:00:00,1009.42,-48.95,14.94,2137-09-22 12:00:00,997.93,-64.05,44.14,1012.22,-52.41,16.16,2137-09-20 06:00:00,956.11,-77.99,34.43,2137-09-22 00:00:00,991.81,-70.49,42.75
61,TC213710,Rachel,0244,2,2,2137-10-18 18:00:00,986.34,-43.67,57.59,2137-10-15 12:00:00,2137-10-13 12:00:00,999.09,-66.68,36.54,2137-10-13 12:00:00,1007.03,-68.2,32.05,2137-10-19 00:00:00,986.64,-41.02,59.33,1007.03,-68.2,32.05,2137-10-15 18:00:00,997.8,-65.98,37.83,2137-10-17 12:00:00,992.23,-55.21,50.03
62,TC213806,Sunny,0305,2,2,2138-10-21 06:00:00,970.22,-18.25,51.25,2138-10-18 18:00:00,2138-10-14 06:00:00,988.03,-48.48,38.15,2138-10-14 06:00:00,1012.5,-38.59,32.46,2138-10-21 06:00:00,970.22,-18.25,51.25,1012.5,-38.59,32.46,2138-10-19 00:00:00,985.47,-46.44,40.4,2138-10-20 00:00:00,982.4,-26.92,49.0
63,TC213903,Claudio,0338,2,2,2139-06-22 18:00:00,930.27,-63.58,33.09,2139-06-22 18:00:00,2139-06-20 12:00:00,930.27,-63.58,33.09,2139-06-19 12:00:00,1000.39,-68.74,41.87,2139-06-24 18:00:00,996.82,-36.01,50.8,997.07,-72.17,36.57,2139-06-24 00:00:00,972.58,-46.73,40.88,2139-06-24 06:00:00,982.56,-42.37,43.82
64,TC213904,Daisy,0349,2,2,2139-09-25 12:00:00,898.37,-95.38,22.67,2139-09-25 12:00:00,2139-09-15 06:00:00,898.37,-95.38,22.67,2139-09-14 12:00:00,1010.82,-38.65,12.81,2139-10-04 06:00:00,998.39,-76.25,54.25,1005.8,-44.4,12.45,2139-10-01 12:00:00,996.7,-97.45,37.34,2139-10-02 00:00:00,992.45,-93.17,41.08
65,TC213906,Ederson,0351,2,2,2139-09-30 00:00:00,942.75,-53.9,25.8,2139-09-30 00:00:00,2139-09-23 06:00:00,942.75,-53.9,25.8,2139-09-23 06:00:00,1006.42,-29.23,15.18,2139-10-04 00:00:00,992.91,-29.25,57.25,1006.42,-29.23,15.18,2139-10-01 12:00:00,957.06,-48.11,32.42,2139-10-03 18:00:00,984.42,-29.69,53.45
66,TC213907,Gwyneth,0352,2,2,2139-10-14 00:00:00,920.08,-76.35,29.82,2139-10-11 18:00:00,2139-10-03 18:00:00,932.41,-81.61,19.32,2139-10-03 18:00:00,1008.38,-82.05,13.98,2139-10-23 18:00:00,1013.0,-22.65,48.87,1008.38,-82.05,13.98,2139-10-13 06:00:00,930.46,-77.57,26.36,2139-10-21 18:00:00,987.64,-31.04,49.12
67,TC213908,Isaac,0355,2,2,2139-10-28 12:00:00,964.41,-18.26,44.37,2139-10-24 06:00:00,2139-10-12 06:00:00,970.65,-35.2,30.73,2139-10-12 06:00:00,1001.96,-69.37,24.61,2139-10-30 18:00:00,1008.54,-10.75,41.75,1001.96,-69.37,24.61,2139-10-25 06:00:00,980.68,-33.28,34.21,2139-10-30 18:00:00,1008.54,-10.75,41.75
68,TC213909,Jaime,0358,2,2,2139-11-26 06:00:00,982.59,-32.26,39.97,2139-11-26 06:00:00,2139-11-24 00:00:00,982.59,-32.26,39.97,2139-11-24 00:00:00,998.6,-34.87,31.17,2139-11-28 18:00:00,998.87,-27.5,51.0,998.6,-34.87,31.17,2139-11-28 06:00:00,996.28,-25.98,45.13,2139-11-28 12:00:00,998.54,-26.39,47.73
69,TC214002,Kelechi,0379,2,2,2140-08-04 06:00:00,986.3,-60.92,42.27,2140-08-03 06:00:00,2140-08-01 00:00:00,995.27,-71.94,37.21,2140-08-01 00:00:00,1011.11,-80.68,30.44,2140-08-05 06:00:00,1009.11,-42.3,50.58,1011.11,-80.68,30.44,2140-08-03 18:00:00,994.57,-67.74,39.87,2140-08-05 00:00:00,999.18,-47.5,47.78
70,TC214004,Micah,0402,2,2,2140-11-30 06:00:00,965.63,-26.35,48.86,2140-11-28 06:00:00,2140-11-26 18:00:00,975.3,-38.45,38.59,2140-11-26 06:00:00,997.68,-36.27,37.66,2140-12-01 12:00:00,975.91,-13.5,56.0,982.37,-36.41,38.56,2140-11-29 06:00:00,978.82,-31.76,36.33,2140-12-01 12:00:00,975.91,-13.5,56.0
71,TC214005,Peach,0404,2,2,2140-12-12 12:00:00,990.57,-39.97,36.14,2140-12-11 06:00:00,2140-12-08 18:00:00,994.96,-54.24,34.31,2140-12-07 18:00:00,1011.41,-67.2,33.15,2140-12-14 06:00:00,998.8,-35.75,40.89,995.0,-62.98,35.42,2140-12-12 00:00:00,997.31,-45.67,31.5,2140-12-13 06:00:00,992.41,-35.06,35.55
72,TC214105,Seldoen,0441,2,2,2141-10-10 18:00:00,961.37,-27.33,59.07,2141-10-08 18:00:00,2141-10-05 18:00:00,990.16,-54.6,38.34,2141-10-05 18:00:00,1011.36,-53.48,33.56,2141-10-10 18:00:00,961.37,-27.33,59.07,1011.36,-53.48,33.56,2141-10-09 06:00:00,986.95,-50.62,40.99,2141-10-10 06:00:00,972.0,-35.21,50.9
73,TC214201,Vincent,0463,2,2,2142-03-22 12:00:00,955.66,-53.0,59.56,2142-03-21 00:00:00,2142-03-18 06:00:00,965.98,-55.14,42.67,2142-03-15 18:00:00,1006.14,-90.67,16.25,2142-03-22 12:00:00,955.66,-53.0,59.56,976.79,-74.42,28.34,2142-03-21 06:00:00,959.7,-54.67,44.94,2142-03-21 18:00:00,962.9,-51.32,48.77
74,TC214202,Zoe,0468,2,2,2142-06-09 00:00:00,968.31,-89.82,29.26,2142-06-09 00:00:00,2142-06-02 18:00:00,968.31,-89.82,29.26,2142-06-02 12:00:00,1009.13,-86.59,15.59,2142-06-11 06:00:00,1009.52,-82.59,38.03,1008.7,-85.88,15.68,2142-06-09 06:00:00,973.78,-89.71,31.02,2142-06-10 12:00:00,999.78,-84.71,37.66
75,TC214203,Alice,0491,2,2,2142-10-26 00:00:00,934.51,-47.24,34.36,2142-10-26 00:00:00,2142-10-19 18:00:00,934.51,-47.24,34.36,2142-10-19 18:00:00,1012.42,-38.32,33.58,2142-10-29 00:00:00,995.31,-0.25,47.0,1012.42,-38.32,33.58,2142-10-26 06:00:00,944.41,-46.44,36.45,2142-10-27 18:00:00,992.04,-31.05,45.72
76,TC214204,Bruce,0496,2,2,2142-11-01 06:00:00,941.58,-37.97,58.06,2142-10-28 12:00:00,2142-10-26 18:00:00,977.78,-67.99,33.09,2142-10-26 18:00:00,998.56,-74.09,34.48,2142-11-02 12:00:00,975.82,-22.9,59.66,998.56,-74.09,34.48,2142-10-28 18:00:00,974.36,-66.39,33.1,2142-10-31 00:00:00,958.61,-47.21,45.64
77,TC214305,Ivy,0535,2,2,2143-09-27 18:00:00,904.89,-58.16,40.25,2143-09-26 00:00:00,2143-09-15 18:00:00,907.21,-67.51,31.15,2143-09-15 00:00:00,1011.25,-35.66,13.3,2143-09-30 12:00:00,966.2,-34.44,59.87,1006.43,-38.16,13.03,2143-09-26 18:00:00,909.67,-65.21,34.25,2143-09-29 00:00:00,955.36,-49.91,49.58
78,TC214309,Katie,0547,2,2,2143-11-15 18:00:00,994.59,-42.68,42.02,2143-11-15 18:00:00,2143-11-15 06:00:00,994.59,-42.68,42.02,2143-11-15 06:00:00,999.45,-41.29,43.33,2143-11-18 18:00:00,998.97,-29.25,55.75,999.45,-41.29,43.33,2143-11-17 06:00:00,1003.56,-39.55,46.15,2143-11-18 06:00:00,1001.54,-36.0,49.5
79,TC214310,Luigi,0548,2,2,2143-11-23 12:00:00,953.39,-35.47,57.08,2143-11-21 12:00:00,2143-11-19 12:00:00,992.41,-40.21,36.62,2143-11-19 12:00:00,1005.6,-48.39,32.9,2143-11-23 18:00:00,955.88,-35.47,57.08,1005.6,-48.39,32.9,2143-11-21 18:00:00,988.43,-38.47,38.05,2143-11-23 06:00:00,958.9,-34.34,55.38
80,TC214401,Michelle,0563,2,2,2144-05-04 12:00:00,986.94,-47.25,31.35,2144-05-04 12:00:00,2144-05-03 12:00:00,986.94,-47.25,31.35,2144-05-02 18:00:00,1000.45,-49.34,27.24,2144-05-11 18:00:00,1012.2,-24.0,58.0,989.5,-46.47,31.2,2144-05-10 00:00:00,1004.66,-45.61,36.29,2144-05-10 12:00:00,1005.13,-42.68,40.71
81,TC214402,Phil,0575,2,2,2144-08-30 12:00:00,961.76,-45.56,44.88,2144-08-24 12:00:00,2144-08-16 18:00:00,992.12,-68.3,26.82,2144-08-16 18:00:00,1008.3,-37.09,12.91,2144-09-03 18:00:00,1010.75,-24.0,49.25,1008.3,-37.09,12.91,2144-08-28 00:00:00,993.08,-67.63,36.53,2144-09-01 12:00:00,996.85,-40.4,49.2
82,TC214403,Risa,0577,2,2,2144-09-16 18:00:00,988.39,-31.24,18.23,2144-09-16 18:00:00,2144-09-14 18:00:00,988.39,-31.24,18.23,2144-09-13 06:00:00,1007.92,-21.96,10.78,2144-09-23 18:00:00,1005.22,-32.25,38.75,1002.42,-21.72,15.1,2144-09-23 06:00:00,1008.18,-35.75,36.25,2144-09-23 06:00:00,1008.18,-35.75,36.25
83,TC214404,Sergio,0579,2,2,2144-10-14 18:00:00,992.29,-57.86,38.44,2144-10-14 18:00:00,2144-10-13 00:00:00,992.29,-57.86,38.44,2144-10-12 18:00:00,1010.53,-70.51,27.51,2144-10-17 12:00:00,999.36,-47.0,48.75,1009.99,-69.89,27.64,2144-10-17 00:00:00,1001.27,-53.61,46.47,2144-10-17 00:00:00,1001.27,-53.61,46.47
84,TC214405,Vivianne,0584,2,2,2144-11-17 18:00:00,984.21,1.75,52.25,2144-11-10 06:00:00,2144-11-10 00:00:00,988.66,-41.63,38.29,2144-11-10 00:00:00,989.61,-41.05,40.18,2144-11-17 18:00:00,984.21,1.75,52.25,989.61,-41.05,40.18,2144-11-16 00:00:00,1000.69,-36.25,47.25,2144-11-16 06:00:00,997.44,-32.25,49.25
85,TC214503,Beatrice,0621,2,2,2145-09-25 00:00:00,949.2,-55.27,42.84,2145-09-23 18:00:00,2145-09-20 06:00:00,968.24,-67.35,33.96,2145-09-20 06:00:00,1010.14,-60.26,23.47,2145-09-26 06:00:00,965.14,-34.88,58.12,1010.14,-60.26,23.47,2145-09-24 00:00:00,967.6,-66.06,35.33,2145-09-25 18:00:00,961.64,-41.94,52.37
86,TC214706,Flavia,0715,2,2,2147-07-21 18:00:00,938.74,-59.94,35.16,2147-07-21 18:00:00,2147-07-16 00:00:00,938.74,-59.94,35.16,2147-07-15 18:00:00,1010.55,-46.83,17.59,2147-07-26 00:00:00,990.21,-23.0,54.0,1009.62,-49.24,17.68,2147-07-25 06:00:00,996.7,-36.11,48.99,2147-07-25 06:00:00,996.7,-36.11,48.99
87,TC214709,Janet,0721,2,2,2147-09-06 12:00:00,945.43,-54.66,40.58,2147-09-06 12:00:00,2147-09-03 00:00:00,945.43,-54.66,40.58,2147-09-03 00:00:00,1006.09,-62.15,30.07,2147-09-11 00:00:00,987.97,-5.12,56.28,1006.09,-62.15,30.07,2147-09-07 12:00:00,965.41,-43.71,41.96,2147-09-10 18:00:00,982.55,-8.15,55.43
88,TC214711,Kinen,0723,2,2,2147-09-26 18:00:00,915.56,-72.78,23.95,2147-09-26 18:00:00,2147-09-19 06:00:00,915.56,-72.78,23.95,2147-09-17 18:00:00,1011.29,-43.94,11.46,2147-10-07 06:00:00,974.46,-12.5,55.0,1005.98,-48.92,13.66,2147-09-27 12:00:00,954.24,-71.6,24.99,2147-10-06 00:00:00,968.71,-29.26,47.77
89,TC214712,Lydia,0724,2,2,2147-09-25 12:00:00,947.72,-52.45,19.97,2147-09-25 12:00:00,2147-09-20 12:00:00,947.72,-52.45,19.97,2147-09-20 12:00:00,1008.97,-37.26,14.8,2147-10-04 00:00:00,972.06,-19.57,55.76,1008.97,-37.26,14.8,2147-09-29 12:00:00,977.36,-51.07,31.24,2147-10-03 06:00:00,960.31,-9.9,51.22
90,TC214713,Mario,0727,2,2,2147-10-30 18:00:00,986.98,-57.03,43.01,2147-10-29 06:00:00,2147-10-27 18:00:00,991.98,-60.12,36.81,2147-10-27 18:00:00,1007.74,-55.73,31.75,2147-11-01 00:00:00,996.41,-45.0,47.5,1007.74,-55.73,31.75,2147-10-30 06:00:00,990.88,-59.43,40.09,2147-10-31 12:00:00,992.75,-51.5,45.75
91,TC214714,Nicole,0729,2,2,2147-11-17 06:00:00,977.52,-39.26,44.11,2147-11-17 06:00:00,2147-11-11 12:00:00,977.52,-39.26,44.11,2147-11-11 12:00:00,1005.17,-44.83,28.02,2147-11-20 00:00:00,1011.12,-28.85,43.1,1005.17,-44.83,28.02,2147-11-19 06:00:00,1004.66,-31.64,46.33,2147-11-19 18:00:00,1008.09,-30.09,44.67
92,TC214803,Tony,0765,2,2,2148-08-24 00:00:00,922.18,-68.77,33.14,2148-08-24 00:00:00,2148-08-17 18:00:00,922.18,-68.77,33.14,2148-08-17 12:00:00,1005.99,-43.05,16.15,2148-08-27 18:00:00,981.67,-65.99,55.16,1005.6,-44.22,16.26,2148-08-27 00:00:00,950.07,-68.59,44.01,2148-08-27 12:00:00,979.88,-68.1,51.3
93,TC214804,Winnie,0766,2,2,2148-08-31 00:00:00,951.68,-60.69,37.17,2148-08-31 00:00:00,2148-08-20 12:00:00,951.68,-60.69,37.17,2148-08-18 18:00:00,1009.16,-25.22,13.19,2148-09-05 18:00:00,1011.55,-13.25,49.5,1007.66,-35.24,13.7,2148-09-02 12:00:00,968.19,-57.5,42.83,2148-09-03 18:00:00,1000.9,-40.22,51.21
94,TC214901,Audrey,0795,2,2,2149-06-06 12:00:00,973.68,-63.15,48.92,2149-06-01 18:00:00,2149-05-29 18:00:00,988.33,-80.16,31.55,2149-05-29 18:00:00,1011.53,-83.14,31.72,2149-06-08 00:00:00,1007.0,-64.5,49.0,1011.53,-83.14,31.72,2149-06-05 00:00:00,994.83,-74.12,37.75,2149-06-06 00:00:00,979.1,-61.42,43.79
95,TC214902,Brandon,0796,2,2,2149-06-12 00:00:00,983.31,-74.37,35.67,2149-06-11 18:00:00,2149-06-10 00:00:00,987.9,-78.01,34.14,2149-06-10 00:00:00,1005.54,-88.23,21.18,2149-06-13 18:00:00,1008.49,-41.25,41.0,1005.54,-88.23,21.18,2149-06-12 00:00:00,983.31,-74.37,35.67,2149-06-13 00:00:00,1000.74,-53.96,40.02
96,TC215001,Christine,0823,2,2,2150-01-09 06:00:00,977.82,-39.6,42.24,2150-01-09 06:00:00,2150-01-05 18:00:00,977.82,-39.6,42.24,2150-01-05 18:00:00,992.24,-53.46,36.67,2150-01-14 00:00:00,1010.75,-16.5,46.75,992.24,-53.46,36.67,2150-01-12 00:00:00,998.94,-32.5,48.25,2150-01-12 18:00:00,1003.15,-27.5,46.5
97,TC215002,David,0835,2,2,2150-04-01 06:00:00,948.68,-46.58,46.36,2150-03-31 00:00:00,2150-03-28 00:00:00,978.7,-51.0,33.52,2150-03-27 00:00:00,991.59,-63.44,32.52,2150-04-03 12:00:00,973.28,-37.39,59.98,982.02,-58.99,31.29,2150-03-31 06:00:00,972.26,-49.73,35.65,2150-04-02 00:00:00,951.77,-42.84,55.13
98,TC215006,Jacob,0868,2,2,2150-10-27 00:00:00,969.93,-56.17,43.34,2150-10-26 18:00:00,2150-10-21 00:00:00,974.38,-56.34,39.92,2150-10-21 00:00:00,1012.26,-57.02,30.9,2150-10-28 12:00:00,977.39,-45.37,59.31,1012.26,-57.02,30.9,2150-10-27 00:00:00,969.93,-56.17,43.34,2150-10-27 18:00:00,977.12,-53.33,52.97
99,TC215009,Maho,0877,2,2,2150-12-13 18:00:00,975.52,-52.49,38.33,2150-12-13 18:00:00,2150-12-12 06:00:00,975.52,-52.49,38.33,2150-12-09 12:00:00,1004.1,-86.62,27.38,2150-12-14 12:00:00,979.2,-48.8,42.39,984.62,-64.3,37.05,2150-12-14 06:00:00,977.59,-48.87,40.42,2150-12-14 12:00:00,979.2,-48.8,42.39
100,TC215101,Nicholas,0879,2,2,2151-01-22 06:00:00,957.56,-58.73,42.95,2151-01-22 12:00:00,2151-01-22 12:00:00,966.71,-56.02,41.73,2151-01-21 12:00:00,989.28,-65.29,36.64,2151-01-26 18:00:00,997.8,-16.75,44.5,966.71,-56.02,41.73,2151-01-26 06:00:00,996.99,-17.75,42.5,2151-01-26 12:00:00,997.83,-16.75,43.25
101,TC215104,Queenie,0887,2,2,2151-03-30 06:00:00,966.59,-38.5,43.0,2151-03-30 06:00:00,2151-03-28 06:00:00,966.59,-38.5,43.0,2151-03-25 06:00:00,988.05,-68.35,38.62,2151-04-03 18:00:00,1002.62,-12.25,37.0,975.94,-43.74,42.5,2151-04-02 12:00:00,996.53,-26.5,39.75,2151-04-03 06:00:00,999.89,-18.75,36.75
102,TC215106,Samson,0895,2,2,2151-05-19 06:00:00,964.43,-67.41,30.05,2151-05-19 06:00:00,2151-05-09 06:00:00,964.43,-67.41,30.05,2151-05-08 00:00:00,1004.02,-75.28,9.58,2151-05-21 18:00:00,989.34,-28.92,56.59,1004.56,-76.37,8.49,2151-05-20 00:00:00,966.72,-61.21,34.06,2151-05-21 00:00:00,982.22,-49.76,49.41
103,TC215107,Tiffany,0898,2,2,2151-06-04 12:00:00,949.32,-76.51,34.5,2151-06-04 12:00:00,2151-06-01 00:00:00,949.32,-76.51,34.5,2151-06-01 00:00:00,1008.85,-71.25,23.16,2151-06-07 06:00:00,1000.7,-38.5,55.25,1008.85,-71.25,23.16,2151-06-05 12:00:00,974.54,-70.71,40.33,2151-06-06 00:00:00,988.38,-64.38,44.48
104,TC215109,William,0905,2,2,2151-09-04 12:00:00,898.64,-59.26,25.72,2151-09-04 12:00:00,2151-08-30 12:00:00,898.64,-59.26,25.72,2151-08-30 12:00:00,1005.85,-41.72,11.43,2151-09-10 12:00:00,956.86,-38.16,57.54,1005.85,-41.72,11.43,2151-09-09 12:00:00,959.8,-54.0,45.53,2151-09-10 00:00:00,967.97,-45.62,49.85
105,TC215110,Andy,0907,2,2,2151-09-13 12:00:00,957.4,-54.94,31.85,2151-09-13 12:00:00,2151-09-04 18:00:00,957.4,-54.94,31.85,2151-09-03 00:00:00,1006.9,-29.76,11.67,2151-09-22 12:00:00,988.99,-31.25,54.0,1008.63,-36.99,14.39,2151-09-21 12:00:00,1006.3,-39.96,45.84,2151-09-21 12:00:00,1006.3,-39.96,45.84
106,TC215111,Bonnie,0911,2,2,2151-09-20 06:00:00,905.85,-66.97,26.72,2151-09-20 06:00:00,2151-09-13 18:00:00,905.85,-66.97,26.72,2151-09-11 12:00:00,1011.51,-31.3,14.34,2151-09-29 18:00:00,978.57,-31.25,50.25,1005.93,-33.14,16.72,2151-09-29 06:00:00,978.33,-37.19,46.89,2151-09-29 18:00:00,978.57,-31.25,50.25
107,TC215112,Charlie,0916,2,2,2151-10-18 18:00:00,969.39,-52.79,42.91,2151-10-17 06:00:00,2151-10-14 12:00:00,997.79,-60.39,31.46,2151-10-14 12:00:00,1005.16,-62.6,24.57,2151-10-19 18:00:00,987.92,-42.0,55.25,1005.16,-62.6,24.57,2151-10-17 12:00:00,996.59,-59.88,32.58,2151-10-19 06:00:00,978.77,-47.11,47.97
108,TC215306,Hubert,1022,2,2,2153-12-17 18:00:00,970.09,-56.37,40.75,2153-12-16 12:00:00,2153-12-15 06:00:00,973.13,-50.19,41.94,2153-12-15 06:00:00,984.12,-46.33,41.0,2153-12-20 06:00:00,974.18,-24.74,37.17,984.12,-46.33,41.0,2153-12-17 18:00:00,970.09,-56.37,40.75,2153-12-19 12:00:00,977.73,-38.21,38.66
109,TC215405,Marc,1040,2,2,2154-04-20 18:00:00,974.33,-60.09,40.91,2154-04-20 18:00:00,2154-04-20 18:00:00,974.33,-60.09,40.91,2154-04-18 12:00:00,997.74,-74.07,29.52,2154-04-26 06:00:00,1010.65,-40.75,35.75,974.33,-60.09,40.91,2154-04-25 18:00:00,1005.55,-42.25,36.75,2154-04-26 00:00:00,1010.17,-41.5,36.0
110,TC215504,Shannon,1107,2,2,2155-11-04 12:00:00,938.16,-93.68,26.92,2155-11-04 12:00:00,2155-10-30 12:00:00,938.16,-93.68,26.92,2155-10-30 12:00:00,1006.44,-88.2,17.62,2155-11-07 00:00:00,1011.02,-84.75,37.0,1006.44,-88.2,17.62,2155-11-06 00:00:00,995.73,-91.17,32.53,2155-11-06 12:00:00,1003.32,-89.08,34.88
111,TC215601,Thomas,1136,2,2,2156-06-05 18:00:00,918.23,-86.52,27.51,2156-06-05 18:00:00,2156-06-01 00:00:00,918.23,-86.52,27.51,2156-06-01 00:00:00,1010.53,-85.77,20.91,2156-06-15 18:00:00,1010.49,-35.25,50.75,1010.53,-85.77,20.91,2156-06-13 18:00:00,999.69,-59.34,42.7,2156-06-14 18:00:00,999.17,-51.41,45.56
112,TC215606,Anna,1164,2,2,2156-10-26 06:00:00,993.34,-52.16,33.05,2156-10-26 06:00:00,2156-10-26 00:00:00,993.34,-52.16,33.05,2156-10-26 00:00:00,994.05,-52.65,32.24,2156-10-30 00:00:00,1007.49,-37.75,38.75,994.05,-52.65,32.24,2156-10-29 06:00:00,1003.23,-42.5,37.25,2156-10-29 12:00:00,1005.62,-41.5,38.0
113,TC215702,Esther,1182,2,2,2157-02-18 06:00:00,974.21,-39.74,47.35,2157-02-18 06:00:00,2157-02-17 00:00:00,974.21,-39.74,47.35,2157-02-16 00:00:00,977.2,-50.25,40.09,2157-02-22 00:00:00,1000.31,-20.25,49.75,976.08,-43.59,40.46,2157-02-21 00:00:00,986.49,-34.0,48.0,2157-02-21 06:00:00,988.81,-31.25,48.5
114,TC215707,Frank,1194,2,2,2157-06-11 12:00:00,951.46,-77.94,33.21,2157-06-11 12:00:00,2157-06-05 00:00:00,951.46,-77.94,33.21,2157-06-05 00:00:00,1008.38,-88.36,16.58,2157-06-16 18:00:00,997.33,-46.0,54.25,1008.38,-88.36,16.58,2157-06-14 00:00:00,984.22,-68.59,42.84,2157-06-14 06:00:00,986.17,-66.99,43.9
115,TC215710,Helena,1220,2,2,2157-11-19 06:00:00,990.19,-20.25,52.25,2157-11-14 18:00:00,2157-11-13 06:00:00,992.15,-27.46,37.88,2157-11-13 06:00:00,995.9,-25.31,35.92,2157-11-19 06:00:00,990.19,-20.25,52.25,995.9,-25.31,35.92,2157-11-16 12:00:00,994.59,-23.47,44.06,2157-11-18 00:00:00,1002.65,-23.25,51.0
116,TC215712,John,1222,2,2,2157-11-17 06:00:00,980.83,-33.55,38.28,2157-11-17 06:00:00,2157-11-17 00:00:00,980.83,-33.55,38.28,2157-11-17 00:00:00,981.04,-33.85,37.3,2157-11-22 00:00:00,987.95,-0.3,54.22,981.04,-33.85,37.3,2157-11-19 12:00:00,991.86,-26.88,36.99,2157-11-19 12:00:00,991.86,-26.88,36.99
117,TC215904,Nathan,1303,2,2,2159-12-04 12:00:00,975.78,-45.39,47.21,2159-12-04 12:00:00,2159-11-29 06:00:00,975.78,-45.39,47.21,2159-11-29 06:00:00,985.73,-55.86,38.21,2159-12-07 18:00:00,1009.91,-25.25,32.0,985.73,-55.86,38.21,2159-12-05 12:00:00,983.91,-41.0,47.75,2159-12-06 06:00:00,994.3,-37.75,43.25
118,TC216105,Aidan,1391,2,2,2161-11-02 18:00:00,968.94,-73.16,36.71,2161-11-03 06:00:00,2161-11-03 06:00:00,969.53,-72.48,38.35,2161-11-02 12:00:00,970.32,-74.51,34.63,2161-11-07 06:00:00,998.9,-51.25,34.5,969.53,-72.48,38.35,2161-11-05 12:00:00,995.93,-67.25,38.25,2161-11-05 12:00:00,995.93,-67.25,38.25
119,TC216202,Carson,1402,2,2,2162-02-03 18:00:00,960.12,-39.4,41.87,2162-02-03 18:00:00,2162-02-02 12:00:00,960.12,-39.4,41.87,2162-02-01 06:00:00,994.46,-56.47,34.84,2162-02-06 18:00:00,979.19,-22.61,54.92,975.2,-58.09,38.34,2162-02-05 00:00:00,965.28,-27.69,47.44,2162-02-06 18:00:00,979.19,-22.61,54.92
120,TC216205,Grace,1425,2,2,2162-08-20 06:00:00,940.47,-31.53,45.46,2162-08-18 18:00:00,2162-08-16 12:00:00,979.95,-50.06,40.6,2162-08-16 12:00:00,997.37,-63.66,39.9,2162-08-24 00:00:00,984.44,-8.26,57.67,997.37,-63.66,39.9,2162-08-19 00:00:00,973.13,-48.0,40.26,2162-08-22 18:00:00,969.24,-19.88,54.08
121,TC216207,Jana,1429,2,2,2162-09-06 18:00:00,903.77,-52.35,19.79,2162-09-06 18:00:00,2162-09-02 12:00:00,903.77,-52.35,19.79,2162-08-30 18:00:00,1010.19,-13.58,8.15,2162-09-16 06:00:00,997.78,-39.81,60.17,1004.03,-29.18,13.65,2162-09-13 12:00:00,952.62,-50.48,45.84,2162-09-14 00:00:00,956.15,-47.75,49.91
122,TC216208,Kevin,1430,2,2,2162-09-05 18:00:00,940.31,-21.26,53.93,2162-09-03 06:00:00,2162-08-30 18:00:00,944.39,-49.53,36.53,2162-08-30 18:00:00,1010.2,-56.81,31.0,2162-09-06 18:00:00,951.35,-16.36,58.6,1010.2,-56.81,31.0,2162-09-03 18:00:00,945.26,-46.25,37.88,2162-09-06 18:00:00,951.35,-16.36,58.6
123,TC216210,Laura,1432,2,2,2162-10-06 00:00:00,901.65,-54.68,30.75,2162-10-03 18:00:00,2162-09-24 06:00:00,920.56,-59.27,28.32,2162-09-23 06:00:00,1008.52,-24.76,7.61,2162-10-10 00:00:00,950.4,-31.11,56.5,1006.08,-33.96,10.26,2162-10-04 00:00:00,926.14,-59.06,28.42,2162-10-09 18:00:00,946.15,-34.21,52.71
124,TC216211,Manuel,1435,2,2,2162-10-21 00:00:00,937.58,-65.24,32.19,2162-10-17 18:00:00,2162-10-16 00:00:00,967.7,-80.52,20.42,2162-10-14 18:00:00,1007.15,-85.48,16.17,2162-10-23 12:00:00,978.73,-45.0,46.75,1000.56,-83.75,15.82,2162-10-18 00:00:00,965.79,-79.62,21.78,2162-10-23 06:00:00,975.95,-49.25,47.0
125,TC216301,Rayan,1466,2,2,2163-04-25 06:00:00,932.34,-95.16,26.06,2163-04-25 06:00:00,2163-04-20 18:00:00,932.34,-95.16,26.06,2163-04-19 06:00:00,1008.53,-95.99,25.11,2163-05-04 06:00:00,993.15,-72.25,53.5,1008.97,-92.82,27.85,2163-05-02 18:00:00,992.36,-65.05,41.49,2163-05-02 18:00:00,992.36,-65.05,41.49
126,TC216302,Shirley,1475,2,2,2163-08-27 18:00:00,869.71,-86.14,22.0,2163-08-27 18:00:00,2163-08-22 06:00:00,869.71,-86.14,22.0,2163-08-19 06:00:00,1005.07,-23.46,12.2,2163-09-01 00:00:00,1002.52,-95.42,39.78,1001.11,-42.97,16.61,2163-08-31 06:00:00,999.08,-99.58,36.83,2163-08-31 12:00:00,999.2,-97.62,37.99
127,TC216303,Tijjani,1480,2,2,2163-09-21 12:00:00,937.28,-49.5,40.21,2163-09-20 18:00:00,2163-09-11 00:00:00,961.53,-51.62,37.02,2163-09-09 12:00:00,1007.87,-23.32,10.64,2163-09-23 06:00:00,955.39,-37.88,57.18,1006.24,-28.44,13.74,2163-09-21 06:00:00,943.07,-50.06,38.99,2163-09-23 06:00:00,955.39,-37.88,57.18
128,TC216304,Yui,1482,2,2,2163-10-02 00:00:00,912.78,-66.6,23.39,2163-10-02 00:00:00,2163-09-25 12:00:00,912.78,-66.6,23.39,2163-09-25 12:00:00,1007.44,-33.04,14.19,2163-10-09 12:00:00,990.26,-59.75,48.75,1007.44,-33.04,14.19,2163-10-06 00:00:00,927.55,-75.09,33.55,2163-10-09 06:00:00,989.37,-61.89,45.57
129,TC216306,Benjamin,1485,2,2,2163-10-12 06:00:00,941.98,-29.58,15.59,2163-10-12 06:00:00,2163-10-06 18:00:00,941.98,-29.58,15.59,2163-10-06 18:00:00,1006.55,-21.33,6.53,2163-10-22 18:00:00,1012.64,-37.0,51.25,1006.55,-21.33,6.53,2163-10-22 00:00:00,1008.04,-41.75,42.25,2163-10-22 00:00:00,1008.04,-41.75,42.25
130,TC216401,Carmen,1494,2,2,2164-01-09 06:00:00,984.84,-57.0,54.0,2164-01-07 18:00:00,2164-01-06 12:00:00,987.82,-56.46,39.03,2164-01-04 18:00:00,1009.79,-65.78,25.01,2164-01-09 06:00:00,984.84,-57.0,54.0,992.76,-59.33,32.85,2164-01-08 12:00:00,990.21,-54.41,45.39,2164-01-08 12:00:00,990.21,-54.41,45.39
131,TC216403,Emily,1518,2,2,2164-04-26 00:00:00,982.62,-38.75,55.25,2164-04-23 06:00:00,2164-04-20 18:00:00,999.37,-73.81,36.57,2164-04-20 18:00:00,1006.65,-85.33,23.4,2164-04-26 00:00:00,982.62,-38.75,55.25,1006.65,-85.33,23.4,2164-04-23 12:00:00,997.0,-72.64,37.99,2164-04-24 12:00:00,990.31,-60.76,44.7
132,TC216405,Geoffrey,1526,2,2,2164-09-28 12:00:00,902.08,-76.81,29.49,2164-09-28 06:00:00,2164-09-12 12:00:00,908.39,-77.72,28.14,2164-09-12 00:00:00,1010.28,-22.62,15.69,2164-10-01 06:00:00,974.7,-50.19,54.51,1008.73,-24.45,16.8,2164-09-28 12:00:00,902.08,-76.81,29.49,2164-09-30 12:00:00,970.65,-60.52,46.98
133,TC216407,Joshua,1529,2,2,2164-09-26 00:00:00,905.41,-58.22,30.8,2164-09-26 00:00:00,2164-09-16 06:00:00,905.41,-58.22,30.8,2164-09-15 06:00:00,1005.54,-18.8,15.68,2164-10-01 12:00:00,999.77,-14.6,47.28,986.67,-25.87,15.52,2164-09-29 12:00:00,978.43,-52.02,49.58,2164-09-29 12:00:00,978.43,-52.02,49.58
134,TC216410,Luca,1535,2,2,2164-11-17 12:00:00,953.35,-18.03,59.58,2164-11-15 18:00:00,2164-11-13 06:00:00,966.84,-48.75,40.24,2164-11-13 06:00:00,1002.43,-61.18,23.84,2164-11-17 12:00:00,953.35,-18.03,59.58,1002.43,-61.18,23.84,2164-11-16 00:00:00,966.91,-45.81,44.04,2164-11-16 18:00:00,955.93,-35.89,52.02
135,TC216602,Ollie,0062,3,2,2166-04-08 06:00:00,986.84,-68.14,37.83,2166-04-08 06:00:00,2166-04-07 06:00:00,986.84,-68.14,37.83,2166-04-06 00:00:00,1000.22,-80.9,33.51,2166-04-10 12:00:00,1002.52,-48.0,45.25,989.54,-73.16,35.51,2166-04-09 06:00:00,988.15,-59.35,40.37,2166-04-10 00:00:00,993.46,-53.75,42.75
136,TC216604,Rosita,0070,3,2,2166-06-18 06:00:00,974.95,-89.29,29.78,2166-06-18 06:00:00,2166-06-12 06:00:00,974.95,-89.29,29.78,2166-06-12 06:00:00,1008.05,-82.3,16.98,2166-06-23 12:00:00,1010.07,-47.66,47.83,1008.05,-82.3,16.98,2166-06-21 00:00:00,990.1,-73.41,41.6,2166-06-22 00:00:00,998.45,-64.72,40.48
137,TC216609,Yves,0094,3,2,2166-11-13 06:00:00,988.75,-50.6,36.59,2166-11-13 06:00:00,2166-11-10 18:00:00,988.75,-50.6,36.59,2166-11-10 18:00:00,1011.19,-47.03,27.38,2166-11-15 12:00:00,1004.47,-15.75,47.75,1011.19,-47.03,27.38,2166-11-13 18:00:00,991.31,-47.91,38.92,2166-11-15 00:00:00,998.71,-27.25,46.0
138,TC216701,Alberto,0111,3,2,2167-03-19 06:00:00,986.21,-64.24,32.98,2167-03-19 06:00:00,2167-03-19 00:00:00,986.21,-64.24,32.98,2167-03-19 00:00:00,989.35,-65.65,33.11,2167-03-24 06:00:00,1005.71,-50.25,29.25,989.35,-65.65,33.11,2167-03-23 00:00:00,1007.17,-55.5,31.75,2167-03-23 00:00:00,1007.17,-55.5,31.75
139,TC216703,Blaise,0130,3,2,2167-09-04 00:00:00,907.51,-65.89,32.08,2167-09-03 12:00:00,2167-08-25 18:00:00,913.12,-67.65,29.01,2167-08-24 18:00:00,1006.27,-29.08,12.81,2167-09-10 00:00:00,1009.71,-12.75,47.5,1002.12,-33.6,15.75,2167-09-04 00:00:00,907.51,-65.89,32.08,2167-09-06 18:00:00,978.2,-47.97,49.09
140,TC216805,Doreen,0190,3,2,2168-08-27 18:00:00,972.18,-85.34,29.29,2168-08-27 18:00:00,2168-08-21 18:00:00,972.18,-85.34,29.29,2168-08-21 18:00:00,1002.88,-57.58,14.84,2168-08-31 12:00:00,986.95,-53.5,53.0,1002.88,-57.58,14.84,2168-08-29 18:00:00,1003.79,-78.76,39.11,2168-08-30 06:00:00,999.29,-74.87,41.41
141,TC216806,Emiliano,0193,3,2,2168-09-09 06:00:00,942.61,-51.35,30.06,2168-09-09 06:00:00,2168-09-01 12:00:00,942.61,-51.35,30.06,2168-08-31 12:00:00,1009.74,-28.23,16.33,2168-09-14 00:00:00,967.42,-23.82,58.41,1006.95,-34.3,15.46,2168-09-13 00:00:00,967.35,-40.73,45.27,2168-09-14 00:00:00,967.42,-23.82,58.41
142,TC216904,Ian,0225,3,2,2169-05-14 00:00:00,981.08,-87.45,30.01,2169-05-14 00:00:00,2169-05-11 00:00:00,981.08,-87.45,30.01,2169-05-11 00:00:00,1000.67,-86.44,26.58,2169-05-16 18:00:00,1002.42,-74.22,43.48,1000.67,-86.44,26.58,2169-05-15 06:00:00,993.74,-87.15,32.37,2169-05-16 06:00:00,989.98,-77.75,39.81
143,TC216905,Jessica,0236,3,2,2169-09-07 18:00:00,970.92,-80.25,24.75,2169-09-07 18:00:00,2169-09-01 06:00:00,970.92,-80.25,24.75,2169-09-01 06:00:00,1011.55,-50.32,17.17,2169-09-13 18:00:00,1011.58,-39.25,47.25,1011.55,-50.32,17.17,2169-09-12 12:00:00,994.16,-52.92,43.09,2169-09-13 18:00:00,1011.58,-39.25,47.25
144,TC216908,Manfred,0242,3,2,2169-10-08 18:00:00,976.51,-60.03,43.51,2169-10-07 12:00:00,2169-10-04 18:00:00,985.2,-58.34,33.95,2169-10-04 18:00:00,1009.91,-54.55,24.88,2169-10-10 00:00:00,993.05,-44.88,57.0,1009.91,-54.55,24.88,2169-10-08 00:00:00,987.5,-60.25,37.37,2169-10-09 12:00:00,993.38,-53.32,51.03
145,TC217001,Oxlip,0264,3,2,2170-03-26 18:00:00,960.86,-57.52,40.05,2170-03-26 18:00:00,2170-03-26 18:00:00,960.86,-57.52,40.05,2170-03-23 18:00:00,1009.91,-85.87,27.09,2170-04-04 00:00:00,996.62,-9.25,39.0,960.86,-57.52,40.05,2170-04-01 18:00:00,975.19,-28.98,45.29,2170-04-03 00:00:00,983.3,-20.54,42.2
146,TC217005,Rodri,0298,3,2,2170-10-27 00:00:00,979.31,-31.26,43.13,2170-10-27 00:00:00,2170-10-25 00:00:00,979.31,-31.26,43.13,2170-10-21 18:00:00,1010.19,-47.36,30.39,2170-10-29 06:00:00,1003.91,-8.0,38.25,992.85,-38.07,34.2,2170-10-28 18:00:00,991.2,-13.85,38.82,2170-10-28 18:00:00,991.2,-13.85,38.82
147,TC217006,Sofiee,0301,3,2,2170-10-29 18:00:00,940.03,-59.35,40.37,2170-10-29 18:00:00,2170-10-26 18:00:00,940.03,-59.35,40.37,2170-10-26 12:00:00,992.2,-63.59,34.86,2170-11-06 18:00:00,1011.28,-18.75,42.5,983.6,-63.88,35.84,2170-11-05 12:00:00,997.23,-29.08,40.34,2170-11-06 06:00:00,1007.39,-22.5,41.75
148,TC217007,Victor,0302,3,2,2170-11-25 06:00:00,964.9,-64.82,30.64,2170-11-25 06:00:00,2170-11-21 18:00:00,964.9,-64.82,30.64,2170-11-19 00:00:00,1008.55,-77.39,29.68,2170-11-28 18:00:00,1004.05,-42.75,42.0,985.57,-62.91,34.57,2170-11-27 12:00:00,998.32,-56.24,37.67,2170-11-27 18:00:00,1000.25,-53.75,38.75
149,TC217101,Angela,0314,3,2,2171-03-14 00:00:00,967.56,-15.25,51.0,2171-03-10 06:00:00,2171-03-10 00:00:00,967.64,-47.62,38.44,2171-03-03 12:00:00,1004.55,-91.79,29.26,2171-03-14 00:00:00,967.56,-15.25,51.0,971.48,-48.81,37.01,2171-03-12 12:00:00,974.27,-37.41,44.17,2171-03-12 18:00:00,972.5,-33.84,44.1
150,TC217102,Bernardo,0321,3,2,2171-05-08 12:00:00,949.17,-51.71,41.43,2171-05-08 12:00:00,2171-05-07 06:00:00,949.17,-51.71,41.43,2171-05-04 00:00:00,1007.47,-86.62,31.8,2171-05-10 12:00:00,987.45,-39.5,55.5,953.59,-60.15,35.44,2171-05-10 00:00:00,981.36,-42.36,49.57,2171-05-10 06:00:00,985.09,-40.0,52.16
151,TC217103,Corliss,0323,3,2,2171-06-09 18:00:00,992.3,-65.18,38.75,2171-06-09 18:00:00,2171-06-08 00:00:00,992.3,-65.18,38.75,2171-06-06 18:00:00,1011.56,-84.09,31.04,2171-06-11 06:00:00,1012.97,-48.75,47.0,1005.81,-78.17,31.1,2171-06-10 00:00:00,996.19,-61.55,40.01,2171-06-10 06:00:00,997.93,-58.67,41.51
152,TC217104,Derrick,0328,3,2,2171-09-26 00:00:00,947.29,-66.33,34.94,2171-09-26 00:00:00,2171-09-20 00:00:00,947.29,-66.33,34.94,2171-09-20 00:00:00,1006.0,-67.29,21.21,2171-10-01 12:00:00,981.4,-21.5,55.0,1006.0,-67.29,21.21,2171-09-29 18:00:00,966.91,-38.72,41.7,2171-10-01 06:00:00,976.76,-25.52,52.33
153,TC217106,Evelyn,0333,3,2,2171-11-01 00:00:00,915.69,-49.62,41.55,2171-10-31 18:00:00,2171-10-26 12:00:00,916.91,-51.52,38.47,2171-10-26 06:00:00,1010.58,-63.33,23.29,2171-11-03 06:00:00,990.23,-62.0,46.0,1009.16,-63.3,24.18,2171-11-01 00:00:00,915.69,-49.62,41.55,2171-11-01 18:00:00,945.33,-55.81,50.29
154,TC217201,Ivanka,0344,3,2,2172-01-26 00:00:00,933.56,-39.63,47.17,2172-01-26 00:00:00,2172-01-26 00:00:00,933.56,-39.63,47.17,2172-01-22 06:00:00,1001.08,-91.04,27.29,2172-01-28 00:00:00,953.17,-13.06,58.41,933.56,-39.63,47.17,2172-01-28 00:00:00,953.17,-13.06,58.41,2172-01-28 00:00:00,953.17,-13.06,58.41
155,TC217203,Jack,0354,3,2,2172-04-26 06:00:00,983.3,-49.95,42.02,2172-04-25 18:00:00,2172-04-22 06:00:00,988.78,-55.43,36.09,2172-04-22 06:00:00,1008.73,-72.6,24.07,2172-04-27 00:00:00,992.81,-38.25,54.0,1008.73,-72.6,24.07,2172-04-26 00:00:00,987.07,-52.92,38.54,2172-04-26 06:00:00,983.3,-49.95,42.02
156,TC217205,Kyan,0365,3,2,2172-09-11 06:00:00,930.44,-55.23,26.02,2172-09-11 06:00:00,2172-09-04 12:00:00,930.44,-55.23,26.02,2172-09-03 12:00:00,1008.61,-32.3,13.71,2172-09-16 18:00:00,1009.73,-14.25,50.25,1008.53,-36.49,14.33,2172-09-14 06:00:00,955.49,-54.33,40.94,2172-09-15 12:00:00,994.97,-39.69,49.13
157,TC217206,Lionel,0366,3,2,2172-09-26 12:00:00,995.9,-80.21,31.08,2172-09-26 12:00:00,2172-09-15 18:00:00,995.9,-80.21,31.08,2172-09-14 18:00:00,1008.97,-17.03,10.65,2172-09-27 12:00:00,1012.58,-79.43,35.35,1005.8,-20.37,13.45,2172-09-27 06:00:00,1008.23,-79.32,34.71,2172-09-27 12:00:00,1012.58,-79.43,35.35
158,TC217207,Melody,0367,3,2,2172-10-04 12:00:00,941.3,-49.74,39.68,2172-10-01 12:00:00,2172-09-23 06:00:00,953.43,-59.68,26.37,2172-09-23 06:00:00,997.26,-30.09,7.77,2172-10-08 18:00:00,978.64,-10.56,54.96,997.26,-30.09,7.77,2172-10-03 00:00:00,960.54,-58.57,33.21,2172-10-08 12:00:00,980.42,-9.79,53.18
159,TC217302,Rachel,0417,3,2,2173-09-24 18:00:00,931.98,-58.48,35.6,2173-09-24 06:00:00,2173-09-17 12:00:00,936.58,-58.45,31.55,2173-09-15 06:00:00,1007.25,-17.15,16.0,2173-09-28 12:00:00,992.8,-2.75,51.75,1008.07,-29.86,16.46,2173-09-24 18:00:00,931.98,-58.48,35.6,2173-09-26 06:00:00,978.28,-43.77,54.25
160,TC217402,Yoshi,0441,3,2,2174-01-26 06:00:00,981.99,-32.44,38.0,2174-01-26 06:00:00,2174-01-25 06:00:00,981.99,-32.44,38.0,2174-01-25 06:00:00,990.27,-34.19,32.84,2174-01-29 12:00:00,999.58,-19.25,56.25,990.27,-34.19,32.84,2174-01-28 12:00:00,999.42,-28.16,45.2,2174-01-28 18:00:00,1000.85,-26.84,47.33
161,TC217404,Antoine,0458,3,2,2174-05-31 06:00:00,999.21,-77.02,35.38,2174-05-31 06:00:00,2174-05-29 00:00:00,999.21,-77.02,35.38,2174-05-29 00:00:00,1007.86,-80.31,28.88,2174-06-03 12:00:00,1012.83,-63.5,42.75,1007.86,-80.31,28.88,2174-06-01 00:00:00,1001.66,-74.31,38.59,2174-06-02 00:00:00,1005.39,-72.0,42.0
162,TC217405,Brenda,0481,3,2,2174-10-24 06:00:00,959.67,-59.3,46.6,2174-10-23 06:00:00,2174-10-19 12:00:00,988.24,-61.33,36.62,2174-10-19 12:00:00,1002.21,-52.04,27.49,2174-10-26 06:00:00,990.15,-51.78,58.22,1002.21,-52.04,27.49,2174-10-23 12:00:00,982.38,-61.1,38.09,2174-10-24 18:00:00,978.31,-56.34,51.54
163,TC217502,Daisy,0496,3,2,2175-02-05 06:00:00,944.61,-40.91,42.67,2175-02-05 06:00:00,2175-02-04 12:00:00,944.61,-40.91,42.67,2175-02-03 12:00:00,981.46,-63.16,37.98,2175-02-07 12:00:00,962.87,-25.34,57.96,952.15,-51.29,40.4,2175-02-06 12:00:00,952.95,-24.46,48.5,2175-02-07 06:00:00,957.18,-23.65,55.21
164,TC217506,Gwyneth,0532,3,2,2175-10-03 18:00:00,940.03,-77.4,31.94,2175-10-03 18:00:00,2175-09-20 18:00:00,940.03,-77.4,31.94,2175-09-20 06:00:00,1008.88,-30.16,10.9,2175-10-06 00:00:00,987.06,-56.0,52.25,1008.24,-34.21,10.95,2175-10-04 18:00:00,954.84,-72.83,37.87,2175-10-05 12:00:00,972.71,-64.21,44.31
165,TC217602,Isaac,0569,3,2,2176-08-26 06:00:00,901.66,-82.04,24.53,2176-08-26 06:00:00,2176-08-18 12:00:00,901.66,-82.04,24.53,2176-08-18 12:00:00,1008.65,-40.4,15.06,2176-09-02 06:00:00,997.61,-60.25,52.5,1008.65,-40.4,15.06,2176-08-29 18:00:00,990.55,-81.67,34.65,2176-08-31 12:00:00,1001.33,-74.49,48.18
166,TC217603,Jaime,0570,3,2,2176-09-04 12:00:00,898.92,-88.97,28.01,2176-09-04 12:00:00,2176-08-26 12:00:00,898.92,-88.97,28.01,2176-08-25 18:00:00,1008.1,-30.75,16.11,2176-09-12 00:00:00,1000.02,-60.75,53.5,1009.92,-34.81,16.26,2176-09-06 18:00:00,996.73,-91.41,34.53,2176-09-10 00:00:00,985.29,-74.75,45.0
167,TC217604,Kelechi,0572,3,2,2176-09-11 00:00:00,959.77,-68.56,27.56,2176-09-11 00:00:00,2176-09-04 00:00:00,959.77,-68.56,27.56,2176-09-02 12:00:00,1008.82,-25.89,10.42,2176-09-16 18:00:00,990.23,-1.5,55.0,1007.37,-34.14,10.76,2176-09-13 12:00:00,970.16,-61.12,40.45,2176-09-14 18:00:00,994.62,-40.63,46.44
168,TC217606,Micah,0578,3,2,2176-10-27 12:00:00,924.53,-51.87,38.11,2176-10-27 12:00:00,2176-10-22 12:00:00,924.53,-51.87,38.11,2176-10-22 12:00:00,1011.05,-58.7,35.26,2176-10-31 12:00:00,989.19,-42.08,54.92,1011.05,-58.7,35.26,2176-10-29 06:00:00,971.0,-55.94,47.8,2176-10-29 06:00:00,971.0,-55.94,47.8
169,TC217802,Peach,0672,3,2,2178-10-11 00:00:00,937.26,-48.06,30.59,2178-10-11 00:00:00,2178-10-01 12:00:00,937.26,-48.06,30.59,2178-10-01 12:00:00,1009.39,-55.81,18.39,2178-10-22 00:00:00,992.15,-44.25,51.25,1009.39,-55.81,18.39,2178-10-21 06:00:00,985.13,-39.2,44.53,2178-10-21 12:00:00,987.98,-39.96,45.84
170,TC217803,Ruben,0675,3,2,2178-10-22 12:00:00,993.26,-79.79,26.31,2178-10-17 18:00:00,2178-10-16 12:00:00,998.43,-87.29,22.88,2178-10-16 12:00:00,1004.6,-89.9,21.6,2178-10-24 12:00:00,1004.06,-73.0,29.5,1004.6,-89.9,21.6,2178-10-22 00:00:00,994.4,-82.33,24.55,2178-10-24 00:00:00,1002.14,-74.75,27.75
171,TC217905,Seldoen,0704,3,2,2179-08-30 00:00:00,927.66,-52.01,22.47,2179-08-30 00:00:00,2179-08-26 06:00:00,927.66,-52.01,22.47,2179-08-25 00:00:00,1007.94,-17.94,11.02,2179-09-06 00:00:00,965.54,-32.88,58.61,998.26,-28.38,12.44,2179-09-03 18:00:00,936.84,-51.43,39.9,2179-09-05 12:00:00,952.9,-36.31,54.55
172,TC217906,Vincent,0705,3,2,2179-09-12 18:00:00,953.56,-44.4,38.25,2179-09-12 18:00:00,2179-08-29 12:00:00,953.56,-44.4,38.25,2179-08-28 12:00:00,1004.95,-14.78,15.39,2179-09-16 06:00:00,1002.32,-14.62,54.46,1003.46,-24.85,14.63,2179-09-15 06:00:00,994.72,-30.97,49.62,2179-09-15 12:00:00,998.93,-27.17,50.76
173,TC217909,Zoe,0710,3,2,2179-10-19 00:00:00,947.4,-30.36,53.03,2179-10-14 06:00:00,2179-10-09 00:00:00,982.44,-76.02,31.0,2179-10-09 00:00:00,1008.19,-80.26,12.38,2179-10-22 00:00:00,973.2,-10.99,54.65,1008.19,-80.26,12.38,2179-10-14 12:00:00,986.86,-75.74,31.88,2179-10-20 12:00:00,963.0,-13.83,56.87
174,TC218002,Bruce,0755,3,2,2180-10-09 18:00:00,936.45,-57.72,36.8,2180-10-09 18:00:00,2180-10-05 18:00:00,936.45,-57.72,36.8,2180-10-05 18:00:00,1012.65,-57.05,31.36,2180-10-11 06:00:00,998.48,-56.25,54.81,1012.65,-57.05,31.36,2180-10-10 12:00:00,952.95,-55.56,44.62,2180-10-11 00:00:00,989.84,-56.08,51.84
175,TC218003,Candy,0757,3,2,2180-10-21 18:00:00,956.3,-39.8,43.67,2180-10-21 18:00:00,2180-10-21 00:00:00,956.3,-39.8,43.67,2180-10-17 18:00:00,1006.04,-54.28,35.5,2180-10-24 12:00:00,974.43,-27.33,59.07,969.19,-42.48,40.34,2180-10-23 06:00:00,979.87,-29.55,49.08,2180-10-24 00:00:00,981.38,-28.5,54.17
176,TC218206,Emmelyn,0852,3,2,2182-11-04 06:00:00,988.13,-58.56,30.64,2182-11-04 06:00:00,2182-11-02 18:00:00,988.13,-58.56,30.64,2182-11-01 18:00:00,1000.19,-81.89,19.34,2182-11-07 00:00:00,1004.31,-21.25,28.5,996.3,-74.4,23.51,2182-11-04 18:00:00,991.31,-51.1,33.11,2182-11-05 12:00:00,991.23,-40.52,33.25
177,TC218207,Gianluigi,0859,3,2,2182-12-15 06:00:00,989.06,-40.2,50.69,2182-12-14 12:00:00,2182-12-12 06:00:00,990.96,-50.03,44.83,2182-12-12 06:00:00,996.89,-60.26,33.02,2182-12-16 06:00:00,998.36,-27.5,54.0,996.89,-60.26,33.02,2182-12-14 18:00:00,989.25,-47.05,47.01,2182-12-15 06:00:00,989.06,-40.2,50.69
178,TC218304,Jeremy,0882,3,2,2183-07-03 12:00:00,965.55,-68.83,38.61,2183-07-03 12:00:00,2183-06-27 00:00:00,965.55,-68.83,38.61,2183-06-27 00:00:00,1009.79,-80.15,29.17,2183-07-07 06:00:00,988.04,-22.0,53.0,1009.79,-80.15,29.17,2183-07-05 06:00:00,981.05,-54.52,43.71,2183-07-05 18:00:00,981.04,-46.58,46.36
179,TC218401,Luigi,0927,3,2,2184-08-27 18:00:00,941.46,-54.18,35.78,2184-08-27 12:00:00,2184-08-22 18:00:00,962.81,-55.24,34.72,2184-08-21 12:00:00,1007.0,-34.42,15.2,2184-09-03 06:00:00,993.89,-7.0,53.0,1003.95,-38.24,17.82,2184-08-27 18:00:00,941.46,-54.18,35.78,2184-09-01 18:00:00,978.76,-17.96,44.38
180,TC218503,Phil,0962,3,2,2185-05-16 06:00:00,955.89,-88.0,29.5,2185-05-16 06:00:00,2185-05-14 06:00:00,955.89,-88.0,29.5,2185-05-12 18:00:00,1004.91,-98.22,25.9,2185-05-23 00:00:00,1006.16,-61.5,45.25,999.71,-93.89,24.31,2185-05-22 06:00:00,1002.55,-63.87,39.79,2185-05-22 12:00:00,1003.53,-62.75,41.5
181,TC218504,Risa,0964,3,2,2185-06-12 00:00:00,985.13,-69.63,38.83,2185-06-11 12:00:00,2185-06-09 00:00:00,988.12,-69.45,36.16,2185-06-08 06:00:00,1008.51,-77.04,32.19,2185-06-13 06:00:00,1010.01,-73.01,43.75,1008.15,-74.88,30.16,2185-06-11 18:00:00,986.75,-69.41,37.36,2185-06-13 00:00:00,1007.8,-73.04,43.47
182,TC218508,Sergio,0986,3,2,2185-10-24 12:00:00,914.41,-54.62,36.43,2185-10-24 12:00:00,2185-10-20 18:00:00,914.41,-54.62,36.43,2185-10-20 18:00:00,998.28,-55.29,30.85,2185-10-29 18:00:00,969.7,-31.0,57.85,998.28,-55.29,30.85,2185-10-29 12:00:00,969.66,-34.69,54.03,2185-10-29 18:00:00,969.7,-31.0,57.85
183,TC218604,Zack,1023,3,2,2186-08-28 12:00:00,987.68,-80.48,29.89,2186-08-28 12:00:00,2186-08-23 00:00:00,987.68,-80.48,29.89,2186-08-21 18:00:00,1010.39,-43.64,14.9,2186-09-01 00:00:00,1003.53,-59.5,47.75,1010.9,-53.08,16.67,2186-08-31 06:00:00,997.29,-70.61,44.82,2186-08-31 12:00:00,1000.38,-67.26,46.49
184,TC218605,Alex,1025,3,2,2186-09-10 18:00:00,941.75,-79.85,29.14,2186-09-10 18:00:00,2186-09-03 12:00:00,941.75,-79.85,29.14,2186-09-01 06:00:00,1011.73,-29.6,11.9,2186-09-14 06:00:00,1006.51,-68.75,45.5,1009.33,-37.76,14.59,2186-09-12 06:00:00,1000.61,-84.12,35.75,2186-09-12 18:00:00,1004.03,-81.36,38.68
185,TC218606,Beatrice,1028,3,2,2186-09-18 12:00:00,955.79,-66.37,32.71,2186-09-18 12:00:00,2186-09-10 00:00:00,955.79,-66.37,32.71,2186-09-10 00:00:00,1008.69,-34.21,10.95,2186-09-21 18:00:00,969.34,-31.0,54.25,1008.69,-34.21,10.95,2186-09-19 06:00:00,979.64,-66.49,37.16,2186-09-20 18:00:00,996.94,-53.5,45.7
186,TC218704,Colin,1076,3,2,2187-09-02 00:00:00,991.09,-87.82,30.41,2187-09-02 00:00:00,2187-08-28 18:00:00,991.09,-87.82,30.41,2187-08-28 18:00:00,1002.12,-72.46,23.51,2187-09-06 06:00:00,995.95,-68.75,51.5,1002.12,-72.46,23.51,2187-09-04 18:00:00,1007.65,-94.76,42.3,2187-09-05 12:00:00,1002.63,-86.56,47.49
187,TC218706,Dawn,1080,3,2,2187-09-26 12:00:00,944.56,-57.61,37.7,2187-09-24 18:00:00,2187-09-22 12:00:00,991.69,-65.9,34.77,2187-09-22 00:00:00,1010.03,-68.23,30.28,2187-09-29 06:00:00,967.93,-16.25,54.5,1010.25,-67.4,30.9,2187-09-25 00:00:00,982.1,-65.53,35.62,2187-09-29 00:00:00,970.35,-20.5,52.25
188,TC218707,Ernest,1090,3,2,2187-11-01 12:00:00,956.58,-65.06,37.66,2187-11-01 12:00:00,2187-10-28 00:00:00,956.58,-65.06,37.66,2187-10-28 00:00:00,1003.89,-70.35,28.26,2187-11-08 18:00:00,991.39,-33.25,53.18,1003.89,-70.35,28.26,2187-11-08 00:00:00,1002.8,-34.02,45.09,2187-11-08 06:00:00,1000.15,-33.37,47.6
189,TC218803,Flavia,1137,3,2,2188-10-02 06:00:00,927.62,-51.23,39.16,2188-09-29 18:00:00,2188-09-23 06:00:00,972.27,-62.67,29.4,2188-09-22 12:00:00,1004.23,-18.41,12.78,2188-10-03 18:00:00,978.49,-38.0,56.85,1002.25,-25.61,12.61,2188-09-30 00:00:00,974.86,-60.12,29.62,2188-10-03 06:00:00,960.01,-43.25,50.34
190,TC218805,Harrison,1147,3,2,2188-11-15 00:00:00,940.58,-32.29,41.37,2188-11-15 00:00:00,2188-11-14 18:00:00,940.58,-32.29,41.37,2188-11-12 18:00:00,983.34,-49.63,29.96,2188-11-21 06:00:00,1012.11,-9.25,36.75,942.45,-34.34,40.07,2188-11-20 18:00:00,1005.85,-8.5,37.75,2188-11-21 06:00:00,1012.11,-9.25,36.75
191,TC218806,Janet,1152,3,2,2188-12-20 06:00:00,951.77,-35.77,39.96,2188-12-20 06:00:00,2188-12-15 12:00:00,951.77,-35.77,39.96,2188-12-15 12:00:00,999.85,-74.27,36.62,2188-12-23 00:00:00,985.95,-2.91,55.68,999.85,-74.27,36.62,2188-12-21 18:00:00,970.42,-16.11,51.11,2188-12-22 12:00:00,978.64,-8.15,55.43
192,TC218906,Lydia,1202,3,2,2189-10-29 06:00:00,959.89,-85.37,28.82,2189-10-29 06:00:00,2189-10-25 12:00:00,959.89,-85.37,28.82,2189-10-25 12:00:00,1007.3,-89.14,22.12,2189-11-02 06:00:00,1000.41,-71.5,51.0,1007.3,-89.14,22.12,2189-10-30 06:00:00,1005.31,-85.33,32.94,2189-10-30 18:00:00,1006.01,-82.79,36.09
193,TC219002,Mario,1227,3,2,2190-08-15 06:00:00,911.61,-87.08,27.0,2190-08-15 06:00:00,2190-08-08 00:00:00,911.61,-87.08,27.0,2190-08-06 12:00:00,1007.4,-34.54,15.31,2190-08-22 00:00:00,990.52,-48.4,53.98,1005.61,-41.68,16.95,2190-08-17 12:00:00,998.55,-90.24,35.99,2190-08-21 12:00:00,993.55,-56.9,51.2
194,TC219004,Nicole,1229,3,2,2190-09-12 06:00:00,940.7,-58.64,30.36,2190-09-12 06:00:00,2190-09-05 12:00:00,940.7,-58.64,30.36,2190-09-05 12:00:00,1010.22,-35.16,14.09,2190-09-20 06:00:00,969.3,-24.67,60.06,1010.22,-35.16,14.09,2190-09-18 12:00:00,955.05,-50.39,41.52,2190-09-20 00:00:00,968.46,-30.89,57.67
195,TC219104,Audrey,1273,3,2,2191-10-09 00:00:00,967.92,-44.18,43.7,2191-10-09 00:00:00,2191-10-03 18:00:00,967.92,-44.18,43.7,2191-10-03 18:00:00,1012.72,-58.0,27.85,2191-10-10 12:00:00,987.55,-22.89,59.37,1012.72,-58.0,27.85,2191-10-09 18:00:00,972.98,-34.76,49.56,2191-10-10 06:00:00,984.81,-26.7,55.53
196,TC219105,Brandon,1278,3,2,2191-11-11 00:00:00,945.32,-61.25,36.9,2191-11-11 00:00:00,2191-11-06 18:00:00,945.32,-61.25,36.9,2191-11-06 06:00:00,1009.21,-63.84,26.1,2191-11-13 06:00:00,998.6,-22.5,44.75,1004.34,-60.91,25.97,2191-11-11 12:00:00,954.19,-56.49,41.55,2191-11-12 06:00:00,982.83,-42.47,47.53
197,TC219204,David,1330,3,2,2192-10-17 18:00:00,972.27,-29.31,59.4,2192-10-11 12:00:00,2192-10-08 06:00:00,995.51,-66.34,36.98,2192-10-08 06:00:00,1011.65,-69.64,36.72,2192-10-17 18:00:00,972.27,-29.31,59.4,1011.65,-69.64,36.72,2192-10-15 00:00:00,1001.19,-65.9,39.02,2192-10-16 00:00:00,1001.66,-59.1,44.13
198,TC219205,Elyse,1335,3,2,2192-11-15 18:00:00,956.72,-30.1,40.36,2192-11-07 06:00:00,2192-11-05 18:00:00,999.92,-68.43,34.0,2192-11-05 18:00:00,1007.63,-68.55,31.19,2192-11-17 18:00:00,1007.48,-1.5,47.75,1007.63,-68.55,31.19,2192-11-08 12:00:00,1002.16,-67.33,31.66,2192-11-17 18:00:00,1007.48,-1.5,47.75
199,TC219308,Jacob,1390,3,2,2193-11-09 18:00:00,949.31,-45.24,39.2,2193-11-09 18:00:00,2193-11-09 18:00:00,949.31,-45.24,39.2,2193-11-05 00:00:00,1007.98,-74.11,28.08,2193-11-15 00:00:00,975.02,-25.25,56.0,949.31,-45.24,39.2,2193-11-14 18:00:00,975.29,-22.25,53.5,2193-11-15 00:00:00,975.02,-25.25,56.0
200,TC219309,Katrina,1393,3,2,2193-12-02 06:00:00,928.07,-38.32,32.06,2193-12-02 06:00:00,2193-11-28 00:00:00,928.07,-38.32,32.06,2193-11-28 00:00:00,1011.12,-38.51,25.61,2193-12-16 06:00:00,1004.88,19.0,47.08,1011.12,-38.51,25.61,2193-12-12 12:00:00,934.78,-36.41,29.19,2193-12-15 12:00:00,991.9,6.27,50.15
201,TC219401,Luke,1405,3,2,2194-02-13 06:00:00,979.77,-32.91,35.03,2194-02-13 06:00:00,2194-02-11 06:00:00,979.77,-32.91,35.03,2194-02-11 06:00:00,989.99,-36.77,36.59,2194-02-16 00:00:00,995.52,-12.06,34.4,989.99,-36.77,36.59,2194-02-14 06:00:00,986.02,-31.87,31.67,2194-02-14 18:00:00,990.2,-26.99,30.76
202,TC219402,Maho,1427,3,2,2194-09-04 18:00:00,935.09,-60.45,39.01,2194-09-01 18:00:00,2194-08-26 12:00:00,943.75,-68.79,26.52,2194-08-25 12:00:00,1011.57,-29.72,16.73,2194-09-08 18:00:00,967.63,-0.36,60.34,1009.57,-34.98,15.75,2194-09-03 12:00:00,942.4,-70.89,33.19,2194-09-06 00:00:00,939.94,-42.18,50.54
203,TC219405,Queenie,1430,3,2,2194-09-19 06:00:00,923.97,-52.9,27.34,2194-09-19 06:00:00,2194-09-10 06:00:00,923.97,-52.9,27.34,2194-09-10 06:00:00,1003.95,-12.82,9.46,2194-10-03 06:00:00,1010.83,-17.25,37.5,1003.95,-12.82,9.46,2194-09-30 06:00:00,1003.13,-29.92,43.14,2194-10-01 00:00:00,1004.07,-26.48,41.59
204,TC219407,Tiffany,1437,3,2,2194-11-13 12:00:00,895.04,-85.66,19.61,2194-11-13 12:00:00,2194-11-04 00:00:00,895.04,-85.66,19.61,2194-11-04 00:00:00,1008.27,-78.43,15.54,2194-11-21 18:00:00,981.68,-25.5,44.75,1008.27,-78.43,15.54,2194-11-17 12:00:00,920.27,-80.08,21.68,2194-11-20 12:00:00,981.25,-49.3,41.08
205,TC219408,William,1439,3,2,2194-11-13 06:00:00,945.86,-57.77,33.12,2194-11-13 06:00:00,2194-11-09 18:00:00,945.86,-57.77,33.12,2194-11-06 18:00:00,1005.86,-65.42,19.69,2194-11-19 06:00:00,969.74,-9.0,52.25,974.82,-54.89,30.65,2194-11-17 06:00:00,978.43,-56.9,37.77,2194-11-18 12:00:00,967.2,-29.04,51.12
206,TC219502,Andy,1474,3,2,2195-09-09 18:00:00,920.35,-56.99,42.19,2195-09-09 06:00:00,2195-08-29 12:00:00,928.44,-61.1,38.09,2195-08-28 12:00:00,1006.19,-26.35,13.81,2195-09-12 12:00:00,968.01,-9.5,52.75,1007.14,-29.89,14.14,2195-09-09 12:00:00,926.25,-59.21,40.19,2195-09-11 00:00:00,984.72,-40.68,50.61
207,TC219503,Bonnie,1476,3,2,2195-09-14 06:00:00,953.21,-58.58,34.69,2195-09-13 18:00:00,2195-09-08 18:00:00,962.29,-60.39,31.46,2195-09-08 12:00:00,1011.01,-40.97,13.41,2195-09-17 12:00:00,1008.16,-20.75,45.5,1008.58,-40.17,13.99,2195-09-14 00:00:00,964.1,-59.53,33.14,2195-09-16 12:00:00,1000.29,-35.5,44.25
